$IIRMC,014000,A,3739.855,N,12222.813,W,00.0,126,290310,15,E,A*1E
$IIVHW,,,271,M,00.0,N,,*60
$IIVLW,00000,N,000.0,N*53
$IIVWR,004,R,10.0,N,,,,*64
$IIGLL,3739.855,N,12222.813,W,014001,A,A*4B
$IIHDG,271,,,15,E*12
$IIMTW,+15.5,C*39
$IIMWV,003,R,10.1,N,A*10
$IIMWV,004,T,10.0,N,A*10
$IIRMB,A,0.23,R,,BAYBDG  ,,,,,008.10,001,,V,A*7B
$IIRMC,014001,A,3739.855,N,12222.813,W,00.0,126,290310,15,E,A*1F
$IIVHW,,,271,M,00.0,N,,*60
$IIVLW,00000,N,000.0,N*53
$IIVWR,001,R,10.5,N,,,,*64
$IIGLL,3739.855,N,12222.813,W,014002,A,A*48
$IIHDG,271,,,15,E*12
$IIMTW,+15.5,C*39
$IIMWV,001,R,10.5,N,A*16
$IIMWV,003,T,10.1,N,A*16
$IIRMC,014002,A,3739.855,N,12222.813,W,00.0,126,290310,15,E,A*1C
$IIVHW,,,271,M,00.0,N,,*60
$IIVLW,00000,N,000.0,N*53
$IIVWR,002,L,10.8,N,,,,*74
$IIGLL,3739.854,N,12222.812,W,014003,A,A*49
$IIHDG,271,,,15,E*12
$IIMTW,+15.5,C*39
$IIMWV,358,R,10.8,N,A*14
$IIMWV,001,T,10.5,N,A*10
$IIRMB,A,0.23,R,,BAYBDG  ,,,,,008.10,001,,V,A*7B
$IIRMC,014004,A,3739.854,N,12222.812,W,00.0,126,290310,15,E,A*1A
$IIVHW,,,271,M,00.0,N,,*60
$IIVLW,00000,N,000.0,N*53
$IIVWR,000,R,10.7,N,,,,*67
$IIGLL,3739.854,N,12222.812,W,014004,A,A*4E
$IIHDG,271,,,15,E*12
$IIMTW,+15.5,C*39
$IIMWV,000,R,10.7,N,A*15
$IIMWV,358,T,10.8,N,A*12
$IIRMB,A,0.23,R,,BAYBDG  ,,,,,008.10,001,,V,A*7B
$IIRMC,014005,A,3739.855,N,12222.812,W,00.0,126,290310,15,E,A*1A
$IIVHW,,,271,M,00.0,N,,*60
$IIVLW,00000,N,000.0,N*53
$IIVWR,000,R,10.9,N,,,,*69
$IIGLL,3739.855,N,12222.812,W,014005,A,A*4E
$IIHDG,271,,,15,E*12
$IIMTW,+15.5,C*39
$IIMWV,359,R,10.7,N,A*1A
$IIMWV,000,T,10.9,N,A*1D
$IIRMC,014006,A,3739.854,N,12222.812,W,00.0,126,290310,15,E,A*18
$IIVHW,,,271,M,00.0,N,,*60
$IIVLW,00000,N,000.0,N*53
$IIVWR,001,L,10.7,N,,,,*78
$IIGLL,3739.854,N,12222.812,W,014006,A,A*4C
$IIHDG,271,,,15,E*12
$IIMTW,+15.5,C*39
$IIMWV,358,R,10.6,N,A*1A
$IIMWV,359,T,10.7,N,A*1C
$IIRMB,A,0.23,R,,BAYBDG  ,,,,,008.10,001,,V,A*7B
$IIRMC,014007,A,3739.854,N,12222.812,W,00.0,126,290310,15,E,A*19
$IIVHW,,,271,M,00.0,N,,*60
$IIVLW,00000,N,000.0,N*53
$IIVWR,002,L,10.6,N,,,,*7A
$IIGLL,3739.854,N,12222.812,W,014007,A,A*4D
$IIHDG,271,,,15,E*12
$IIMTW,+15.5,C*39
$IIMWV,358,R,10.4,N,A*18
$IIMWV,358,T,10.6,N,A*1C
$IIRMC,014008,A,3739.853,N,12222.812,W,00.0,126,290310,15,E,A*11
$IIVHW,,,271,M,00.0,N,,*60
$IIVLW,00000,N,000.0,N*53
$IIVWR,002,L,10.4,N,,,,*78
$IIGLL,3739.853,N,12222.812,W,014008,A,A*45
$IIHDG,271,,,15,E*12
$IIMTW,+15.5,C*39
$IIMWV,357,R,10.4,N,A*17
$IIMWV,358,T,10.4,N,A*1E
$IIRMB,A,0.23,R,,BAYBDG  ,,,,,008.10,001,,V,A*7B
$IIRMC,014009,A,3739.853,N,12222.812,W,00.0,126,290310,15,E,A*10
$IIVHW,,,271,M,00.0,N,,*60
$IIVLW,00000,N,000.0,N*53
$IIVWR,003,L,10.4,N,,,,*79
$IIGLL,3739.854,N,12222.812,W,014010,A,A*4B
$IIHDG,271,,,15,E*12
$IIMTW,+15.5,C*39
$IIMWV,357,R,10.5,N,A*16
$IIMWV,357,T,10.4,N,A*11
$IIRMC,014010,A,3739.854,N,12222.812,W,00.0,126,290310,15,E,A*1F
$IIVHW,,,271,M,00.0,N,,*60
$IIVLW,00000,N,000.0,N*53
$IIVWR,003,L,10.5,N,,,,*78
$IIGLL,3739.854,N,12222.812,W,014011,A,A*4A
$IIHDG,271,,,15,E*12
$IIMTW,+15.5,C*39
$IIMWV,358,R,10.5,N,A*19
$IIMWV,357,T,10.5,N,A*10
$IIRMB,A,0.23,R,,BAYBDG  ,,,,,008.10,001,,V,A*7B
$IIRMC,014011,A,3739.854,N,12222.812,W,00.0,126,290310,15,E,A*1E
$IIVHW,,,271,M,00.0,N,,*60
$IIVLW,00000,N,000.0,N*53
$IIVWR,001,L,10.8,N,,,,*77
$IIGLL,3739.855,N,12222.812,W,014012,A,A*48
$IIHDG,271,,,15,E*12
$IIMTW,+15.5,C*39
$IIMWV,359,R,10.8,N,A*15
$IIMWV,358,T,10.5,N,A*1F
$IIRMC,014012,A,3739.855,N,12222.812,W,00.0,126,290310,15,E,A*1C
$IIVHW,,,271,M,00.0,N,,*60
$IIVLW,00000,N,000.0,N*53
$IIVWR,001,L,10.7,N,,,,*78
$IIGLL,3739.854,N,12222.812,W,014013,A,A*48
$IIHDG,271,,,15,E*12
$IIMTW,+15.5,C*39
$IIMWV,359,R,10.7,N,A*1A
$IIMWV,359,T,10.8,N,A*13
$IIRMB,A,0.23,R,,BAYBDG  ,,,,,008.10,001,,V,A*7B
$IIRMC,014014,A,3739.854,N,12222.812,W,00.0,126,290310,15,E,A*1B
$IIVHW,,,271,M,00.0,N,,*60
$IIVLW,00000,N,000.0,N*53
$IIVWR,001,L,10.9,N,,,,*76
$IIGLL,3739.854,N,12222.812,W,014014,A,A*4F
$IIHDG,271,,,15,E*12
$IIMTW,+15.5,C*39
$IIMWV,359,R,10.9,N,A*14
$IIMWV,359,T,10.7,N,A*1C
$IIRMB,A,0.23,R,,BAYBDG  ,,,,,008.10,001,,V,A*7B
$IIRMC,014015,A,3739.855,N,12222.812,W,00.0,126,290310,15,E,A*1B
$IIVHW,,,270,M,00.0,N,,*61
$IIVLW,00000,N,000.0,N*53
$IIVWR,001,L,11.0,N,,,,*7E
$IIGLL,3739.855,N,12222.812,W,014015,A,A*4F
$IIHDG,270,,,15,E*13
$IIMTW,+15.5,C*39
$IIMWV,000,R,11.1,N,A*12
$IIMWV,359,T,11.0,N,A*1A
$IIRMC,014016,A,3739.855,N,12222.812,W,00.0,126,290310,15,E,A*18
$IIVHW,,,271,M,00.0,N,,*60
$IIVLW,00000,N,000.0,N*53
$IIVWR,000,R,11.1,N,,,,*60
$IIGLL,3739.855,N,12222.812,W,014016,A,A*4C
$IIHDG,271,,,15,E*12
$IIMTW,+15.5,C*39
$IIMWV,357,R,11.1,N,A*13
$IIMWV,000,T,11.1,N,A*14
$IIRMB,A,0.23,R,,BAYBDG  ,,,,,008.10,001,,V,A*7B
$IIRMC,014017,A,3739.855,N,12222.812,W,00.0,126,290310,15,E,A*19
$IIVHW,,,271,M,00.0,N,,*60
$IIVLW,00000,N,000.0,N*53
$IIVWR,003,L,11.1,N,,,,*7D
$IIGLL,3739.855,N,12222.812,W,014017,A,A*4D
$IIHDG,271,,,15,E*12
$IIMTW,+15.5,C*39
$IIMWV,357,R,10.8,N,A*1B
$IIMWV,357,T,11.1,N,A*15
$IIRMC,014018,A,3739.855,N,12222.812,W,00.0,126,290310,15,E,A*16
$IIVHW,,,271,M,00.0,N,,*60
$IIVLW,00000,N,000.0,N*53
$IIVWR,003,L,10.8,N,,,,*75
$IIGLL,3739.855,N,12222.812,W,014018,A,A*42
$IIHDG,271,,,15,E*12
$IIMTW,+15.5,C*39
$IIMWV,357,R,10.6,N,A*15
$IIMWV,357,T,10.8,N,A*1D
$IIRMB,A,0.23,R,,BAYBDG  ,,,,,008.10,001,,V,A*7B
$IIRMC,014019,A,3739.854,N,12222.812,W,00.0,126,290310,15,E,A*16
$IIVHW,,,271,M,00.0,N,,*60
$IIVLW,00000,N,000.0,N*53
$IIVWR,003,L,10.6,N,,,,*7B
$IIGLL,3739.854,N,12222.812,W,014020,A,A*48
$IIHDG,271,,,15,E*12
$IIMTW,+15.5,C*39
$IIMWV,354,R,10.2,N,A*12
$IIMWV,357,T,10.6,N,A*13
$IIRMC,014020,A,3739.854,N,12222.812,W,00.0,126,290310,15,E,A*1C
$IIVHW,,,271,M,00.0,N,,*60
$IIVLW,00000,N,000.0,N*53
$IIVWR,006,L,10.2,N,,,,*7A
$IIGLL,3739.854,N,12222.812,W,014021,A,A*49
$IIHDG,271,,,15,E*12
$IIMTW,+15.5,C*39
$IIMWV,353,R,09.6,N,A*19
$IIMWV,354,T,10.2,N,A*14
$IIRMB,A,0.23,R,,BAYBDG  ,,,,,008.10,001,,V,A*7B
$IIRMC,014021,A,3739.854,N,12222.812,W,00.0,126,290310,15,E,A*1D
$IIVHW,,,271,M,00.0,N,,*60
$IIVLW,00000,N,000.0,N*53
$IIVWR,003,L,09.5,N,,,,*70
$IIGLL,3739.854,N,12222.812,W,014022,A,A*4A
$IIHDG,271,,,15,E*12
$IIMTW,+15.5,C*39
$IIMWV,357,R,09.5,N,A*1E
$IIMWV,353,T,09.6,N,A*1F
$IIRMC,014022,A,3739.854,N,12222.812,W,00.0,126,290310,15,E,A*1E
$IIVHW,,,271,M,00.0,N,,*60
$IIVLW,00000,N,000.0,N*53
$IIVWR,003,L,09.5,N,,,,*70
$IIGLL,3739.853,N,12222.811,W,014023,A,A*4F
$IIHDG,271,,,15,E*12
$IIMTW,+15.5,C*39
$IIMWV,357,R,09.5,N,A*1E
$IIMWV,357,T,09.5,N,A*18
$IIRMB,A,0.23,R,,BAYBDG  ,,,,,008.10,001,,V,A*7B
$IIRMC,014024,A,3739.853,N,12222.811,W,00.0,126,290310,15,E,A*1C
$IIVHW,,,271,M,00.0,N,,*60
$IIVLW,00000,N,000.0,N*53
$IIVWR,004,L,09.2,N,,,,*70
$IIGLL,3739.853,N,12222.811,W,014024,A,A*48
$IIHDG,271,,,15,E*12
$IIMTW,+15.5,C*39
$IIMWV,356,R,09.2,N,A*18
$IIMWV,357,T,09.5,N,A*18
$IIRMB,A,0.23,R,,BAYBDG  ,,,,,008.10,001,,V,A*7B
$IIRMC,014025,A,3739.853,N,12222.811,W,00.0,126,290310,15,E,A*1D
$IIVHW,,,271,M,00.0,N,,*60
$IIVLW,00000,N,000.0,N*53
$IIVWR,006,L,09.3,N,,,,*73
$IIGLL,3739.853,N,12222.811,W,014025,A,A*49
$IIHDG,271,,,15,E*12
$IIMTW,+15.5,C*39
$IIMWV,352,R,09.0,N,A*1E
$IIMWV,354,T,09.3,N,A*1D
$IIRMC,014026,A,3739.853,N,12222.811,W,00.0,126,290310,15,E,A*1E
$IIVHW,,,271,M,00.0,N,,*60
$IIVLW,00000,N,000.0,N*53
$IIVWR,008,L,09.0,N,,,,*7E
$IIGLL,3739.853,N,12222.811,W,014026,A,A*4A
$IIHDG,271,,,15,E*12
$IIMTW,+15.5,C*39
$IIMWV,353,R,09.3,N,A*1C
$IIMWV,352,T,09.0,N,A*18
$IIRMB,A,0.23,R,,BAYBDG  ,,,,,008.10,001,,V,A*7B
$IIRMC,014027,A,3739.852,N,12222.811,W,00.0,126,290310,15,E,A*1E
$IIVHW,,,271,M,00.0,N,,*60
$IIVLW,00000,N,000.0,N*53
$IIVWR,007,L,09.3,N,,,,*72
$IIGLL,3739.852,N,12222.811,W,014027,A,A*4A
$IIHDG,271,,,15,E*12
$IIMTW,+15.5,C*39
$IIMWV,354,R,09.0,N,A*18
$IIMWV,353,T,09.3,N,A*1A
$IIRMC,014028,A,3739.852,N,12222.811,W,00.0,126,290310,15,E,A*11
$IIVHW,,,271,M,00.0,N,,*60
$IIVLW,00000,N,000.0,N*53
$IIVWR,006,L,09.0,N,,,,*70
$IIGLL,3739.852,N,12222.811,W,014028,A,A*45
$IIHDG,271,,,15,E*12
$IIMTW,+15.5,C*39
$IIMWV,354,R,08.8,N,A*11
$IIMWV,354,T,09.0,N,A*1E
$IIRMB,A,0.23,R,,BAYBDG  ,,,,,008.10,001,,V,A*7B
$IIRMC,014029,A,3739.851,N,12222.810,W,00.0,126,290310,15,E,A*12
$IIVHW,,,271,M,00.0,N,,*60
$IIVLW,00000,N,000.0,N*53
$IIVWR,006,L,08.8,N,,,,*79
$IIGLL,3739.851,N,12222.811,W,014030,A,A*4F
$IIHDG,271,,,15,E*12
$IIMTW,+15.5,C*39
$IIMWV,352,R,09.0,N,A*1E
$IIMWV,354,T,08.8,N,A*17
$IIRMC,014030,A,3739.851,N,12222.811,W,00.0,126,290310,15,E,A*1B
$IIVHW,,,271,M,00.0,N,,*60
$IIVLW,00000,N,000.0,N*53
$IIVWR,008,L,09.0,N,,,,*7E
$IIGLL,3739.851,N,12222.811,W,014031,A,A*4E
$IIHDG,271,,,15,E*12
$IIMTW,+15.5,C*39
$IIMWV,352,R,09.2,N,A*1C
$IIMWV,352,T,09.0,N,A*18
$IIRMB,A,0.23,R,,BAYBDG  ,,,,,008.10,001,,V,A*7B
$IIRMC,014031,A,3739.851,N,12222.811,W,00.0,126,290310,15,E,A*1A
$IIVHW,,,271,M,00.0,N,,*60
$IIVLW,00000,N,000.0,N*53
$IIVWR,009,L,09.3,N,,,,*7C
$IIGLL,3739.851,N,12222.811,W,014032,A,A*4D
$IIHDG,271,,,15,E*12
$IIMTW,+15.5,C*39
$IIMWV,351,R,09.3,N,A*1E
$IIMWV,352,T,09.2,N,A*1A
$IIRMC,014032,A,3739.851,N,12222.811,W,00.0,126,290310,15,E,A*19
$IIVHW,,,271,M,00.0,N,,*60
$IIVLW,00000,N,000.0,N*53
$IIVWR,009,L,09.4,N,,,,*7B
$IIGLL,3739.851,N,12222.811,W,014033,A,A*4C
$IIHDG,271,,,15,E*12
$IIMTW,+15.5,C*39
$IIMWV,351,R,09.4,N,A*19
$IIMWV,351,T,09.3,N,A*18
$IIRMB,A,0.23,R,,BAYBDG  ,,,,,008.10,001,,V,A*7B
$IIRMC,014034,A,3739.852,N,12222.811,W,00.0,126,290310,15,E,A*1C
$IIVHW,,,271,M,00.0,N,,*60
$IIVLW,00000,N,000.0,N*53
$IIVWR,008,L,09.5,N,,,,*7B
$IIGLL,3739.852,N,12222.811,W,014034,A,A*48
$IIHDG,271,,,15,E*12
$IIMTW,+15.5,C*39
$IIMWV,352,R,09.5,N,A*1B
$IIMWV,351,T,09.4,N,A*1F
$IIRMB,A,0.23,R,,BAYBDG  ,,,,,008.10,001,,V,A*7B
$IIRMC,014035,A,3739.852,N,12222.811,W,00.0,126,290310,15,E,A*1D
$IIVHW,,,271,M,00.0,N,,*60
$IIVLW,00000,N,000.0,N*53
$IIVWR,009,L,09.1,N,,,,*7E
$IIGLL,3739.852,N,12222.811,W,014035,A,A*49
$IIHDG,271,,,15,E*12
$IIMTW,+15.5,C*39
$IIMWV,349,R,09.5,N,A*11
$IIMWV,351,T,09.1,N,A*1A
$IIRMC,014036,A,3739.852,N,12222.811,W,00.0,126,290310,15,E,A*1E
$IIVHW,,,271,M,00.0,N,,*60
$IIVLW,00000,N,000.0,N*53
$IIVWR,011,L,09.5,N,,,,*73
$IIGLL,3739.852,N,12222.811,W,014036,A,A*4A
$IIHDG,271,,,15,E*12
$IIMTW,+15.5,C*39
$IIMWV,351,R,09.3,N,A*1E
$IIMWV,349,T,09.5,N,A*17
$IIRMB,A,0.23,R,,BAYBDG  ,,,,,008.10,001,,V,A*7B
$IIRMC,014037,A,3739.852,N,12222.811,W,00.0,126,290310,15,E,A*1F
$IIVHW,,,271,M,00.0,N,,*60
$IIVLW,00000,N,000.0,N*53
$IIVWR,009,L,09.3,N,,,,*7C
$IIGLL,3739.852,N,12222.811,W,014037,A,A*4B
$IIHDG,271,,,15,E*12
$IIMTW,+15.5,C*39
$IIMWV,353,R,09.3,N,A*1C
$IIMWV,351,T,09.3,N,A*18
$IIRMC,014038,A,3739.852,N,12222.811,W,00.0,126,290310,15,E,A*10
$IIVHW,,,271,M,00.0,N,,*60
$IIVLW,00000,N,000.0,N*53
$IIVWR,007,L,09.3,N,,,,*72
$IIGLL,3739.852,N,12222.811,W,014038,A,A*44
$IIHDG,271,,,15,E*12
$IIMTW,+15.5,C*39
$IIMWV,355,R,09.4,N,A*1D
$IIMWV,353,T,09.3,N,A*1A
$IIRMB,A,0.23,R,,BAYBDG  ,,,,,008.10,001,,V,A*7B
$IIRMC,014039,A,3739.853,N,12222.810,W,00.0,126,290310,15,E,A*11
$IIVHW,,,271,M,00.0,N,,*60
$IIVLW,00000,N,000.0,N*53
$IIVWR,005,L,09.4,N,,,,*77
$IIGLL,3739.852,N,12222.810,W,014041,A,A*4B
$IIHDG,271,,,15,E*12
$IIMTW,+15.5,C*39
$IIMWV,356,R,09.9,N,A*13
$IIMWV,356,T,09.7,N,A*1B
$IIRMB,A,0.23,R,,BAYBDG  ,,,,,008.10,001,,V,A*7B
$IIRMC,014041,A,3739.852,N,12222.810,W,00.0,126,290310,15,E,A*1F
$IIVHW,,,271,M,00.0,N,,*60
$IIVLW,00000,N,000.0,N*53
$IIVWR,007,L,09.8,N,,,,*79
$IIGLL,3739.852,N,12222.810,W,014042,A,A*48
$IIHDG,271,,,15,E*12
$IIMTW,+15.5,C*39
$IIMWV,353,R,09.8,N,A*17
$IIMWV,356,T,09.9,N,A*15
$IIRMC,014042,A,3739.852,N,12222.810,W,00.0,126,290310,15,E,A*1C
$IIVHW,,,271,M,00.0,N,,*60
$IIVLW,00000,N,000.0,N*53
$IIVWR,003,L,09.7,N,,,,*72
$IIGLL,3739.852,N,12222.810,W,014043,A,A*49
$IIHDG,271,,,15,E*12
$IIMTW,+15.5,C*39
$IIMWV,357,R,09.7,N,A*1C
$IIMWV,353,T,09.8,N,A*11
$IIRMB,A,0.23,R,,BAYBDG  ,,,,,008.10,001,,V,A*7B
$IIRMC,014044,A,3739.852,N,12222.809,W,00.0,126,290310,15,E,A*12
$IIVHW,,,271,M,00.0,N,,*60
$IIVLW,00000,N,000.0,N*53
$IIVWR,002,L,09.8,N,,,,*7C
$IIGLL,3739.852,N,12222.809,W,014044,A,A*46
$IIHDG,271,,,15,E*12
$IIMTW,+15.5,C*39
$IIMWV,358,R,09.8,N,A*1C
$IIMWV,357,T,09.7,N,A*1A
$IIRMB,A,0.23,R,,BAYBDG  ,,,,,008.10,001,,V,A*7B
$IIRMC,014045,A,3739.852,N,12222.809,W,00.0,126,290310,15,E,A*13
$IIVHW,,,271,M,00.0,N,,*60
$IIVLW,00000,N,000.0,N*53
$IIVWR,003,L,10.0,N,,,,*7D
$IIGLL,3739.852,N,12222.809,W,014045,A,A*47
$IIHDG,271,,,15,E*12
$IIMTW,+15.5,C*39
$IIMWV,355,R,10.2,N,A*13
$IIMWV,357,T,10.0,N,A*15
$IIRMC,014046,A,3739.852,N,12222.809,W,00.0,126,290310,15,E,A*10
$IIVHW,,,271,M,00.0,N,,*60
$IIVLW,00000,N,000.0,N*53
$IIVWR,005,L,10.2,N,,,,*79
$IIGLL,3739.852,N,12222.809,W,014046,A,A*44
$IIHDG,271,,,15,E*12
$IIMTW,+15.5,C*39
$IIMWV,355,R,10.2,N,A*13
$IIMWV,355,T,10.2,N,A*15
$IIRMB,A,0.23,R,,BAYBDG  ,,,,,008.10,001,,V,A*7B
$IIRMC,014047,A,3739.852,N,12222.810,W,00.0,126,290310,15,E,A*19
$IIVHW,,,271,M,00.0,N,,*60
$IIVLW,00000,N,000.0,N*53
$IIVWR,005,L,10.2,N,,,,*79
$IIGLL,3739.852,N,12222.810,W,014047,A,A*4D
$IIHDG,271,,,15,E*12
$IIMTW,+15.5,C*39
$IIMWV,353,R,10.4,N,A*13
$IIMWV,355,T,10.2,N,A*15
$IIRMC,014048,A,3739.852,N,12222.810,W,00.0,126,290310,15,E,A*16
$IIVHW,,,271,M,00.0,N,,*60
$IIVLW,00000,N,000.0,N*53
$IIVWR,007,L,10.4,N,,,,*7D
$IIGLL,3739.852,N,12222.810,W,014048,A,A*42
$IIHDG,271,,,15,E*12
$IIMTW,+15.5,C*39
$IIMWV,353,R,10.6,N,A*11
$IIMWV,353,T,10.4,N,A*15
$IIRMB,A,0.23,R,,BAYBDG  ,,,,,008.10,001,,V,A*7B
$IIRMC,014049,A,3739.851,N,12222.809,W,00.0,126,290310,15,E,A*1C
$IIVHW,,,271,M,00.0,N,,*60
$IIVLW,00000,N,000.0,N*53
$IIVWR,007,L,10.6,N,,,,*7F
$IIGLL,3739.851,N,12222.809,W,014050,A,A*40
$IIHDG,271,,,15,E*12
$IIMTW,+15.5,C*39
$IIMWV,355,R,10.6,N,A*17
$IIMWV,353,T,10.6,N,A*17
$IIRMC,014050,A,3739.851,N,12222.809,W,00.0,126,290310,15,E,A*14
$IIVHW,,,271,M,00.0,N,,*60
$IIVLW,00000,N,000.0,N*53
$IIVWR,005,L,10.6,N,,,,*7D
$IIGLL,3739.851,N,12222.809,W,014051,A,A*41
$IIHDG,271,,,15,E*12
$IIMTW,+15.5,C*39
$IIMWV,355,R,10.5,N,A*14
$IIMWV,355,T,10.6,N,A*11
$IIRMB,A,0.23,R,,BAYBDG  ,,,,,008.10,001,,V,A*7B
$IIRMC,014051,A,3739.851,N,12222.809,W,00.0,126,290310,15,E,A*15
$IIVHW,,,271,M,00.0,N,,*60
$IIVLW,00000,N,000.0,N*53
$IIVWR,007,L,10.7,N,,,,*7E
$IIGLL,3739.851,N,12222.809,W,014052,A,A*42
$IIHDG,271,,,15,E*12
$IIMTW,+15.5,C*39
$IIMWV,353,R,10.7,N,A*10
$IIMWV,355,T,10.5,N,A*12
$IIRMC,014052,A,3739.851,N,12222.809,W,00.0,126,290310,15,E,A*16
$IIVHW,,,271,M,00.0,N,,*60
$IIVLW,00000,N,000.0,N*53
$IIVWR,003,L,10.4,N,,,,*79
$IIGLL,3739.850,N,12222.809,W,014053,A,A*42
$IIHDG,271,,,15,E*12
$IIMTW,+15.5,C*39
$IIMWV,357,R,10.4,N,A*17
$IIMWV,353,T,10.7,N,A*16
$IIRMB,A,0.23,R,,BAYBDG  ,,,,,008.10,001,,V,A*7B
$IIRMC,014054,A,3739.850,N,12222.809,W,00.0,126,290310,15,E,A*11
$IIVHW,,,271,M,00.0,N,,*60
$IIVLW,00000,N,000.0,N*53
$IIVWR,003,L,10.4,N,,,,*79
$IIGLL,3739.850,N,12222.809,W,014054,A,A*45
$IIHDG,271,,,15,E*12
$IIMTW,+15.5,C*39
$IIMWV,357,R,10.4,N,A*17
$IIMWV,357,T,10.4,N,A*11
$IIRMB,A,0.23,R,,BAYBDG  ,,,,,008.10,001,,V,A*7B
$IIRMC,014055,A,3739.850,N,12222.809,W,00.0,126,290310,15,E,A*10
$IIVHW,,,271,M,00.0,N,,*60
$IIVLW,00000,N,000.0,N*53
$IIVWR,004,L,10.1,N,,,,*7B
$IIGLL,3739.850,N,12222.809,W,014055,A,A*44
$IIHDG,271,,,15,E*12
$IIMTW,+15.5,C*39
$IIMWV,357,R,09.6,N,A*1D
$IIMWV,356,T,10.1,N,A*15
$IIRMC,014056,A,3739.850,N,12222.809,W,00.0,126,290310,15,E,A*13
$IIVHW,,,271,M,00.0,N,,*60
$IIVLW,00000,N,000.0,N*53
$IIVWR,003,L,09.6,N,,,,*73
$IIGLL,3739.850,N,12222.809,W,014056,A,A*47
$IIHDG,271,,,15,E*12
$IIMTW,+15.5,C*39
$IIMWV,358,R,09.3,N,A*17
$IIMWV,357,T,09.6,N,A*1B
$IIRMB,A,0.23,R,,BAYBDG  ,,,,,008.10,001,,V,A*7B
$IIRMC,014057,A,3739.851,N,12222.810,W,00.0,126,290310,15,E,A*1B
$IIVHW,,,271,M,00.0,N,,*60
$IIVLW,00000,N,000.0,N*53
$IIVWR,002,L,09.3,N,,,,*77
$IIGLL,3739.851,N,12222.810,W,014057,A,A*4F
$IIHDG,271,,,15,E*12
$IIMTW,+15.5,C*39
$IIMWV,356,R,09.1,N,A*1B
$IIMWV,358,T,09.3,N,A*11
$IIRMC,014058,A,3739.852,N,12222.810,W,00.0,126,290310,15,E,A*17
$IIVHW,,,271,M,00.0,N,,*60
$IIVLW,00000,N,000.0,N*53
$IIVWR,004,L,09.1,N,,,,*73
$IIGLL,3739.852,N,12222.810,W,014058,A,A*43
$IIHDG,271,,,15,E*12
$IIMTW,+15.5,C*39
$IIMWV,352,R,08.6,N,A*19
$IIMWV,356,T,09.1,N,A*1D
$IIRMB,A,0.23,R,,BAYBDG  ,,,,,008.10,001,,V,A*7B
$IIRMC,014059,A,3739.852,N,12222.811,W,00.0,126,290310,15,E,A*17
$IIVHW,,,271,M,00.0,N,,*60
$IIVLW,00000,N,000.0,N*53
$IIVWR,008,L,08.6,N,,,,*79
$IIGLL,3739.854,N,12222.811,W,014100,A,A*48
$IIHDG,271,,,15,E*12
$IIMTW,+15.5,C*39
$IIMWV,350,R,08.2,N,A*1F
$IIMWV,352,T,08.6,N,A*1F
$IIRMC,014100,A,3739.854,N,12222.811,W,00.0,126,290310,15,E,A*1C
$IIVHW,,,271,M,00.0,N,,*60
$IIVLW,00000,N,000.0,N*53
$IIVWR,010,L,08.2,N,,,,*74
$IIGLL,3739.853,N,12222.811,W,014103,A,A*4C
$IIHDG,271,,,15,E*12
$IIMTW,+15.5,C*39
$IIMWV,344,R,07.5,N,A*12
$IIMWV,345,T,07.9,N,A*19
$IIRMB,A,0.23,R,,BAYBDG  ,,,,,008.10,001,,V,A*7B
$IIRMC,014103,A,3739.853,N,12222.811,W,00.0,126,290310,15,E,A*18
$IIVHW,,,271,M,00.0,N,,*60
$IIVLW,00000,N,000.0,N*53
$IIVWR,016,L,07.9,N,,,,*76
$IIGLL,3739.853,N,12222.811,W,014104,A,A*4B
$IIHDG,271,,,15,E*12
$IIMTW,+15.5,C*39
$IIMWV,344,R,07.9,N,A*1E
$IIMWV,344,T,07.5,N,A*14
$IIRMC,014104,A,3739.853,N,12222.811,W,00.0,126,290310,15,E,A*1F
$IIVHW,,,271,M,00.0,N,,*60
$IIVLW,00000,N,000.0,N*53
$IIVWR,015,L,07.8,N,,,,*74
$IIGLL,3739.852,N,12222.810,W,014105,A,A*4A
$IIHDG,271,,,15,E*12
$IIMTW,+15.5,C*39
$IIMWV,345,R,07.8,N,A*1E
$IIMWV,344,T,07.9,N,A*18
$IIRMB,A,0.23,R,,BAYBDG  ,,,,,008.10,001,,V,A*7B
$IIRMC,014106,A,3739.852,N,12222.810,W,00.0,126,290310,15,E,A*1D
$IIVHW,,,271,M,00.0,N,,*60
$IIVLW,00000,N,000.0,N*53
$IIVWR,014,L,07.7,N,,,,*7A
$IIGLL,3739.852,N,12222.810,W,014106,A,A*49
$IIHDG,271,,,15,E*12
$IIMTW,+15.5,C*39
$IIMWV,346,R,07.7,N,A*12
$IIMWV,345,T,07.8,N,A*18
$IIRMB,A,0.23,R,,BAYBDG  ,,,,,008.10,001,,V,A*7B
$IIRMC,014107,A,3739.852,N,12222.810,W,00.0,126,290310,15,E,A*1C
$IIVHW,,,271,M,00.0,N,,*60
$IIVLW,00000,N,000.0,N*53
$IIVWR,016,L,08.0,N,,,,*70
$IIGLL,3739.852,N,12222.810,W,014107,A,A*48
$IIHDG,271,,,15,E*12
$IIMTW,+15.5,C*39
$IIMWV,342,R,07.6,N,A*17
$IIMWV,344,T,08.0,N,A*1E
$IIRMC,014108,A,3739.853,N,12222.810,W,00.0,126,290310,15,E,A*12
$IIVHW,,,271,M,00.0,N,,*60
$IIVLW,00000,N,000.0,N*53
$IIVWR,018,L,07.6,N,,,,*77
$IIGLL,3739.853,N,12222.810,W,014108,A,A*46
$IIHDG,271,,,15,E*12
$IIMTW,+15.5,C*39
$IIMWV,344,R,07.5,N,A*12
$IIMWV,342,T,07.6,N,A*11
$IIRMB,A,0.23,R,,BAYBDG  ,,,,,008.10,001,,V,A*7B
$IIRMC,014109,A,3739.853,N,12222.811,W,00.0,126,290310,15,E,A*12
$IIVHW,,,271,M,00.0,N,,*60
$IIVLW,00000,N,000.0,N*53
$IIVWR,016,L,07.5,N,,,,*7A
$IIGLL,3739.853,N,12222.811,W,014109,A,A*46
$IIHDG,271,,,15,E*12
$IIMTW,+15.5,C*39
$IIMWV,347,R,07.5,N,A*11
$IIMWV,344,T,07.5,N,A*14
$IIRMC,014110,A,3739.854,N,12222.811,W,00.0,126,290310,15,E,A*1D
$IIVHW,,,271,M,00.0,N,,*60
$IIVLW,00000,N,000.0,N*53
$IIVWR,013,L,07.5,N,,,,*7F
$IIGLL,3739.854,N,12222.811,W,014110,A,A*49
$IIHDG,271,,,15,E*12
$IIMTW,+15.5,C*39
$IIMWV,352,R,07.5,N,A*15
$IIMWV,347,T,07.5,N,A*17
$IIRMB,A,0.23,R,,BAYBDG  ,,,,,008.10,001,,V,A*7B
$IIRMC,014111,A,3739.854,N,12222.810,W,00.0,126,290310,15,E,A*1D
$IIVHW,,,271,M,00.0,N,,*60
$IIVLW,00000,N,000.0,N*53
$IIVWR,008,L,07.5,N,,,,*75
$IIGLL,3739.854,N,12222.810,W,014112,A,A*4A
$IIHDG,271,,,15,E*12
$IIMTW,+15.5,C*39
$IIMWV,354,R,07.3,N,A*15
$IIMWV,352,T,07.5,N,A*13
$IIRMC,014112,A,3739.854,N,12222.810,W,00.0,126,290310,15,E,A*1E
$IIVHW,,,271,M,00.0,N,,*60
$IIVLW,00000,N,000.0,N*53
$IIVWR,006,L,07.3,N,,,,*7D
$IIGLL,3739.855,N,12222.810,W,014113,A,A*4A
$IIHDG,271,,,15,E*12
$IIMTW,+15.5,C*39
$IIMWV,357,R,07.3,N,A*16
$IIMWV,354,T,07.3,N,A*13
$IIRMB,A,0.23,R,,BAYBDG  ,,,,,008.10,001,,V,A*7B
$IIRMC,014113,A,3739.855,N,12222.810,W,00.0,126,290310,15,E,A*1E
$IIVHW,,,271,M,00.0,N,,*60
$IIVLW,00000,N,000.0,N*53
$IIVWR,005,L,07.1,N,,,,*7C
$IIGLL,3739.855,N,12222.810,W,014114,A,A*4D
$IIHDG,271,,,15,E*12
$IIMTW,+15.5,C*39
$IIMWV,355,R,07.1,N,A*16
$IIMWV,357,T,07.3,N,A*10
$IIRMC,014114,A,3739.855,N,12222.810,W,00.0,126,290310,15,E,A*19
$IIVHW,,,271,M,00.0,N,,*60
$IIVLW,00000,N,000.0,N*53
$IIVWR,003,L,07.6,N,,,,*7D
$IIGLL,3739.855,N,12222.811,W,014115,A,A*4D
$IIHDG,271,,,15,E*12
$IIMTW,+15.5,C*39
$IIMWV,357,R,07.6,N,A*13
$IIMWV,355,T,07.1,N,A*10
$IIRMB,A,0.23,R,,BAYBDG  ,,,,,008.10,001,,V,A*7B
$IIRMC,014116,A,3739.855,N,12222.811,W,00.0,126,290310,15,E,A*1A
$IIVHW,,,271,M,00.0,N,,*60
$IIVLW,00000,N,000.0,N*53
$IIVWR,002,L,07.6,N,,,,*7C
$IIGLL,3739.855,N,12222.811,W,014116,A,A*4E
$IIHDG,271,,,15,E*12
$IIMTW,+15.5,C*39
$IIMWV,358,R,07.6,N,A*1C
$IIMWV,357,T,07.6,N,A*15
$IIRMB,A,0.23,R,,BAYBDG  ,,,,,008.10,001,,V,A*7B
$IIRMC,014117,A,3739.855,N,12222.810,W,00.0,126,290310,15,E,A*1A
$IIVHW,,,271,M,00.0,N,,*60
$IIVLW,00000,N,000.0,N*53
$IIVWR,002,L,07.9,N,,,,*73
$IIGLL,3739.855,N,12222.810,W,014117,A,A*4E
$IIHDG,271,,,15,E*12
$IIMTW,+15.5,C*39
$IIMWV,356,R,07.8,N,A*1C
$IIMWV,358,T,07.9,N,A*15
$IIRMC,014118,A,3739.855,N,12222.810,W,00.0,126,290310,15,E,A*15
$IIVHW,,,271,M,00.0,N,,*60
$IIVLW,00000,N,000.0,N*53
$IIVWR,004,L,07.8,N,,,,*74
$IIGLL,3739.855,N,12222.810,W,014118,A,A*41
$IIHDG,271,,,15,E*12
$IIMTW,+15.5,C*39
$IIMWV,354,R,07.8,N,A*1E
$IIMWV,356,T,07.8,N,A*1A
$IIRMB,A,0.23,R,,BAYBDG  ,,,,,008.10,001,,V,A*7B
$IIRMC,014119,A,3739.855,N,12222.811,W,00.0,126,290310,15,E,A*15
$IIVHW,,,271,M,00.0,N,,*60
$IIVLW,00000,N,000.0,N*53
$IIVWR,006,L,07.8,N,,,,*76
$IIGLL,3739.855,N,12222.811,W,014119,A,A*41
$IIHDG,271,,,15,E*12
$IIMTW,+15.5,C*39
$IIMWV,353,R,07.7,N,A*16
$IIMWV,354,T,07.8,N,A*18
$IIRMC,014120,A,3739.855,N,12222.811,W,00.0,126,290310,15,E,A*1F
$IIVHW,,,271,M,00.0,N,,*60
$IIVLW,00000,N,000.0,N*53
$IIVWR,007,L,07.7,N,,,,*78
$IIGLL,3739.855,N,12222.811,W,014120,A,A*4B
$IIHDG,271,,,15,E*12
$IIMTW,+15.5,C*39
$IIMWV,354,R,07.4,N,A*12
$IIMWV,353,T,07.7,N,A*10
$IIRMB,A,0.23,R,,BAYBDG  ,,,,,008.10,001,,V,A*7B
$IIRMC,014121,A,3739.855,N,12222.811,W,00.0,126,290310,15,E,A*1E
$IIVHW,,,271,M,00.0,N,,*60
$IIVLW,00000,N,000.0,N*53
$IIVWR,006,L,07.4,N,,,,*7A
$IIGLL,3739.855,N,12222.811,W,014122,A,A*49
$IIHDG,271,,,15,E*12
$IIMTW,+15.5,C*39
$IIMWV,353,R,07.2,N,A*13
$IIMWV,354,T,07.4,N,A*14
$IIRMC,014122,A,3739.855,N,12222.811,W,00.0,126,290310,15,E,A*1D
$IIVHW,,,271,M,00.0,N,,*60
$IIVLW,00000,N,000.0,N*53
$IIVWR,007,L,07.2,N,,,,*7D
$IIGLL,3739.855,N,12222.811,W,014123,A,A*48
$IIHDG,271,,,15,E*12
$IIMTW,+15.5,C*39
$IIMWV,353,R,07.3,N,A*12
$IIMWV,353,T,07.2,N,A*15
$IIRMB,A,0.23,R,,BAYBDG  ,,,,,008.10,001,,V,A*7B
$IIRMC,014123,A,3739.855,N,12222.811,W,00.0,126,290310,15,E,A*1C
$IIVHW,,,271,M,00.0,N,,*60
$IIVLW,00000,N,000.0,N*53
$IIVWR,009,L,07.1,N,,,,*70
$IIGLL,3739.853,N,12222.811,W,014124,A,A*49
$IIHDG,271,,,15,E*12
$IIMTW,+15.5,C*39
$IIMWV,351,R,07.1,N,A*12
$IIMWV,353,T,07.3,N,A*14
$IIRMC,014124,A,3739.853,N,12222.811,W,00.0,126,290310,15,E,A*1D
$IIVHW,,,271,M,00.0,N,,*60
$IIVLW,00000,N,000.0,N*53
$IIVWR,010,L,07.0,N,,,,*79
$IIGLL,3739.853,N,12222.812,W,014125,A,A*4B
$IIHDG,271,,,15,E*12
$IIMTW,+15.5,C*39
$IIMWV,350,R,07.0,N,A*12
$IIMWV,351,T,07.1,N,A*14
$IIRMB,A,0.23,R,,BAYBDG  ,,,,,008.10,001,,V,A*7B
$IIRMC,014126,A,3739.853,N,12222.811,W,00.0,126,290310,15,E,A*1F
$IIVHW,,,271,M,00.0,N,,*60
$IIVLW,00000,N,000.0,N*53
$IIVWR,010,L,06.9,N,,,,*71
$IIGLL,3739.853,N,12222.811,W,014126,A,A*4B
$IIHDG,271,,,15,E*12
$IIMTW,+15.5,C*39
$IIMWV,350,R,06.9,N,A*1A
$IIMWV,350,T,07.0,N,A*14
$IIRMB,A,0.23,R,,BAYBDG  ,,,,,008.10,001,,V,A*7B
$IIRMC,014127,A,3739.854,N,12222.812,W,00.0,126,290310,15,E,A*1A
$IIVHW,,,271,M,00.0,N,,*60
$IIVLW,00000,N,000.0,N*53
$IIVWR,011,L,07.3,N,,,,*7B
$IIGLL,3739.854,N,12222.812,W,014127,A,A*4E
$IIHDG,271,,,15,E*12
$IIMTW,+15.5,C*39
$IIMWV,349,R,07.4,N,A*1E
$IIMWV,349,T,07.3,N,A*1F
$IIRMC,014128,A,3739.854,N,12222.812,W,00.0,126,290310,15,E,A*15
$IIVHW,,,271,M,00.0,N,,*60
$IIVLW,00000,N,000.0,N*53
$IIVWR,011,L,07.4,N,,,,*7C
$IIGLL,3739.854,N,12222.812,W,014128,A,A*41
$IIHDG,271,,,15,E*12
$IIMTW,+15.5,C*39
$IIMWV,352,R,07.5,N,A*15
$IIMWV,349,T,07.4,N,A*18
$IIRMB,A,0.23,R,,BAYBDG  ,,,,,008.10,001,,V,A*7B
$IIRMC,014129,A,3739.854,N,12222.812,W,00.0,126,290310,15,E,A*14
$IIVHW,,,271,M,00.0,N,,*60
$IIVLW,00000,N,000.0,N*53
$IIVWR,008,L,07.5,N,,,,*75
$IIGLL,3739.854,N,12222.812,W,014129,A,A*40
$IIHDG,271,,,15,E*12
$IIMTW,+15.5,C*39
$IIMWV,351,R,07.8,N,A*1B
$IIMWV,352,T,07.5,N,A*13
$IIRMC,014130,A,3739.854,N,12222.812,W,00.0,126,290310,15,E,A*1C
$IIVHW,,,271,M,00.0,N,,*60
$IIVLW,00000,N,000.0,N*53
$IIVWR,009,L,07.8,N,,,,*79
$IIGLL,3739.854,N,12222.812,W,014130,A,A*48
$IIHDG,271,,,15,E*12
$IIMTW,+15.5,C*39
$IIMWV,352,R,07.8,N,A*18
$IIMWV,351,T,07.8,N,A*1D
$IIRMB,A,0.23,R,,BAYBDG  ,,,,,008.10,001,,V,A*7B
$IIRMC,014130,A,3739.854,N,12222.812,W,00.0,126,290310,15,E,A*1C
$IIVHW,,,271,M,00.0,N,,*60
$IIVLW,00000,N,000.0,N*53
$IIVWR,008,L,07.8,N,,,,*78
$IIGLL,3739.855,N,12222.812,W,014132,A,A*4B
$IIHDG,271,,,15,E*12
$IIMTW,+15.5,C*39
$IIMWV,347,R,07.5,N,A*11
$IIMWV,352,T,07.8,N,A*1E
$IIRMC,014132,A,3739.855,N,12222.812,W,00.0,126,290310,15,E,A*1F
$IIVHW,,,271,M,00.0,N,,*60
$IIVLW,00000,N,000.0,N*53
$IIVWR,013,L,07.5,N,,,,*7F
$IIGLL,3739.856,N,12222.813,W,014134,A,A*4F
$IIHDG,271,,,15,E*12
$IIMTW,+15.5,C*39
$IIMWV,342,R,07.0,N,A*11
$IIMWV,344,T,07.2,N,A*13
$IIRMB,A,0.23,R,,BAYBDG  ,,,,,008.10,001,,V,A*7B
$IIRMC,014134,A,3739.856,N,12222.813,W,00.0,126,290310,15,E,A*1B
$IIVHW,,,271,M,00.0,N,,*60
$IIVLW,00000,N,000.0,N*53
$IIVWR,021,L,06.9,N,,,,*73
$IIGLL,3739.855,N,12222.813,W,014135,A,A*4D
$IIHDG,271,,,15,E*12
$IIMTW,+15.5,C*39
$IIMWV,339,R,06.9,N,A*15
$IIMWV,342,T,07.0,N,A*17
$IIRMB,A,0.23,R,,BAYBDG  ,,,,,008.10,001,,V,A*7B
$IIRMC,014136,A,3739.856,N,12222.813,W,00.0,126,290310,15,E,A*19
$IIVHW,,,271,M,00.0,N,,*60
$IIVLW,00000,N,000.0,N*53
$IIVWR,022,L,06.8,N,,,,*71
$IIGLL,3739.856,N,12222.813,W,014136,A,A*4D
$IIHDG,271,,,15,E*12
$IIMTW,+15.5,C*39
$IIMWV,338,R,06.8,N,A*15
$IIMWV,339,T,06.9,N,A*13
$IIRMB,A,0.23,R,,BAYBDG  ,,,,,008.10,001,,V,A*7B
$IIRMC,014137,A,3739.856,N,12222.813,W,00.0,126,290310,15,E,A*18
$IIVHW,,,271,M,00.0,N,,*60
$IIVLW,00000,N,000.0,N*53
$IIVWR,020,L,06.7,N,,,,*7C
$IIGLL,3739.856,N,12222.813,W,014137,A,A*4C
$IIHDG,271,,,15,E*12
$IIMTW,+15.5,C*39
$IIMWV,342,R,06.9,N,A*19
$IIMWV,340,T,06.7,N,A*13
$IIRMC,014138,A,3739.856,N,12222.813,W,00.0,126,290310,15,E,A*17
$IIVHW,,,271,M,00.0,N,,*60
$IIVLW,00000,N,000.0,N*53
$IIVWR,018,L,06.9,N,,,,*79
$IIGLL,3739.856,N,12222.813,W,014138,A,A*43
$IIHDG,271,,,15,E*12
$IIMTW,+15.5,C*39
$IIMWV,346,R,06.8,N,A*1C
$IIMWV,342,T,06.9,N,A*1F
$IIRMB,A,0.23,R,,BAYBDG  ,,,,,008.10,001,,V,A*7B
$IIRMC,014139,A,3739.855,N,12222.813,W,00.0,126,290310,15,E,A*15
$IIVHW,,,271,M,00.0,N,,*60
$IIVLW,00000,N,000.0,N*53
$IIVWR,014,L,06.8,N,,,,*74
$IIGLL,3739.855,N,12222.813,W,014139,A,A*41
$IIHDG,271,,,15,E*12
$IIMTW,+15.5,C*39
$IIMWV,350,R,07.4,N,A*16
$IIMWV,346,T,06.8,N,A*1A
$IIRMC,014140,A,3739.855,N,12222.813,W,00.0,126,290310,15,E,A*1B
$IIVHW,,,271,M,00.0,N,,*60
$IIVLW,00000,N,000.0,N*53
$IIVWR,010,L,07.4,N,,,,*7D
$IIGLL,3739.855,N,12222.813,W,014140,A,A*4F
$IIHDG,271,,,15,E*12
$IIMTW,+15.5,C*39
$IIMWV,348,R,07.5,N,A*1E
$IIMWV,350,T,07.4,N,A*10
$IIRMB,A,0.23,R,,BAYBDG  ,,,,,008.10,001,,V,A*7B
$IIRMC,014141,A,3739.856,N,12222.813,W,00.0,126,290310,15,E,A*19
$IIVHW,,,271,M,00.0,N,,*60
$IIVLW,00000,N,000.0,N*53
$IIVWR,012,L,07.5,N,,,,*7E
$IIGLL,3739.856,N,12222.813,W,014142,A,A*4E
$IIHDG,271,,,15,E*12
$IIMTW,+15.5,C*39
$IIMWV,348,R,07.6,N,A*1D
$IIMWV,348,T,07.5,N,A*18
$IIRMC,014142,A,3739.856,N,12222.813,W,00.0,126,290310,15,E,A*1A
$IIVHW,,,271,M,00.0,N,,*60
$IIVLW,00000,N,000.0,N*53
$IIVWR,012,L,07.6,N,,,,*7D
$IIGLL,3739.856,N,12222.813,W,014143,A,A*4F
$IIHDG,271,,,15,E*12
$IIMTW,+15.5,C*39
$IIMWV,343,R,07.5,N,A*15
$IIMWV,348,T,07.6,N,A*1B
$IIRMB,A,0.23,R,,BAYBDG  ,,,,,008.10,001,,V,A*7B
$IIRMC,014143,A,3739.856,N,12222.813,W,00.0,126,290310,15,E,A*1B
$IIVHW,,,271,M,00.0,N,,*60
$IIVLW,00000,N,000.0,N*53
$IIVWR,020,L,07.5,N,,,,*7F
$IIGLL,3739.856,N,12222.813,W,014144,A,A*48
$IIHDG,271,,,15,E*12
$IIMTW,+15.5,C*39
$IIMWV,340,R,07.5,N,A*16
$IIMWV,343,T,07.5,N,A*13
$IIRMC,014144,A,3739.856,N,12222.813,W,00.0,126,290310,15,E,A*1C
$IIVHW,,,271,M,00.0,N,,*60
$IIVLW,00000,N,000.0,N*53
$IIVWR,020,L,07.3,N,,,,*79
$IIGLL,3739.855,N,12222.812,W,014145,A,A*4B
$IIHDG,271,,,15,E*12
$IIMTW,+15.5,C*39
$IIMWV,340,R,07.3,N,A*10
$IIMWV,340,T,07.5,N,A*10
$IIRMB,A,0.23,R,,BAYBDG  ,,,,,008.10,001,,V,A*7B
$IIRMC,014146,A,3739.855,N,12222.812,W,00.0,126,290310,15,E,A*1C
$IIVHW,,,271,M,00.0,N,,*60
$IIVLW,00000,N,000.0,N*53
$IIVWR,019,L,07.1,N,,,,*71
$IIGLL,3739.855,N,12222.812,W,014146,A,A*48
$IIHDG,271,,,15,E*12
$IIMTW,+15.5,C*39
$IIMWV,341,R,07.1,N,A*13
$IIMWV,340,T,07.3,N,A*16
$IIRMB,A,0.23,R,,BAYBDG  ,,,,,008.10,001,,V,A*7B
$IIRMC,014147,A,3739.855,N,12222.812,W,00.0,126,290310,15,E,A*1D
$IIVHW,,,271,M,00.0,N,,*60
$IIVLW,00000,N,000.0,N*53
$IIVWR,017,L,06.9,N,,,,*76
$IIGLL,3739.855,N,12222.812,W,014147,A,A*49
$IIHDG,271,,,15,E*12
$IIMTW,+15.5,C*39
$IIMWV,345,R,06.5,N,A*12
$IIMWV,343,T,06.9,N,A*1E
$IIRMC,014148,A,3739.855,N,12222.812,W,00.0,126,290310,15,E,A*12
$IIVHW,,,271,M,00.0,N,,*60
$IIVLW,00000,N,000.0,N*53
$IIVWR,015,L,06.5,N,,,,*78
$IIGLL,3739.855,N,12222.812,W,014148,A,A*46
$IIHDG,271,,,15,E*12
$IIMTW,+15.5,C*39
$IIMWV,347,R,06.3,N,A*16
$IIMWV,345,T,06.5,N,A*14
$IIRMB,A,0.23,R,,BAYBDG  ,,,,,008.10,001,,V,A*7B
$IIRMC,014149,A,3739.856,N,12222.812,W,00.0,126,290310,15,E,A*10
$IIVHW,,,271,M,00.0,N,,*60
$IIVLW,00000,N,000.0,N*53
$IIVWR,013,L,06.3,N,,,,*78
$IIGLL,3739.856,N,12222.812,W,014149,A,A*44
$IIHDG,271,,,15,E*12
$IIMTW,+15.5,C*39
$IIMWV,346,R,05.7,N,A*10
$IIMWV,347,T,06.3,N,A*10
$IIRMC,014150,A,3739.855,N,12222.812,W,00.0,126,290310,15,E,A*1B
$IIVHW,,,271,M,00.0,N,,*60
$IIVLW,00000,N,000.0,N*53
$IIVWR,014,L,05.7,N,,,,*78
$IIGLL,3739.855,N,12222.812,W,014150,A,A*4F
$IIHDG,271,,,15,E*12
$IIMTW,+15.5,C*39
$IIMWV,347,R,05.7,N,A*11
$IIMWV,346,T,05.7,N,A*16
$IIRMB,A,0.23,R,,BAYBDG  ,,,,,008.10,001,,V,A*7B
$IIRMC,014152,A,3739.855,N,12222.813,W,00.0,126,290310,15,E,A*18
$IIVHW,,,271,M,00.0,N,,*60
$IIVLW,00000,N,000.0,N*53
$IIVWR,013,L,05.7,N,,,,*7F
$IIGLL,3739.856,N,12222.813,W,014152,A,A*4F
$IIHDG,271,,,15,E*12
$IIMTW,+15.5,C*39
$IIMWV,352,R,05.7,N,A*15
$IIMWV,347,T,05.7,N,A*17
$IIRMC,014152,A,3739.856,N,12222.813,W,00.0,126,290310,15,E,A*1B
$IIVHW,,,271,M,00.0,N,,*60
$IIVLW,00000,N,000.0,N*53
$IIVWR,008,L,05.7,N,,,,*75
$IIGLL,3739.855,N,12222.813,W,014154,A,A*4A
$IIHDG,271,,,15,E*12
$IIMTW,+15.5,C*39
$IIMWV,354,R,05.7,N,A*13
$IIMWV,352,T,05.7,N,A*13
$IIRMB,A,0.23,R,,BAYBDG  ,,,,,008.10,001,,V,A*7B
$IIRMC,014154,A,3739.855,N,12222.813,W,00.0,126,290310,15,E,A*1E
$IIVHW,,,271,M,00.0,N,,*60
$IIVLW,00000,N,000.0,N*53
$IIVWR,014,L,05.9,N,,,,*76
$IIGLL,3739.854,N,12222.813,W,014156,A,A*49
$IIHDG,271,,,15,E*12
$IIMTW,+15.5,C*39
$IIMWV,346,R,05.9,N,A*1E
$IIMWV,350,T,05.6,N,A*10
$IIRMB,A,0.23,R,,BAYBDG  ,,,,,008.10,001,,V,A*7B
$IIRMC,014156,A,3739.854,N,12222.813,W,00.0,126,290310,15,E,A*1D
$IIVHW,,,271,M,00.0,N,,*60
$IIVLW,00000,N,000.0,N*53
$IIVWR,016,L,06.2,N,,,,*7C
$IIGLL,3739.854,N,12222.813,W,014156,A,A*49
$IIHDG,271,,,15,E*12
$IIMTW,+15.5,C*39
$IIMWV,344,R,06.2,N,A*14
$IIMWV,346,T,05.9,N,A*18
$IIRMB,A,0.23,R,,BAYBDG  ,,,,,008.10,001,,V,A*7B
$IIRMC,014158,A,3739.854,N,12222.812,W,00.0,126,290310,15,E,A*12
$IIVHW,,,271,M,00.0,N,,*60
$IIVLW,00000,N,000.0,N*53
$IIVWR,016,L,06.7,N,,,,*79
$IIGLL,3739.854,N,12222.812,W,014158,A,A*46
$IIHDG,271,,,15,E*12
$IIMTW,+15.5,C*39
$IIMWV,346,R,06.9,N,A*1D
$IIMWV,344,T,06.7,N,A*17
$IIRMC,014158,A,3739.854,N,12222.812,W,00.0,126,290310,15,E,A*12
$IIVHW,,,271,M,00.0,N,,*60
$IIVLW,00000,N,000.0,N*53
$IIVWR,014,L,06.9,N,,,,*75
$IIGLL,3739.854,N,12222.812,W,014158,A,A*46
$IIHDG,271,,,15,E*12
$IIMTW,+15.5,C*39
$IIMWV,348,R,07.1,N,A*1A
$IIMWV,346,T,06.9,N,A*1B
$IIRMB,A,0.23,R,,BAYBDG  ,,,,,008.10,001,,V,A*7B
$IIRMC,014200,A,3739.854,N,12222.812,W,00.0,126,290310,15,E,A*1C
$IIVHW,,,271,M,00.0,N,,*60
$IIVLW,00000,N,000.0,N*53
$IIVWR,012,L,07.1,N,,,,*7A
$IIGLL,3739.854,N,12222.812,W,014200,A,A*48
$IIHDG,271,,,15,E*12
$IIMTW,+15.5,C*39
$IIMWV,346,R,06.3,N,A*17
$IIMWV,348,T,07.1,N,A*1C
$IIRMC,014200,A,3739.854,N,12222.812,W,00.0,126,290310,15,E,A*1C
$IIVHW,,,271,M,00.0,N,,*60
$IIVLW,00000,N,000.0,N*53
$IIVWR,014,L,06.3,N,,,,*7F
$IIGLL,3739.854,N,12222.812,W,014200,A,A*48
$IIHDG,271,,,15,E*12
$IIMTW,+15.5,C*39
$IIMWV,341,R,06.0,N,A*13
$IIMWV,346,T,06.3,N,A*11
$IIRMB,A,0.23,R,,BAYBDG  ,,,,,008.10,001,,V,A*7B
$IIRMC,014202,A,3739.854,N,12222.812,W,00.0,126,290310,15,E,A*1E
$IIVHW,,,271,M,00.0,N,,*60
$IIVLW,00000,N,000.0,N*53
$IIVWR,019,L,06.0,N,,,,*71
$IIGLL,3739.854,N,12222.812,W,014202,A,A*4A
$IIHDG,271,,,15,E*12
$IIMTW,+15.5,C*39
$IIMWV,336,R,05.6,N,A*16
$IIMWV,341,T,06.0,N,A*15
$IIRMC,014202,A,3739.854,N,12222.812,W,00.0,126,290310,15,E,A*1E
$IIVHW,,,271,M,00.0,N,,*60
$IIVLW,00000,N,000.0,N*53
$IIVWR,024,L,05.6,N,,,,*7A
$IIGLL,3739.854,N,12222.812,W,014204,A,A*4C
$IIHDG,271,,,15,E*12
$IIMTW,+15.5,C*39
$IIMWV,333,R,04.9,N,A*1D
$IIMWV,336,T,05.6,N,A*10
$IIRMB,A,0.23,R,,BAYBDG  ,,,,,008.10,001,,V,A*7B
$IIRMC,014204,A,3739.854,N,12222.812,W,00.0,126,290310,15,E,A*18
$IIVHW,,,271,M,00.0,N,,*60
$IIVLW,00000,N,000.0,N*53
$IIVWR,023,L,04.8,N,,,,*72
$IIGLL,3739.855,N,12222.812,W,014204,A,A*4D
$IIHDG,271,,,15,E*12
$IIMTW,+15.5,C*39
$IIMWV,337,R,04.8,N,A*18
$IIMWV,333,T,04.9,N,A*1B
$IIRMC,014204,A,3739.855,N,12222.812,W,00.0,126,290310,15,E,A*19
$IIVHW,,,271,M,00.0,N,,*60
$IIVLW,00000,N,000.0,N*53
$IIVWR,025,L,04.7,N,,,,*7B
$IIGLL,3739.855,N,12222.812,W,014206,A,A*4F
$IIHDG,271,,,15,E*12
$IIMTW,+15.5,C*39
$IIMWV,335,R,04.7,N,A*15
$IIMWV,337,T,04.8,N,A*1E
$IIRMB,A,0.23,R,,BAYBDG  ,,,,,008.10,001,,V,A*7B
$IIRMC,014206,A,3739.855,N,12222.812,W,00.0,126,290310,15,E,A*1B
$IIVHW,,,271,M,00.0,N,,*60
$IIVLW,00000,N,000.0,N*53
$IIVWR,029,L,05.3,N,,,,*72
$IIGLL,3739.855,N,12222.812,W,014206,A,A*4F
$IIHDG,271,,,15,E*12
$IIMTW,+15.5,C*39
$IIMWV,331,R,05.3,N,A*14
$IIMWV,335,T,04.7,N,A*13
$IIRMB,A,0.23,R,,BAYBDG  ,,,,,008.10,001,,V,A*7B
$IIRMC,014208,A,3739.855,N,12222.813,W,00.0,126,290310,15,E,A*14
$IIVHW,,,271,M,00.0,N,,*60
$IIVLW,00000,N,000.0,N*53
$IIVWR,028,L,06.4,N,,,,*77
$IIGLL,3739.855,N,12222.813,W,014208,A,A*40
$IIHDG,271,,,15,E*12
$IIMTW,+15.5,C*39
$IIMWV,329,R,06.7,N,A*1A
$IIMWV,332,T,06.4,N,A*15
$IIRMC,014208,A,3739.855,N,12222.813,W,00.0,126,290310,15,E,A*14
$IIVHW,,,271,M,00.0,N,,*60
$IIVLW,00000,N,000.0,N*53
$IIVWR,031,L,06.7,N,,,,*7C
$IIGLL,3739.855,N,12222.813,W,014208,A,A*40
$IIHDG,271,,,15,E*12
$IIMTW,+15.5,C*39
$IIMWV,329,R,07.6,N,A*1A
$IIMWV,329,T,06.7,N,A*1C
$IIRMB,A,0.23,R,,BAYBDG  ,,,,,008.10,001,,V,A*7B
$IIRMC,014210,A,3739.856,N,12222.813,W,00.0,126,290310,15,E,A*1E
$IIVHW,,,271,M,00.0,N,,*60
$IIVLW,00000,N,000.0,N*53
$IIVWR,031,L,07.6,N,,,,*7C
$IIGLL,3739.856,N,12222.813,W,014210,A,A*4A
$IIHDG,271,,,15,E*12
$IIMTW,+15.5,C*39
$IIMWV,332,R,08.2,N,A*1B
$IIMWV,329,T,07.6,N,A*1C
$IIRMC,014210,A,3739.856,N,12222.814,W,00.0,126,290310,15,E,A*19
$IIVHW,,,271,M,00.0,N,,*60
$IIVLW,00000,N,000.0,N*53
$IIVWR,028,L,08.2,N,,,,*7F
$IIGLL,3739.856,N,12222.814,W,014210,A,A*4D
$IIHDG,271,,,15,E*12
$IIMTW,+15.5,C*39
$IIMWV,334,R,08.4,N,A*1B
$IIMWV,332,T,08.2,N,A*1D
$IIRMB,A,0.23,R,,BAYBDG  ,,,,,008.10,001,,V,A*7B
$IIRMC,014212,A,3739.855,N,12222.813,W,00.0,126,290310,15,E,A*1F
$IIVHW,,,271,M,00.0,N,,*60
$IIVLW,00000,N,000.0,N*53
$IIVWR,026,L,08.4,N,,,,*77
$IIGLL,3739.855,N,12222.813,W,014212,A,A*4B
$IIHDG,271,,,15,E*12
$IIMTW,+15.5,C*39
$IIMWV,337,R,08.8,N,A*14
$IIMWV,334,T,08.4,N,A*1D
$IIRMC,014212,A,3739.855,N,12222.813,W,00.0,126,290310,15,E,A*1F
$IIVHW,,,271,M,00.0,N,,*60
$IIVLW,00000,N,000.0,N*53
$IIVWR,023,L,08.8,N,,,,*7E
$IIGLL,3739.855,N,12222.813,W,014214,A,A*4D
$IIHDG,271,,,15,E*12
$IIMTW,+15.5,C*39
$IIMWV,338,R,09.1,N,A*13
$IIMWV,337,T,08.8,N,A*12
$IIRMB,A,0.23,R,,BAYBDG  ,,,,,008.10,001,,V,A*7B
$IIRMC,014214,A,3739.855,N,12222.813,W,00.0,126,290310,15,E,A*19
$IIVHW,,,271,M,00.0,N,,*60
$IIVLW,00000,N,000.0,N*53
$IIVWR,020,L,09.2,N,,,,*76
$IIGLL,3739.855,N,12222.813,W,014214,A,A*4D
$IIHDG,271,,,15,E*12
$IIMTW,+15.5,C*39
$IIMWV,340,R,09.2,N,A*1F
$IIMWV,338,T,09.1,N,A*15
$IIRMC,014214,A,3739.855,N,12222.813,W,00.0,126,290310,15,E,A*19
$IIVHW,,,271,M,00.0,N,,*60
$IIVLW,00000,N,000.0,N*53
$IIVWR,019,L,09.4,N,,,,*7A
$IIGLL,3739.855,N,12222.813,W,014216,A,A*4F
$IIHDG,271,,,15,E*12
$IIMTW,+15.5,C*39
$IIMWV,341,R,09.4,N,A*18
$IIMWV,340,T,09.2,N,A*19
$IIRMB,A,0.23,R,,BAYBDG  ,,,,,008.10,001,,V,A*7B
$IIRMC,014216,A,3739.855,N,12222.813,W,00.0,126,290310,15,E,A*1B
$IIVHW,,,271,M,00.0,N,,*60
$IIVLW,00000,N,000.0,N*53
$IIVWR,017,L,09.1,N,,,,*71
$IIGLL,3739.855,N,12222.813,W,014216,A,A*4F
$IIHDG,271,,,15,E*12
$IIMTW,+15.5,C*39
$IIMWV,343,R,09.1,N,A*1F
$IIMWV,341,T,09.4,N,A*1E
$IIRMB,A,0.23,R,,BAYBDG  ,,,,,008.10,001,,V,A*7B
$IIRMC,014218,A,3739.854,N,12222.813,W,00.0,126,290310,15,E,A*14
$IIVHW,,,271,M,00.0,N,,*60
$IIVLW,00000,N,000.0,N*53
$IIVWR,017,L,08.5,N,,,,*74
$IIGLL,3739.854,N,12222.813,W,014218,A,A*40
$IIHDG,271,,,15,E*12
$IIMTW,+15.5,C*39
$IIMWV,343,R,08.2,N,A*1D
$IIMWV,343,T,08.5,N,A*1C
$IIRMC,014218,A,3739.854,N,12222.812,W,00.0,126,290310,15,E,A*15
$IIVHW,,,271,M,00.0,N,,*60
$IIVLW,00000,N,000.0,N*53
$IIVWR,017,L,08.2,N,,,,*73
$IIGLL,3739.854,N,12222.812,W,014218,A,A*41
$IIHDG,271,,,15,E*12
$IIMTW,+15.5,C*39
$IIMWV,340,R,07.6,N,A*15
$IIMWV,343,T,08.2,N,A*1B
$IIRMB,A,0.23,R,,BAYBDG  ,,,,,008.10,001,,V,A*7B
$IIRMC,014220,A,3739.854,N,12222.812,W,00.0,126,290310,15,E,A*1E
$IIVHW,,,271,M,00.0,N,,*60
$IIVLW,00000,N,000.0,N*53
$IIVWR,020,L,07.6,N,,,,*7C
$IIGLL,3739.854,N,12222.812,W,014220,A,A*4A
$IIHDG,271,,,15,E*12
$IIMTW,+15.5,C*39
$IIMWV,339,R,07.2,N,A*1F
$IIMWV,340,T,07.6,N,A*13
$IIRMC,014220,A,3739.854,N,12222.811,W,00.0,126,290310,15,E,A*1D
$IIVHW,,,271,M,00.0,N,,*60
$IIVLW,00000,N,000.0,N*53
$IIVWR,021,L,07.2,N,,,,*79
$IIGLL,3739.854,N,12222.811,W,014220,A,A*49
$IIHDG,271,,,15,E*12
$IIMTW,+15.5,C*39
$IIMWV,340,R,07.2,N,A*11
$IIMWV,339,T,07.2,N,A*19
$IIRMB,A,0.23,R,,BAYBDG  ,,,,,008.10,001,,V,A*7B
$IIRMC,014222,A,3739.854,N,12222.811,W,00.0,126,290310,15,E,A*1F
$IIVHW,,,271,M,00.0,N,,*60
$IIVLW,00000,N,000.0,N*53
$IIVWR,020,L,07.2,N,,,,*78
$IIGLL,3739.853,N,12222.811,W,014222,A,A*4C
$IIHDG,271,,,15,E*12
$IIMTW,+15.5,C*39
$IIMWV,342,R,07.1,N,A*10
$IIMWV,340,T,07.2,N,A*17
$IIRMC,014222,A,3739.853,N,12222.811,W,00.0,126,290310,15,E,A*18
$IIVHW,,,271,M,00.0,N,,*60
$IIVLW,00000,N,000.0,N*53
$IIVWR,018,L,07.1,N,,,,*70
$IIGLL,3739.853,N,12222.811,W,014224,A,A*4A
$IIHDG,271,,,15,E*12
$IIMTW,+15.5,C*39
$IIMWV,345,R,06.9,N,A*1E
$IIMWV,342,T,07.1,N,A*16
$IIRMB,A,0.23,R,,BAYBDG  ,,,,,008.10,001,,V,A*7B
$IIRMC,014224,A,3739.853,N,12222.811,W,00.0,126,290310,15,E,A*1E
$IIVHW,,,271,M,00.0,N,,*60
$IIVLW,00000,N,000.0,N*53
$IIVWR,013,L,06.8,N,,,,*73
$IIGLL,3739.853,N,12222.811,W,014224,A,A*4A
$IIHDG,271,,,15,E*12
$IIMTW,+15.5,C*39
$IIMWV,347,R,06.8,N,A*1D
$IIMWV,345,T,06.9,N,A*18
$IIRMC,014224,A,3739.853,N,12222.811,W,00.0,126,290310,15,E,A*1E
$IIVHW,,,271,M,00.0,N,,*60
$IIVLW,00000,N,000.0,N*53
$IIVWR,013,L,06.8,N,,,,*73
$IIGLL,3739.852,N,12222.811,W,014226,A,A*49
$IIHDG,271,,,15,E*12
$IIMTW,+15.5,C*39
$IIMWV,347,R,06.8,N,A*1D
$IIMWV,347,T,06.8,N,A*1B
$IIRMB,A,0.23,R,,BAYBDG  ,,,,,008.10,001,,V,A*7B
$IIRMC,014226,A,3739.852,N,12222.811,W,00.0,126,290310,15,E,A*1D
$IIVHW,,,271,M,00.0,N,,*60
$IIVLW,00000,N,000.0,N*53
$IIVWR,012,L,06.7,N,,,,*7D
$IIGLL,3739.852,N,12222.811,W,014226,A,A*49
$IIHDG,271,,,15,E*12
$IIMTW,+15.5,C*39
$IIMWV,348,R,06.7,N,A*1D
$IIMWV,347,T,06.8,N,A*1B
$IIRMB,A,0.23,R,,BAYBDG  ,,,,,008.10,001,,V,A*7B
$IIRMC,014228,A,3739.852,N,12222.810,W,00.0,126,290310,15,E,A*12
$IIVHW,,,271,M,00.0,N,,*60
$IIVLW,00000,N,000.0,N*53
$IIVWR,011,L,06.6,N,,,,*7F
$IIGLL,3739.852,N,12222.810,W,014228,A,A*46
$IIHDG,271,,,15,E*12
$IIMTW,+15.5,C*39
$IIMWV,350,R,06.9,N,A*1A
$IIMWV,349,T,06.6,N,A*1B
$IIRMC,014228,A,3739.852,N,12222.810,W,00.0,126,290310,15,E,A*12
$IIVHW,,,271,M,00.0,N,,*60
$IIVLW,00000,N,000.0,N*53
$IIVWR,010,L,06.9,N,,,,*71
$IIGLL,3739.852,N,12222.810,W,014228,A,A*46
$IIHDG,271,,,15,E*12
$IIMTW,+15.5,C*39
$IIMWV,351,R,06.8,N,A*1A
$IIMWV,350,T,06.9,N,A*1C
$IIRMB,A,0.23,R,,BAYBDG  ,,,,,008.10,001,,V,A*7B
$IIRMC,014230,A,3739.852,N,12222.811,W,00.0,126,290310,15,E,A*1A
$IIVHW,,,271,M,00.0,N,,*60
$IIVLW,00000,N,000.0,N*53
$IIVWR,009,L,06.8,N,,,,*78
$IIGLL,3739.852,N,12222.811,W,014230,A,A*4E
$IIHDG,271,,,15,E*12
$IIMTW,+15.5,C*39
$IIMWV,352,R,06.8,N,A*19
$IIMWV,351,T,06.8,N,A*1C
$IIRMC,014230,A,3739.852,N,12222.811,W,00.0,126,290310,15,E,A*1A
$IIVHW,,,271,M,00.0,N,,*60
$IIVLW,00000,N,000.0,N*53
$IIVWR,008,L,06.8,N,,,,*79
$IIGLL,3739.852,N,12222.811,W,014230,A,A*4E
$IIHDG,271,,,15,E*12
$IIMTW,+15.5,C*39
$IIMWV,355,R,07.0,N,A*17
$IIMWV,352,T,06.8,N,A*1F
$IIRMB,A,0.23,R,,BAYBDG  ,,,,,008.10,001,,V,A*7B
$IIRMC,014232,A,3739.852,N,12222.811,W,00.0,126,290310,15,E,A*18
$IIVHW,,,271,M,00.0,N,,*60
$IIVLW,00000,N,000.0,N*53
$IIVWR,005,L,07.0,N,,,,*7D
$IIGLL,3739.852,N,12222.811,W,014232,A,A*4C
$IIHDG,271,,,15,E*12
$IIMTW,+15.5,C*39
$IIMWV,351,R,07.3,N,A*10
$IIMWV,355,T,07.0,N,A*11
$IIRMC,014232,A,3739.852,N,12222.811,W,00.0,126,290310,15,E,A*18
$IIVHW,,,271,M,00.0,N,,*60
$IIVLW,00000,N,000.0,N*53
$IIVWR,009,L,07.3,N,,,,*72
$IIGLL,3739.852,N,12222.811,W,014234,A,A*4A
$IIHDG,271,,,15,E*12
$IIMTW,+15.5,C*39
$IIMWV,347,R,07.4,N,A*10
$IIMWV,351,T,07.3,N,A*16
$IIRMB,A,0.23,R,,BAYBDG  ,,,,,008.10,001,,V,A*7B
$IIRMC,014234,A,3739.852,N,12222.811,W,00.0,126,290310,15,E,A*1E
$IIVHW,,,271,M,00.0,N,,*60
$IIVLW,00000,N,000.0,N*53
$IIVWR,019,L,07.5,N,,,,*75
$IIGLL,3739.853,N,12222.812,W,014234,A,A*48
$IIHDG,271,,,15,E*12
$IIMTW,+15.5,C*39
$IIMWV,341,R,07.5,N,A*17
$IIMWV,347,T,07.4,N,A*16
$IIRMC,014234,A,3739.853,N,12222.812,W,00.0,126,290310,15,E,A*1C
$IIVHW,,,271,M,00.0,N,,*60
$IIVLW,00000,N,000.0,N*53
$IIVWR,022,L,07.7,N,,,,*7F
$IIGLL,3739.853,N,12222.812,W,014236,A,A*4A
$IIHDG,271,,,15,E*12
$IIMTW,+15.5,C*39
$IIMWV,338,R,07.7,N,A*1B
$IIMWV,336,T,07.9,N,A*1D
$IIRMB,A,0.23,R,,BAYBDG  ,,,,,008.10,001,,V,A*7B
$IIRMC,014238,A,3739.853,N,12222.812,W,00.0,126,290310,15,E,A*10
$IIVHW,,,271,M,00.0,N,,*60
$IIVLW,00000,N,000.0,N*53
$IIVWR,017,L,08.1,N,,,,*70
$IIGLL,3739.853,N,12222.812,W,014238,A,A*44
$IIHDG,271,,,15,E*12
$IIMTW,+15.5,C*39
$IIMWV,343,R,08.1,N,A*1E
$IIMWV,338,T,07.7,N,A*1D
$IIRMB,A,0.23,R,,BAYBDG  ,,,,,008.10,001,,V,A*7B
$IIRMC,014238,A,3739.853,N,12222.812,W,00.0,126,290310,15,E,A*10
$IIVHW,,,271,M,00.0,N,,*60
$IIVLW,00000,N,000.0,N*53
$IIVWR,017,L,08.3,N,,,,*72
$IIGLL,3739.853,N,12222.812,W,014238,A,A*44
$IIHDG,271,,,15,E*12
$IIMTW,+15.5,C*39
$IIMWV,340,R,08.4,N,A*18
$IIMWV,343,T,08.3,N,A*1A
$IIRMB,A,0.23,R,,BAYBDG  ,,,,,008.10,001,,V,A*7B
$IIRMC,014240,A,3739.854,N,12222.811,W,00.0,126,290310,15,E,A*1B
$IIVHW,,,271,M,00.0,N,,*60
$IIVLW,00000,N,000.0,N*53
$IIVWR,020,L,08.4,N,,,,*71
$IIGLL,3739.854,N,12222.811,W,014240,A,A*4F
$IIHDG,271,,,15,E*12
$IIMTW,+15.5,C*39
$IIMWV,334,R,08.1,N,A*1E
$IIMWV,340,T,08.4,N,A*1E
$IIRMC,014240,A,3739.854,N,12222.811,W,00.0,126,290310,15,E,A*1B
$IIVHW,,,271,M,00.0,N,,*60
$IIVLW,00000,N,000.0,N*53
$IIVWR,026,L,08.1,N,,,,*72
$IIGLL,3739.854,N,12222.811,W,014240,A,A*4F
$IIHDG,271,,,15,E*12
$IIMTW,+15.5,C*39
$IIMWV,329,R,07.7,N,A*1B
$IIMWV,334,T,08.1,N,A*18
$IIRMB,A,0.23,R,,BAYBDG  ,,,,,008.10,001,,V,A*7B
$IIRMC,014242,A,3739.855,N,12222.812,W,00.0,126,290310,15,E,A*1B
$IIVHW,,,271,M,00.0,N,,*60
$IIVLW,00000,N,000.0,N*53
$IIVWR,031,L,07.7,N,,,,*7D
$IIGLL,3739.856,N,12222.812,W,014242,A,A*4C
$IIHDG,271,,,15,E*12
$IIMTW,+15.5,C*39
$IIMWV,326,R,07.5,N,A*16
$IIMWV,329,T,07.7,N,A*1D
$IIRMC,014242,A,3739.856,N,12222.812,W,00.0,126,290310,15,E,A*18
$IIVHW,,,271,M,00.0,N,,*60
$IIVLW,00000,N,000.0,N*53
$IIVWR,034,L,07.5,N,,,,*7A
$IIGLL,3739.856,N,12222.812,W,014244,A,A*4A
$IIHDG,271,,,15,E*12
$IIMTW,+15.5,C*39
$IIMWV,325,R,07.5,N,A*15
$IIMWV,326,T,07.5,N,A*10
$IIRMB,A,0.23,R,,BAYBDG  ,,,,,008.10,001,,V,A*7B
$IIRMC,014244,A,3739.856,N,12222.812,W,00.0,126,290310,15,E,A*1E
$IIVHW,,,271,M,00.0,N,,*60
$IIVLW,00000,N,000.0,N*53
$IIVWR,034,L,07.5,N,,,,*7A
$IIGLL,3739.856,N,12222.812,W,014244,A,A*4A
$IIHDG,271,,,15,E*12
$IIMTW,+15.5,C*39
$IIMWV,326,R,07.5,N,A*16
$IIMWV,325,T,07.5,N,A*13
$IIRMC,014244,A,3739.856,N,12222.812,W,00.0,126,290310,15,E,A*1E
$IIVHW,,,271,M,00.0,N,,*60
$IIVLW,00000,N,000.0,N*53
$IIVWR,032,L,07.2,N,,,,*7B
$IIGLL,3739.856,N,12222.811,W,014246,A,A*4B
$IIHDG,271,,,15,E*12
$IIMTW,+15.5,C*39
$IIMWV,328,R,07.2,N,A*1F
$IIMWV,326,T,07.5,N,A*10
$IIRMB,A,0.23,R,,BAYBDG  ,,,,,008.10,001,,V,A*7B
$IIRMC,014246,A,3739.856,N,12222.811,W,00.0,126,290310,15,E,A*1F
$IIVHW,,,271,M,00.0,N,,*60
$IIVLW,00000,N,000.0,N*53
$IIVWR,036,L,07.8,N,,,,*75
$IIGLL,3739.856,N,12222.811,W,014246,A,A*4B
$IIHDG,271,,,15,E*12
$IIMTW,+15.5,C*39
$IIMWV,324,R,07.8,N,A*19
$IIMWV,328,T,07.2,N,A*19
$IIRMB,A,0.23,R,,BAYBDG  ,,,,,008.10,001,,V,A*7B
$IIRMC,014248,A,3739.855,N,12222.811,W,00.0,126,290310,15,E,A*12
$IIVHW,,,271,M,00.0,N,,*60
$IIVLW,00000,N,000.0,N*53
$IIVWR,037,L,08.1,N,,,,*72
$IIGLL,3739.855,N,12222.811,W,014248,A,A*46
$IIHDG,271,,,15,E*12
$IIMTW,+15.5,C*39
$IIMWV,324,R,08.3,N,A*1D
$IIMWV,323,T,08.1,N,A*1E
$IIRMC,014248,A,3739.855,N,12222.811,W,00.0,126,290310,15,E,A*12
$IIVHW,,,271,M,00.0,N,,*60
$IIVLW,00000,N,000.0,N*53
$IIVWR,036,L,08.3,N,,,,*71
$IIGLL,3739.855,N,12222.811,W,014248,A,A*46
$IIHDG,271,,,15,E*12
$IIMTW,+15.5,C*39
$IIMWV,326,R,08.8,N,A*14
$IIMWV,324,T,08.3,N,A*1B
$IIRMB,A,0.23,R,,BAYBDG  ,,,,,008.10,001,,V,A*7B
$IIRMC,014250,A,3739.854,N,12222.811,W,00.0,126,290310,15,E,A*1A
$IIVHW,,,271,M,00.0,N,,*60
$IIVLW,00000,N,000.0,N*53
$IIVWR,034,L,08.8,N,,,,*78
$IIGLL,3739.854,N,12222.811,W,014250,A,A*4E
$IIHDG,271,,,15,E*12
$IIMTW,+15.5,C*39
$IIMWV,332,R,09.1,N,A*19
$IIMWV,326,T,08.8,N,A*12
$IIRMC,014250,A,3739.854,N,12222.811,W,00.0,126,290310,15,E,A*1A
$IIVHW,,,271,M,00.0,N,,*60
$IIVLW,00000,N,000.0,N*53
$IIVWR,028,L,09.1,N,,,,*7D
$IIGLL,3739.854,N,12222.811,W,014250,A,A*4E
$IIHDG,271,,,15,E*12
$IIMTW,+15.5,C*39
$IIMWV,334,R,09.6,N,A*18
$IIMWV,332,T,09.1,N,A*1F
$IIRMB,A,0.23,R,,BAYBDG  ,,,,,008.10,001,,V,A*7B
$IIRMC,014252,A,3739.855,N,12222.812,W,00.0,126,290310,15,E,A*1A
$IIVHW,,,271,M,00.0,N,,*60
$IIVLW,00000,N,000.0,N*53
$IIVWR,026,L,09.6,N,,,,*74
$IIGLL,3739.855,N,12222.812,W,014252,A,A*4E
$IIHDG,271,,,15,E*12
$IIMTW,+15.5,C*39
$IIMWV,336,R,09.7,N,A*1B
$IIMWV,334,T,09.6,N,A*1E
$IIRMC,014252,A,3739.855,N,12222.812,W,00.0,126,290310,15,E,A*1A
$IIVHW,,,271,M,00.0,N,,*60
$IIVLW,00000,N,000.0,N*53
$IIVWR,024,L,09.7,N,,,,*77
$IIGLL,3739.856,N,12222.812,W,014254,A,A*4B
$IIHDG,271,,,15,E*12
$IIMTW,+15.5,C*39
$IIMWV,340,R,09.9,N,A*14
$IIMWV,336,T,09.7,N,A*1D
$IIRMB,A,0.23,R,,BAYBDG  ,,,,,008.10,001,,V,A*7B
$IIRMC,014254,A,3739.856,N,12222.812,W,00.0,126,290310,15,E,A*1F
$IIVHW,,,271,M,00.0,N,,*60
$IIVLW,00000,N,000.0,N*53
$IIVWR,019,L,10.5,N,,,,*73
$IIGLL,3739.856,N,12222.812,W,014254,A,A*4B
$IIHDG,271,,,15,E*12
$IIMTW,+15.5,C*39
$IIMWV,341,R,10.5,N,A*11
$IIMWV,340,T,09.9,N,A*12
$IIRMC,014254,A,3739.856,N,12222.812,W,00.0,126,290310,15,E,A*1F
$IIVHW,,,271,M,00.0,N,,*60
$IIVLW,00000,N,000.0,N*53
$IIVWR,017,L,10.3,N,,,,*7B
$IIGLL,3739.855,N,12222.812,W,014256,A,A*4A
$IIHDG,271,,,15,E*12
$IIMTW,+15.5,C*39
$IIMWV,343,R,10.3,N,A*15
$IIMWV,341,T,10.5,N,A*17
$IIRMB,A,0.23,R,,BAYBDG  ,,,,,008.10,001,,V,A*7B
$IIRMC,014256,A,3739.855,N,12222.812,W,00.0,126,290310,15,E,A*1E
$IIVHW,,,271,M,00.0,N,,*60
$IIVLW,00000,N,000.0,N*53
$IIVWR,015,L,09.9,N,,,,*7B
$IIGLL,3739.855,N,12222.812,W,014256,A,A*4A
$IIHDG,271,,,15,E*12
$IIMTW,+15.5,C*39
$IIMWV,345,R,09.9,N,A*11
$IIMWV,343,T,10.3,N,A*13
$IIRMB,A,0.23,R,,BAYBDG  ,,,,,008.10,001,,V,A*7B
$IIRMC,014258,A,3739.855,N,12222.812,W,00.0,126,290310,15,E,A*10
$IIVHW,,,271,M,00.0,N,,*60
$IIVLW,00000,N,000.0,N*53
$IIVWR,015,L,09.4,N,,,,*76
$IIGLL,3739.855,N,12222.812,W,014258,A,A*44
$IIHDG,271,,,15,E*12
$IIMTW,+15.5,C*39
$IIMWV,341,R,09.5,N,A*19
$IIMWV,345,T,09.4,N,A*1A
$IIRMC,014258,A,3739.855,N,12222.812,W,00.0,126,290310,15,E,A*10
$IIVHW,,,271,M,00.0,N,,*60
$IIVLW,00000,N,000.0,N*53
$IIVWR,019,L,09.5,N,,,,*7B
$IIGLL,3739.855,N,12222.812,W,014258,A,A*44
$IIHDG,271,,,15,E*12
$IIMTW,+15.5,C*39
$IIMWV,340,R,08.7,N,A*1B
$IIMWV,341,T,09.5,N,A*1F
$IIRMB,A,0.23,R,,BAYBDG  ,,,,,008.10,001,,V,A*7B
$IIRMC,014300,A,3739.855,N,12222.813,W,00.0,126,290310,15,E,A*1D
$IIVHW,,,271,M,00.0,N,,*60
$IIVLW,00000,N,000.0,N*53
$IIVWR,020,L,08.7,N,,,,*72
$IIGLL,3739.855,N,12222.813,W,014300,A,A*49
$IIHDG,271,,,15,E*12
$IIMTW,+15.5,C*39
$IIMWV,336,R,08.1,N,A*1C
$IIMWV,340,T,08.7,N,A*1D
$IIRMC,014300,A,3739.855,N,12222.813,W,00.0,126,290310,15,E,A*1D
$IIVHW,,,271,M,00.0,N,,*60
$IIVLW,00000,N,000.0,N*53
$IIVWR,024,L,08.1,N,,,,*70
$IIGLL,3739.855,N,12222.813,W,014300,A,A*49
$IIHDG,271,,,15,E*12
$IIMTW,+15.5,C*39
$IIMWV,338,R,08.3,N,A*10
$IIMWV,336,T,08.1,N,A*1A
$IIRMB,A,0.23,R,,BAYBDG  ,,,,,008.10,001,,V,A*7B
$IIRMC,014302,A,3739.856,N,12222.813,W,00.0,126,290310,15,E,A*1C
$IIVHW,,,271,M,00.0,N,,*60
$IIVLW,00000,N,000.0,N*53
$IIVWR,022,L,08.3,N,,,,*74
$IIGLL,3739.857,N,12222.813,W,014302,A,A*49
$IIHDG,271,,,15,E*12
$IIMTW,+15.5,C*39
$IIMWV,340,R,08.4,N,A*18
$IIMWV,338,T,08.3,N,A*16
$IIRMC,014302,A,3739.857,N,12222.813,W,00.0,126,290310,15,E,A*1D
$IIVHW,,,271,M,00.0,N,,*60
$IIVLW,00000,N,000.0,N*53
$IIVWR,020,L,08.4,N,,,,*71
$IIGLL,3739.857,N,12222.813,W,014304,A,A*4F
$IIHDG,271,,,15,E*12
$IIMTW,+15.5,C*39
$IIMWV,342,R,08.5,N,A*1B
$IIMWV,340,T,08.4,N,A*1E
$IIRMB,A,0.23,R,,BAYBDG  ,,,,,008.10,001,,V,A*7B
$IIRMC,014304,A,3739.857,N,12222.813,W,00.0,126,290310,15,E,A*1B
$IIVHW,,,271,M,00.0,N,,*60
$IIVLW,00000,N,000.0,N*53
$IIVWR,012,L,09.0,N,,,,*75
$IIGLL,3739.857,N,12222.813,W,014304,A,A*4F
$IIHDG,271,,,15,E*12
$IIMTW,+15.5,C*39
$IIMWV,348,R,09.0,N,A*15
$IIMWV,342,T,08.5,N,A*1D
$IIRMC,014304,A,3739.857,N,12222.813,W,00.0,126,290310,15,E,A*1B
$IIVHW,,,271,M,00.0,N,,*60
$IIVLW,00000,N,000.0,N*53
$IIVWR,007,L,09.3,N,,,,*72
$IIGLL,3739.857,N,12222.813,W,014306,A,A*4D
$IIHDG,271,,,15,E*12
$IIMTW,+15.5,C*39
$IIMWV,353,R,09.3,N,A*1C
$IIMWV,348,T,09.0,N,A*13
$IIRMB,A,0.23,R,,BAYBDG  ,,,,,008.10,001,,V,A*7B
$IIRMC,014308,A,3739.857,N,12222.812,W,00.0,126,290310,15,E,A*16
$IIVHW,,,271,M,00.0,N,,*60
$IIVLW,00000,N,000.0,N*53
$IIVWR,007,L,09.4,N,,,,*75
$IIGLL,3739.857,N,12222.812,W,014308,A,A*42
$IIHDG,271,,,15,E*12
$IIMTW,+15.5,C*39
$IIMWV,353,R,09.4,N,A*1B
$IIMWV,353,T,09.3,N,A*1A
$IIRMB,A,0.23,R,,BAYBDG  ,,,,,008.10,001,,V,A*7B
$IIRMC,014308,A,3739.857,N,12222.812,W,00.0,126,290310,15,E,A*16
$IIVHW,,,271,M,00.0,N,,*60
$IIVLW,00000,N,000.0,N*53
$IIVWR,004,L,09.9,N,,,,*7B
$IIGLL,3739.857,N,12222.812,W,014308,A,A*42
$IIHDG,271,,,15,E*12
$IIMTW,+15.5,C*39
$IIMWV,000,R,10.5,N,A*17
$IIMWV,356,T,09.9,N,A*15
$IIRMB,A,0.23,R,,BAYBDG  ,,,,,008.10,001,,V,A*7B
$IIRMC,014310,A,3739.857,N,12222.812,W,00.0,126,290310,15,E,A*1F
$IIVHW,,,271,M,00.0,N,,*60
$IIVLW,00000,N,000.0,N*53
$IIVWR,000,R,10.5,N,,,,*65
$IIGLL,3739.857,N,12222.812,W,014310,A,A*4B
$IIHDG,271,,,15,E*12
$IIMTW,+15.5,C*39
$IIMWV,002,R,10.9,N,A*19
$IIMWV,000,T,10.5,N,A*11
$IIRMC,014310,A,3739.857,N,12222.812,W,00.0,126,290310,15,E,A*1F
$IIVHW,,,271,M,00.0,N,,*60
$IIVLW,00000,N,000.0,N*53
$IIVWR,002,R,10.9,N,,,,*6B
$IIGLL,3739.857,N,12222.812,W,014310,A,A*4B
$IIHDG,271,,,15,E*12
$IIMTW,+15.5,C*39
$IIMWV,003,R,11.0,N,A*10
$IIMWV,002,T,10.9,N,A*1F
$IIRMB,A,0.23,R,,BAYBDG  ,,,,,008.10,001,,V,A*7B
$IIRMC,014312,A,3739.856,N,12222.812,W,00.0,126,290310,15,E,A*1C
$IIVHW,,,271,M,00.0,N,,*60
$IIVLW,00000,N,000.0,N*53
$IIVWR,003,R,11.0,N,,,,*62
$IIGLL,3739.856,N,12222.812,W,014312,A,A*48
$IIHDG,271,,,15,E*12
$IIMTW,+15.5,C*39
$IIMWV,002,R,11.5,N,A*14
$IIMWV,003,T,11.0,N,A*16
$IIRMC,014312,A,3739.856,N,12222.812,W,00.0,126,290310,15,E,A*1C
$IIVHW,,,271,M,00.0,N,,*60
$IIVLW,00000,N,000.0,N*53
$IIVWR,002,R,11.5,N,,,,*66
$IIGLL,3739.857,N,12222.812,W,014314,A,A*4F
$IIHDG,271,,,15,E*12
$IIMTW,+15.5,C*39
$IIMWV,004,R,11.4,N,A*13
$IIMWV,002,T,11.5,N,A*12
$IIRMB,A,0.23,R,,BAYBDG  ,,,,,008.10,001,,V,A*7B
$IIRMC,014314,A,3739.857,N,12222.812,W,00.0,126,290310,15,E,A*1B
$IIVHW,,,271,M,00.0,N,,*60
$IIVLW,00000,N,000.0,N*53
$IIVWR,003,R,10.2,N,,,,*61
$IIGLL,3739.857,N,12222.812,W,014314,A,A*4F
$IIHDG,271,,,15,E*12
$IIMTW,+15.5,C*39
$IIMWV,003,R,10.2,N,A*13
$IIMWV,004,T,11.4,N,A*15
$IIRMC,014314,A,3739.857,N,12222.812,W,00.0,126,290310,15,E,A*1B
$IIVHW,,,271,M,00.0,N,,*60
$IIVLW,00000,N,000.0,N*53
$IIVWR,003,L,09.0,N,,,,*75
$IIGLL,3739.856,N,12222.812,W,014316,A,A*4C
$IIHDG,271,,,15,E*12
$IIMTW,+15.5,C*39
$IIMWV,357,R,09.0,N,A*1B
$IIMWV,003,T,10.2,N,A*15
$IIRMB,A,0.23,R,,BAYBDG  ,,,,,008.10,001,,V,A*7B
$IIRMC,014316,A,3739.856,N,12222.813,W,00.0,126,290310,15,E,A*19
$IIVHW,,,271,M,00.0,N,,*60
$IIVLW,00000,N,000.0,N*53
$IIVWR,006,L,09.2,N,,,,*72
$IIGLL,3739.856,N,12222.813,W,014316,A,A*4D
$IIHDG,271,,,15,E*12
$IIMTW,+15.5,C*39
$IIMWV,354,R,09.2,N,A*1A
$IIMWV,357,T,09.0,N,A*1D
$IIRMB,A,0.23,R,,BAYBDG  ,,,,,008.10,001,,V,A*7B
$IIRMC,014318,A,3739.855,N,12222.812,W,00.0,126,290310,15,E,A*15
$IIVHW,,,271,M,00.0,N,,*60
$IIVLW,00000,N,000.0,N*53
$IIVWR,010,L,08.9,N,,,,*7F
$IIGLL,3739.855,N,12222.812,W,014318,A,A*41
$IIHDG,271,,,15,E*12
$IIMTW,+15.5,C*39
$IIMWV,345,R,09.1,N,A*19
$IIMWV,350,T,08.9,N,A*12
$IIRMC,014318,A,3739.855,N,12222.812,W,00.0,126,290310,15,E,A*15
$IIVHW,,,271,M,00.0,N,,*60
$IIVLW,00000,N,000.0,N*53
$IIVWR,015,L,09.1,N,,,,*73
$IIGLL,3739.855,N,12222.812,W,014318,A,A*41
$IIHDG,271,,,15,E*12
$IIMTW,+15.5,C*39
$IIMWV,346,R,08.9,N,A*13
$IIMWV,345,T,09.1,N,A*1F
$IIRMB,A,0.23,R,,BAYBDG  ,,,,,008.10,001,,V,A*7B
$IIRMC,014320,A,3739.856,N,12222.812,W,00.0,126,290310,15,E,A*1D
$IIVHW,,,271,M,00.0,N,,*60
$IIVLW,00000,N,000.0,N*53
$IIVWR,014,L,08.9,N,,,,*7B
$IIGLL,3739.856,N,12222.812,W,014320,A,A*49
$IIHDG,271,,,15,E*12
$IIMTW,+15.5,C*39
$IIMWV,348,R,08.7,N,A*13
$IIMWV,346,T,08.9,N,A*15
$IIRMC,014320,A,3739.856,N,12222.812,W,00.0,126,290310,15,E,A*1D
$IIVHW,,,271,M,00.0,N,,*60
$IIVLW,00000,N,000.0,N*53
$IIVWR,012,L,08.7,N,,,,*73
$IIGLL,3739.856,N,12222.812,W,014320,A,A*49
$IIHDG,271,,,15,E*12
$IIMTW,+15.5,C*39
$IIMWV,347,R,09.1,N,A*1B
$IIMWV,348,T,08.7,N,A*15
$IIRMB,A,0.23,R,,BAYBDG  ,,,,,008.10,001,,V,A*7B
$IIRMC,014322,A,3739.856,N,12222.813,W,00.0,126,290310,15,E,A*1E
$IIVHW,,,271,M,00.0,N,,*60
$IIVLW,00000,N,000.0,N*53
$IIVWR,013,L,09.1,N,,,,*75
$IIGLL,3739.856,N,12222.813,W,014322,A,A*4A
$IIHDG,271,,,15,E*12
$IIMTW,+15.5,C*39
$IIMWV,343,R,09.4,N,A*1A
$IIMWV,347,T,09.1,N,A*1D
$IIRMC,014322,A,3739.856,N,12222.813,W,00.0,126,290310,15,E,A*1E
$IIVHW,,,271,M,00.0,N,,*60
$IIVLW,00000,N,000.0,N*53
$IIVWR,017,L,09.4,N,,,,*74
$IIGLL,3739.856,N,12222.813,W,014324,A,A*4C
$IIHDG,271,,,15,E*12
$IIMTW,+15.5,C*39
$IIMWV,341,R,10.3,N,A*17
$IIMWV,343,T,09.4,N,A*1C
$IIRMB,A,0.23,R,,BAYBDG  ,,,,,008.10,001,,V,A*7B
$IIRMC,014324,A,3739.856,N,12222.813,W,00.0,126,290310,15,E,A*18
$IIVHW,,,271,M,00.0,N,,*60
$IIVLW,00000,N,000.0,N*53
$IIVWR,028,L,10.8,N,,,,*7C
$IIGLL,3739.856,N,12222.813,W,014324,A,A*4C
$IIHDG,271,,,15,E*12
$IIMTW,+15.5,C*39
$IIMWV,332,R,10.8,N,A*18
$IIMWV,341,T,10.3,N,A*11
$IIRMC,014324,A,3739.856,N,12222.813,W,00.0,126,290310,15,E,A*18
$IIVHW,,,271,M,00.0,N,,*60
$IIVLW,00000,N,000.0,N*53
$IIVWR,032,L,11.0,N,,,,*7E
$IIGLL,3739.856,N,12222.813,W,014326,A,A*4E
$IIHDG,271,,,15,E*12
$IIMTW,+15.5,C*39
$IIMWV,328,R,11.0,N,A*1A
$IIMWV,332,T,10.8,N,A*1E
$IIRMB,A,0.23,R,,BAYBDG  ,,,,,008.10,001,,V,A*7B
$IIRMC,014326,A,3739.856,N,12222.813,W,00.0,126,290310,15,E,A*1A
$IIVHW,,,271,M,00.0,N,,*60
$IIVLW,00000,N,000.0,N*53
$IIVWR,031,L,10.8,N,,,,*74
$IIGLL,3739.856,N,12222.813,W,014326,A,A*4E
$IIHDG,271,,,15,E*12
$IIMTW,+15.5,C*39
$IIMWV,329,R,10.8,N,A*12
$IIMWV,328,T,11.0,N,A*1C
$IIRMB,A,0.23,R,,BAYBDG  ,,,,,008.10,001,,V,A*7B
$IIRMC,014328,A,3739.855,N,12222.813,W,00.0,126,290310,15,E,A*17
$IIVHW,,,271,M,00.0,N,,*60
$IIVLW,00000,N,000.0,N*53
$IIVWR,031,L,10.5,N,,,,*79
$IIGLL,3739.855,N,12222.813,W,014328,A,A*43
$IIHDG,271,,,15,E*12
$IIMTW,+15.5,C*39
$IIMWV,330,R,10.4,N,A*16
$IIMWV,329,T,10.5,N,A*19
$IIRMC,014328,A,3739.855,N,12222.812,W,00.0,126,290310,15,E,A*16
$IIVHW,,,271,M,00.0,N,,*60
$IIVLW,00000,N,000.0,N*53
$IIVWR,030,L,10.4,N,,,,*79
$IIGLL,3739.855,N,12222.812,W,014328,A,A*42
$IIHDG,271,,,15,E*12
$IIMTW,+15.5,C*39
$IIMWV,331,R,10.4,N,A*17
$IIMWV,330,T,10.4,N,A*10
$IIRMB,A,0.23,R,,BAYBDG  ,,,,,008.10,001,,V,A*7B
$IIRMC,014330,A,3739.854,N,12222.812,W,00.0,126,290310,15,E,A*1E
$IIVHW,,,271,M,00.0,N,,*60
$IIVLW,00000,N,000.0,N*53
$IIVWR,029,L,10.4,N,,,,*71
$IIGLL,3739.854,N,12222.812,W,014330,A,A*4A
$IIHDG,271,,,15,E*12
$IIMTW,+15.5,C*39
$IIMWV,332,R,10.4,N,A*14
$IIMWV,331,T,10.4,N,A*11
$IIRMC,014330,A,3739.854,N,12222.812,W,00.0,126,290310,15,E,A*1E
$IIVHW,,,271,M,00.0,N,,*60
$IIVLW,00000,N,000.0,N*53
$IIVWR,028,L,10.4,N,,,,*70
$IIGLL,3739.854,N,12222.812,W,014330,A,A*4A
$IIHDG,271,,,15,E*12
$IIMTW,+15.5,C*39
$IIMWV,334,R,11.0,N,A*17
$IIMWV,332,T,10.4,N,A*12
$IIRMB,A,0.23,R,,BAYBDG  ,,,,,008.10,001,,V,A*7B
$IIRMC,014332,A,3739.855,N,12222.812,W,00.0,126,290310,15,E,A*1D
$IIVHW,,,271,M,00.0,N,,*60
$IIVLW,00000,N,000.0,N*53
$IIVWR,026,L,11.0,N,,,,*7B
$IIGLL,3739.855,N,12222.812,W,014332,A,A*49
$IIHDG,271,,,15,E*12
$IIMTW,+15.5,C*39
$IIMWV,337,R,11.1,N,A*15
$IIMWV,334,T,11.0,N,A*11
$IIRMC,014332,A,3739.855,N,12222.812,W,00.0,126,290310,15,E,A*1D
$IIVHW,,,271,M,00.0,N,,*60
$IIVLW,00000,N,000.0,N*53
$IIVWR,023,L,11.1,N,,,,*7F
$IIGLL,3739.855,N,12222.812,W,014334,A,A*4F
$IIHDG,271,,,15,E*12
$IIMTW,+15.5,C*39
$IIMWV,339,R,10.1,N,A*1A
$IIMWV,337,T,11.1,N,A*13
$IIRMB,A,0.23,R,,BAYBDG  ,,,,,008.10,001,,V,A*7B
$IIRMC,014334,A,3739.855,N,12222.812,W,00.0,126,290310,15,E,A*1B
$IIVHW,,,271,M,00.0,N,,*60
$IIVLW,00000,N,000.0,N*53
$IIVWR,020,L,09.7,N,,,,*73
$IIGLL,3739.855,N,12222.812,W,014334,A,A*4F
$IIHDG,271,,,15,E*12
$IIMTW,+15.5,C*39
$IIMWV,340,R,09.7,N,A*1A
$IIMWV,339,T,10.1,N,A*1C
$IIRMC,014334,A,3739.855,N,12222.812,W,00.0,126,290310,15,E,A*1B
$IIVHW,,,271,M,00.0,N,,*60
$IIVLW,00000,N,000.0,N*53
$IIVWR,015,L,10.0,N,,,,*7A
$IIGLL,3739.855,N,12222.811,W,014336,A,A*4E
$IIHDG,271,,,15,E*12
$IIMTW,+15.5,C*39
$IIMWV,345,R,10.0,N,A*10
$IIMWV,340,T,09.7,N,A*1C
$IIRMB,A,0.23,R,,BAYBDG  ,,,,,008.10,001,,V,A*7B
$IIRMC,014336,A,3739.855,N,12222.811,W,00.0,126,290310,15,E,A*1A
$IIVHW,,,271,M,00.0,N,,*60
$IIVLW,00000,N,000.0,N*53
$IIVWR,021,L,10.1,N,,,,*7C
$IIGLL,3739.855,N,12222.811,W,014336,A,A*4E
$IIHDG,271,,,15,E*12
$IIMTW,+15.5,C*39
$IIMWV,339,R,10.1,N,A*1A
$IIMWV,345,T,10.0,N,A*16
$IIRMB,A,0.23,R,,BAYBDG  ,,,,,008.10,001,,V,A*7B
$IIRMC,014338,A,3739.855,N,12222.811,W,00.0,126,290310,15,E,A*14
$IIVHW,,,271,M,00.0,N,,*60
$IIVLW,00000,N,000.0,N*53
$IIVWR,024,L,10.2,N,,,,*7A
$IIGLL,3739.855,N,12222.811,W,014338,A,A*40
$IIHDG,271,,,15,E*12
$IIMTW,+15.5,C*39
$IIMWV,343,R,09.7,N,A*19
$IIMWV,336,T,10.2,N,A*10
$IIRMC,014338,A,3739.855,N,12222.811,W,00.0,126,290310,15,E,A*14
$IIVHW,,,271,M,00.0,N,,*60
$IIVLW,00000,N,000.0,N*53
$IIVWR,017,L,09.7,N,,,,*77
$IIGLL,3739.855,N,12222.811,W,014338,A,A*40
$IIHDG,271,,,15,E*12
$IIMTW,+15.5,C*39
$IIMWV,345,R,10.1,N,A*11
$IIMWV,343,T,09.7,N,A*1F
$IIRMB,A,0.23,R,,BAYBDG  ,,,,,008.10,001,,V,A*7B
$IIRMC,014340,A,3739.854,N,12222.811,W,00.0,126,290310,15,E,A*1A
$IIVHW,,,271,M,00.0,N,,*60
$IIVLW,00000,N,000.0,N*53
$IIVWR,015,L,10.1,N,,,,*7B
$IIGLL,3739.854,N,12222.811,W,014340,A,A*4E
$IIHDG,271,,,15,E*12
$IIMTW,+15.5,C*39
$IIMWV,352,R,10.6,N,A*10
$IIMWV,345,T,10.1,N,A*17
$IIRMC,014340,A,3739.854,N,12222.811,W,00.0,126,290310,15,E,A*1A
$IIVHW,,,271,M,00.0,N,,*60
$IIVLW,00000,N,000.0,N*53
$IIVWR,008,L,10.6,N,,,,*70
$IIGLL,3739.854,N,12222.811,W,014340,A,A*4E
$IIHDG,271,,,15,E*12
$IIMTW,+15.5,C*39
$IIMWV,352,R,11.0,N,A*17
$IIMWV,352,T,10.6,N,A*16
$IIRMB,A,0.23,R,,BAYBDG  ,,,,,008.10,001,,V,A*7B
$IIRMC,014342,A,3739.854,N,12222.811,W,00.0,126,290310,15,E,A*18
$IIVHW,,,271,M,00.0,N,,*60
$IIVLW,00000,N,000.0,N*53
$IIVWR,008,L,11.0,N,,,,*77
$IIGLL,3739.854,N,12222.810,W,014342,A,A*4D
$IIHDG,271,,,15,E*12
$IIMTW,+15.5,C*39
$IIMWV,352,R,11.1,N,A*16
$IIMWV,352,T,11.0,N,A*11
$IIRMC,014342,A,3739.854,N,12222.810,W,00.0,126,290310,15,E,A*19
$IIVHW,,,271,M,00.0,N,,*60
$IIVLW,00000,N,000.0,N*53
$IIVWR,008,L,11.1,N,,,,*76
$IIGLL,3739.854,N,12222.810,W,014344,A,A*4B
$IIHDG,271,,,15,E*12
$IIMTW,+15.5,C*39
$IIMWV,352,R,11.1,N,A*16
$IIMWV,352,T,11.1,N,A*10
$IIRMB,A,0.23,R,,BAYBDG  ,,,,,008.10,001,,V,A*7B
$IIRMC,014344,A,3739.854,N,12222.810,W,00.0,126,290310,15,E,A*1F
$IIVHW,,,271,M,00.0,N,,*60
$IIVLW,00000,N,000.0,N*53
$IIVWR,007,L,11.2,N,,,,*7A
$IIGLL,3739.854,N,12222.810,W,014344,A,A*4B
$IIHDG,271,,,15,E*12
$IIMTW,+15.5,C*39
$IIMWV,353,R,11.2,N,A*14
$IIMWV,352,T,11.1,N,A*10
$IIRMC,014344,A,3739.854,N,12222.810,W,00.0,126,290310,15,E,A*1F
$IIVHW,,,271,M,00.0,N,,*60
$IIVLW,00000,N,000.0,N*53
$IIVWR,005,L,10.9,N,,,,*72
$IIGLL,3739.854,N,12222.810,W,014346,A,A*49
$IIHDG,271,,,15,E*12
$IIMTW,+15.5,C*39
$IIMWV,355,R,10.9,N,A*18
$IIMWV,353,T,11.2,N,A*12
$IIRMB,A,0.23,R,,BAYBDG  ,,,,,008.10,001,,V,A*7B
