$IIRMC,114007,A,4039.606,N,01757.843,E,000.2,311.0,050709,000.0,E*6D
$IIMWV,170.0,R,012.2,N,A*3A
$IIVHW,,,068,M,00.000,N,,*6A
$IIHDM,068,M*32
$IIRMC,114008,A,4039.606,N,01757.843,E,000.2,311.0,050709,000.0,E*62
$IIMWV,170.0,R,012.2,N,A*3A
$IIVHW,,,068,M,00.000,N,,*6A
$IIHDM,068,M*32
$IIRMC,114009,A,4039.606,N,01757.843,E,000.2,311.0,050709,000.0,E*63
$IIMWV,170.0,R,012.2,N,A*3A
$IIVHW,,,068,M,00.000,N,,*6A
$IIHDM,068,M*32
$IIRMC,114010,A,4039.606,N,01757.843,E,000.2,311.0,050709,000.0,E*6B
$IIMWV,170.0,R,012.2,N,A*3A
$IIVHW,,,068,M,00.000,N,,*6A
$IIHDM,068,M*32
$IIRMC,114011,A,4039.606,N,01757.843,E,000.2,311.0,050709,000.0,E*6A
$IIMWV,170.0,R,012.2,N,A*3A
$IIVHW,,,068,M,00.000,N,,*6A
$IIHDM,068,M*32
$IIRMC,114012,A,4039.606,N,01757.843,E,000.2,311.0,050709,000.0,E*69
$IIMWV,170.0,R,012.2,N,A*3A
$IIVHW,,,068,M,00.000,N,,*6A
$IIHDM,068,M*32
$IIRMC,114013,A,4039.606,N,01757.843,E,000.2,311.0,050709,000.0,E*68
$IIMWV,170.0,R,012.2,N,A*3A
$IIVHW,,,068,M,00.000,N,,*6A
$IIHDM,068,M*32
$IIRMC,114014,A,4039.606,N,01757.843,E,000.2,311.0,050709,000.0,E*6F
$IIMWV,170.0,R,012.2,N,A*3A
$IIVHW,,,068,M,00.000,N,,*6A
$IIHDM,068,M*32
$IIRMC,114015,A,4039.606,N,01757.843,E,000.2,311.0,050709,000.0,E*6E
$IIMWV,170.0,R,012.2,N,A*3A
$IIVHW,,,068,M,00.000,N,,*6A
$IIHDM,068,M*32
$IIRMC,114016,A,4039.606,N,01757.843,E,000.2,311.0,050709,000.0,E*6D
$IIMWV,170.0,R,012.2,N,A*3A
$IIVHW,,,068,M,00.000,N,,*6A
$IIHDM,068,M*32
$IIRMC,114017,A,4039.606,N,01757.843,E,000.2,311.0,050709,000.0,E*6C
$IIMWV,170.0,R,012.2,N,A*3A
$IIVHW,,,068,M,00.000,N,,*6A
$IIHDM,068,M*32
$IIRMC,114018,A,4039.606,N,01757.843,E,000.2,311.0,050709,000.0,E*63
$IIMWV,170.0,R,012.2,N,A*3A
$IIVHW,,,068,M,00.000,N,,*6A
$IIHDM,068,M*32
$IIRMC,114019,A,4039.606,N,01757.843,E,000.2,311.0,050709,000.0,E*62
$IIMWV,170.0,R,012.2,N,A*3A
$IIVHW,,,068,M,00.000,N,,*6A
$IIHDM,068,M*32
$IIRMC,114020,A,4039.606,N,01757.843,E,000.2,311.0,050709,000.0,E*68
$IIMWV,170.0,R,012.2,N,A*3A
$IIVHW,,,068,M,00.000,N,,*6A
$IIHDM,068,M*32
$IIRMC,114021,A,4039.606,N,01757.843,E,000.2,311.0,050709,000.0,E*69
$IIMWV,170.0,R,012.2,N,A*3A
$IIVHW,,,068,M,00.000,N,,*6A
$IIHDM,068,M*32
$IIRMC,114022,A,4039.606,N,01757.843,E,000.2,311.0,050709,000.0,E*6A
$IIMWV,170.0,R,012.2,N,A*3A
$IIVHW,,,068,M,00.000,N,,*6A
$IIHDM,068,M*32
$IIRMC,114023,A,4039.606,N,01757.843,E,000.2,311.0,050709,000.0,E*6B
$IIMWV,170.0,R,012.2,N,A*3A
$IIVHW,,,068,M,00.000,N,,*6A
$IIHDM,068,M*32
$IIRMC,114024,A,4039.606,N,01757.843,E,000.2,311.0,050709,000.0,E*6C
$IIMWV,170.0,R,012.2,N,A*3A
$IIVHW,,,068,M,00.000,N,,*6A
$IIHDM,068,M*32
$IIRMC,114025,A,4039.606,N,01757.843,E,000.2,311.0,050709,000.0,E*6D
$IIMWV,170.0,R,012.2,N,A*3A
$IIVHW,,,068,M,00.000,N,,*6A
$IIHDM,068,M*32
$IIRMC,114026,A,4039.606,N,01757.843,E,000.2,311.0,050709,000.0,E*6E
$IIMWV,170.0,R,012.2,N,A*3A
$IIVHW,,,068,M,00.000,N,,*6A
$IIHDM,068,M*32
$IIRMC,114027,A,4039.606,N,01757.843,E,000.2,311.0,050709,000.0,E*6F
$IIMWV,170.0,R,012.2,N,A*3A
$IIVHW,,,068,M,00.000,N,,*6A
$IIHDM,068,M*32
$IIRMC,114028,A,4039.606,N,01757.843,E,000.2,311.0,050709,000.0,E*60
$IIMWV,170.0,R,012.2,N,A*3A
$IIVHW,,,068,M,00.000,N,,*6A
$IIHDM,068,M*32
$IIRMC,114029,A,4039.606,N,01757.843,E,000.2,311.0,050709,000.0,E*61
$IIMWV,170.0,R,012.2,N,A*3A
$IIVHW,,,068,M,00.000,N,,*6A
$IIHDM,068,M*32
$IIRMC,114030,A,4039.606,N,01757.843,E,000.2,311.0,050709,000.0,E*69
$IIMWV,170.0,R,012.2,N,A*3A
$IIVHW,,,068,M,00.000,N,,*6A
$IIHDM,068,M*32
$IIRMC,114031,A,4039.606,N,01757.843,E,000.2,311.0,050709,000.0,E*68
$IIMWV,170.0,R,012.2,N,A*3A
$IIVHW,,,068,M,00.000,N,,*6A
$IIHDM,068,M*32
$IIRMC,114032,A,4039.606,N,01757.843,E,000.2,311.0,050709,000.0,E*6B
$IIMWV,170.0,R,012.2,N,A*3A
$IIVHW,,,068,M,00.000,N,,*6A
$IIHDM,068,M*32
$IIRMC,114033,A,4039.606,N,01757.843,E,000.2,311.0,050709,000.0,E*6A
$IIMWV,170.0,R,012.2,N,A*3A
$IIVHW,,,068,M,00.000,N,,*6A
$IIHDM,068,M*32
$IIRMC,114034,A,4039.606,N,01757.843,E,000.2,311.0,050709,000.0,E*6D
$IIMWV,170.0,R,012.2,N,A*3A
$IIVHW,,,068,M,00.000,N,,*6A
$IIHDM,068,M*32
$IIRMC,114035,A,4039.606,N,01757.843,E,000.2,311.0,050709,000.0,E*6C
$IIMWV,170.0,R,012.2,N,A*3A
$IIVHW,,,068,M,00.000,N,,*6A
$IIHDM,068,M*32
$IIRMC,114036,A,4039.606,N,01757.843,E,000.2,311.0,050709,000.0,E*6F
$IIMWV,170.0,R,012.2,N,A*3A
$IIVHW,,,068,M,00.000,N,,*6A
$IIHDM,068,M*32
$IIRMC,114037,A,4039.606,N,01757.843,E,000.2,311.0,050709,000.0,E*6E
$IIMWV,170.0,R,012.2,N,A*3A
$IIVHW,,,068,M,00.000,N,,*6A
$IIHDM,068,M*32
$IIRMC,114038,A,4039.606,N,01757.843,E,000.2,311.0,050709,000.0,E*61
$IIMWV,170.0,R,012.2,N,A*3A
$IIVHW,,,068,M,00.000,N,,*6A
$IIHDM,068,M*32
$IIRMC,114039,A,4039.606,N,01757.843,E,000.2,311.0,050709,000.0,E*60
$IIMWV,170.0,R,012.2,N,A*3A
$IIVHW,,,068,M,00.000,N,,*6A
$IIHDM,068,M*32
$IIRMC,114217,A,4039.374,N,01757.921,E,006.8,000.0,050709,000.0,E*64
$IIMWV,132.0,R,006.9,N,A*32
$IIVHW,,,176,M,06.550,N,,*62
$IIHDM,176,M*3C
$IIRMC,114218,A,4039.371,N,01757.921,E,006.7,000.0,050709,000.0,E*61
$IIMWV,132.0,R,007.0,N,A*3A
$IIVHW,,,176,M,06.540,N,,*63
$IIHDM,176,M*3C
$IIRMC,114219,A,4039.371,N,01757.921,E,006.7,000.0,050709,000.0,E*60
$IIMWV,134.0,R,007.0,N,A*3C
$IIVHW,,,174,M,06.550,N,,*60
$IIHDM,174,M*3E
$IIRMC,114220,A,4039.367,N,01757.921,E,007.0,000.0,050709,000.0,E*6B
$IIMWV,137.0,R,006.5,N,A*3B
$IIVHW,,,172,M,06.560,N,,*65
$IIHDM,172,M*38
$IIRMC,114221,A,4039.367,N,01757.921,E,007.0,000.0,050709,000.0,E*6A
$IIMWV,140.0,R,006.5,N,A*3B
$IIVHW,,,172,M,06.590,N,,*6A
$IIHDM,172,M*38
$IIRMC,114222,A,4039.363,N,01757.921,E,006.9,000.0,050709,000.0,E*65
$IIMWV,143.0,R,006.2,N,A*3F
$IIVHW,,,172,M,06.570,N,,*64
$IIHDM,172,M*38
$IIRMC,114223,A,4039.363,N,01757.921,E,006.9,000.0,050709,000.0,E*64
$IIMWV,145.0,R,006.2,N,A*39
$IIVHW,,,170,M,06.550,N,,*64
$IIHDM,170,M*3A
$IIRMC,114224,A,4039.359,N,01757.922,E,007.0,000.0,050709,000.0,E*61
$IIMWV,146.0,R,006.0,N,A*38
$IIVHW,,,168,M,06.500,N,,*68
$IIHDM,168,M*33
$IIRMC,114225,A,4039.359,N,01757.922,E,007.0,000.0,050709,000.0,E*60
$IIMWV,149.0,R,006.0,N,A*37
$IIVHW,,,168,M,06.520,N,,*6A
$IIHDM,168,M*33
$IIRMC,114226,A,4039.355,N,01757.922,E,007.5,000.0,050709,000.0,E*6A
$IIMWV,151.0,R,005.7,N,A*3A
$IIVHW,,,168,M,06.510,N,,*69
$IIHDM,168,M*33
$IIRMC,114227,A,4039.351,N,01757.923,E,007.5,000.0,050709,000.0,E*6E
$IIMWV,152.0,R,005.7,N,A*39
$IIVHW,,,167,M,06.540,N,,*63
$IIHDM,167,M*3C
$IIRMC,114228,A,4039.351,N,01757.923,E,007.1,000.0,050709,000.0,E*65
$IIMWV,152.0,R,005.7,N,A*39
$IIVHW,,,167,M,06.550,N,,*62
$IIHDM,167,M*3C
$IIRMC,114229,A,4039.347,N,01757.923,E,007.1,000.0,050709,000.0,E*63
$IIMWV,154.0,R,005.7,N,A*3F
$IIVHW,,,167,M,06.500,N,,*67
$IIHDM,167,M*3C
$IIRMC,114230,A,4039.347,N,01757.923,E,007.1,000.0,050709,000.0,E*6B
$IIMWV,155.0,R,005.7,N,A*3E
$IIVHW,,,167,M,06.490,N,,*6F
$IIHDM,167,M*3C
$IIRMC,114231,A,4039.347,N,01757.923,E,007.1,000.0,050709,000.0,E*6A
$IIMWV,155.0,R,005.6,N,A*3F
$IIVHW,,,166,M,06.470,N,,*60
$IIHDM,166,M*3D
$IIRMC,114232,A,4039.342,N,01757.924,E,007.1,000.0,050709,000.0,E*6B
$IIMWV,157.0,R,005.6,N,A*3D
$IIVHW,,,166,M,06.470,N,,*60
$IIHDM,166,M*3D
$IIRMC,114233,A,4039.342,N,01757.924,E,007.0,000.0,050709,000.0,E*6B
$IIMWV,157.0,R,005.3,N,A*38
$IIVHW,,,165,M,06.450,N,,*61
$IIHDM,165,M*3E
$IIRMC,114234,A,4039.339,N,01757.925,E,007.0,000.0,050709,000.0,E*61
$IIMWV,157.0,R,005.3,N,A*38
$IIVHW,,,165,M,06.460,N,,*62
$IIHDM,165,M*3E
$IIRMC,114235,A,4039.339,N,01757.925,E,007.0,000.0,050709,000.0,E*60
$IIMWV,156.0,R,005.0,N,A*3A
$IIVHW,,,164,M,06.460,N,,*63
$IIHDM,164,M*3F
$IIRMC,114236,A,4039.336,N,01757.927,E,007.0,000.0,050709,000.0,E*6E
$IIMWV,158.0,R,004.8,N,A*3D
$IIVHW,,,164,M,06.460,N,,*63
$IIHDM,164,M*3F
$IIRMC,114237,A,4039.336,N,01757.927,E,007.0,000.0,050709,000.0,E*6F
$IIMWV,160.0,R,004.8,N,A*36
$IIVHW,,,164,M,06.490,N,,*6C
$IIHDM,164,M*3F
$IIRMC,114238,A,4039.333,N,01757.928,E,007.0,000.0,050709,000.0,E*6A
$IIMWV,157.0,R,004.9,N,A*33
$IIVHW,,,164,M,06.540,N,,*60
$IIHDM,164,M*3F
$IIRMC,114241,A,4039.328,N,01757.929,E,007.0,000.0,050709,000.0,E*6F
$IIMWV,157.0,R,004.9,N,A*33
$IIVHW,,,163,M,06.560,N,,*65
$IIHDM,163,M*38
$IIRMC,114242,A,4039.324,N,01757.930,E,007.1,000.0,050709,000.0,E*69
$IIMWV,157.0,R,005.2,N,A*39
$IIVHW,,,163,M,06.550,N,,*66
$IIHDM,163,M*38
$IIRMC,114243,A,4039.324,N,01757.930,E,007.1,000.0,050709,000.0,E*68
$IIMWV,158.0,R,005.3,N,A*37
$IIVHW,,,163,M,06.560,N,,*65
$IIHDM,163,M*38
$IIRMC,114244,A,4039.320,N,01757.932,E,007.1,000.0,050709,000.0,E*69
$IIMWV,158.0,R,005.3,N,A*37
$IIVHW,,,163,M,06.550,N,,*66
$IIHDM,163,M*38
$IIRMC,114245,A,4039.317,N,01757.933,E,007.0,000.0,050709,000.0,E*6C
$IIMWV,159.0,R,005.3,N,A*36
$IIVHW,,,163,M,06.560,N,,*65
$IIHDM,163,M*38
$IIRMC,114246,A,4039.317,N,01757.933,E,007.0,000.0,050709,000.0,E*6F
$IIMWV,159.0,R,005.3,N,A*36
$IIVHW,,,163,M,06.550,N,,*66
$IIHDM,163,M*38
$IIRMC,114247,A,4039.317,N,01757.933,E,007.0,000.0,050709,000.0,E*6E
$IIMWV,159.0,R,005.4,N,A*31
$IIVHW,,,163,M,06.530,N,,*60
$IIHDM,163,M*38
$IIRMC,114248,A,4039.311,N,01757.934,E,007.0,000.0,050709,000.0,E*60
$IIMWV,158.0,R,005.4,N,A*30
$IIVHW,,,163,M,06.480,N,,*6A
$IIHDM,163,M*38
$IIRMC,114249,A,4039.311,N,01757.934,E,006.9,000.0,050709,000.0,E*69
$IIMWV,158.0,R,005.0,N,A*34
$IIVHW,,,163,M,06.490,N,,*6B
$IIHDM,163,M*38
$IIRMC,114250,A,4039.307,N,01757.935,E,006.9,000.0,050709,000.0,E*67
$IIMWV,161.0,R,005.0,N,A*3E
$IIVHW,,,163,M,06.500,N,,*63
$IIHDM,163,M*38
$IIRMC,114251,A,4039.307,N,01757.935,E,006.9,000.0,050709,000.0,E*66
$IIMWV,165.0,R,004.8,N,A*33
$IIVHW,,,163,M,06.470,N,,*65
$IIHDM,163,M*38
$IIRMC,114252,A,4039.303,N,01757.936,E,006.9,000.0,050709,000.0,E*62
$IIMWV,166.0,R,004.8,N,A*30
$IIVHW,,,163,M,06.490,N,,*6B
$IIHDM,163,M*38
$IIRMC,114253,A,4039.303,N,01757.936,E,006.9,000.0,050709,000.0,E*63
$IIMWV,167.0,R,004.4,N,A*3D
$IIVHW,,,163,M,06.490,N,,*6B
$IIHDM,163,M*38
$IIRMC,114254,A,4039.299,N,01757.937,E,006.9,000.0,050709,000.0,E*67
$IIMWV,166.0,R,004.4,N,A*3C
$IIVHW,,,163,M,06.480,N,,*6A
$IIHDM,163,M*38
$IIRMC,114255,A,4039.299,N,01757.937,E,006.9,000.0,050709,000.0,E*66
$IIMWV,168.0,R,004.7,N,A*31
$IIVHW,,,163,M,06.480,N,,*6A
$IIHDM,163,M*38
$IIRMC,114256,A,4039.295,N,01757.938,E,006.9,000.0,050709,000.0,E*66
$IIMWV,168.0,R,004.7,N,A*31
$IIVHW,,,163,M,06.460,N,,*64
$IIHDM,163,M*38
$IIRMC,114257,A,4039.295,N,01757.938,E,007.0,000.0,050709,000.0,E*6F
$IIMWV,168.0,R,004.8,N,A*3E
$IIVHW,,,163,M,06.440,N,,*66
$IIHDM,163,M*38
$IIRMC,114258,A,4039.291,N,01757.940,E,007.0,000.0,050709,000.0,E*6B
$IIMWV,168.0,R,004.8,N,A*3E
$IIVHW,,,163,M,06.450,N,,*67
$IIHDM,163,M*38
$IIRMC,114259,A,4039.291,N,01757.940,E,006.9,000.0,050709,000.0,E*62
$IIMWV,170.0,R,005.2,N,A*3C
$IIVHW,,,162,M,06.460,N,,*65
$IIHDM,162,M*39
$IIRMC,114300,A,4039.287,N,01757.941,E,006.9,000.0,050709,000.0,E*69
$IIMWV,171.0,R,005.2,N,A*3D
$IIVHW,,,162,M,06.480,N,,*6B
$IIHDM,162,M*39
$IIRMC,114301,A,4039.287,N,01757.941,E,007.0,000.0,050709,000.0,E*60
$IIMWV,172.0,R,005.6,N,A*3A
$IIVHW,,,161,M,06.480,N,,*68
$IIHDM,161,M*3A
$IIRMC,114302,A,4039.283,N,01757.942,E,007.0,000.0,050709,000.0,E*64
$IIMWV,172.0,R,005.6,N,A*3A
$IIVHW,,,161,M,06.520,N,,*63
$IIHDM,161,M*3A
$IIRMC,114303,A,4039.283,N,01757.942,E,007.0,000.0,050709,000.0,E*65
$IIMWV,170.0,R,005.2,N,A*3C
$IIVHW,,,160,M,06.500,N,,*60
$IIHDM,160,M*3B
$IIRMC,114304,A,4039.279,N,01757.944,E,007.0,000.0,050709,000.0,E*61
$IIMWV,173.0,R,005.2,N,A*3F
$IIVHW,,,160,M,06.530,N,,*63
$IIHDM,160,M*3B
$IIRMC,114305,A,4039.279,N,01757.944,E,007.0,000.0,050709,000.0,E*60
$IIMWV,176.0,R,004.5,N,A*3C
$IIVHW,,,159,M,06.590,N,,*63
$IIHDM,159,M*31
$IIRMC,114306,A,4039.276,N,01757.946,E,007.0,000.0,050709,000.0,E*6E
$IIMWV,176.0,R,004.5,N,A*3C
$IIVHW,,,159,M,06.590,N,,*63
$IIHDM,159,M*31
$IIRMC,114307,A,4039.276,N,01757.946,E,006.8,000.0,050709,000.0,E*66
$IIMWV,-179.0,R,004.9,N,A*12
$IIVHW,,,158,M,06.600,N,,*68
$IIHDM,158,M*30
$IIRMC,114308,A,4039.272,N,01757.947,E,006.8,000.0,050709,000.0,E*6C
$IIMWV,-179.0,R,004.9,N,A*12
$IIVHW,,,158,M,06.620,N,,*6A
$IIHDM,158,M*30
$IIRMC,114309,A,4039.272,N,01757.947,E,006.9,000.0,050709,000.0,E*6C
$IIMWV,-176.0,R,004.6,N,A*12
$IIVHW,,,157,M,06.610,N,,*66
$IIHDM,157,M*3F
$IIRMC,114310,A,4039.268,N,01757.949,E,006.9,000.0,050709,000.0,E*61
$IIMWV,-175.0,R,004.6,N,A*11
$IIVHW,,,157,M,06.610,N,,*66
$IIHDM,157,M*3F
$IIRMC,114311,A,4039.268,N,01757.949,E,007.1,000.0,050709,000.0,E*69
$IIMWV,-175.0,R,004.4,N,A*13
$IIVHW,,,157,M,06.620,N,,*65
$IIHDM,157,M*3F
$IIRMC,114312,A,4039.264,N,01757.950,E,007.1,000.0,050709,000.0,E*6E
$IIMWV,-175.0,R,004.4,N,A*13
$IIVHW,,,157,M,06.610,N,,*66
$IIHDM,157,M*3F
$IIRMC,114313,A,4039.264,N,01757.950,E,006.7,000.0,050709,000.0,E*68
$IIMWV,-156.0,R,004.4,N,A*12
$IIVHW,,,156,M,06.600,N,,*66
$IIHDM,156,M*3E
$IIRMC,114314,A,4039.261,N,01757.952,E,006.9,000.0,050709,000.0,E*66
$IIMWV,-156.0,R,004.4,N,A*12
$IIVHW,,,156,M,06.550,N,,*60
$IIHDM,156,M*3E
$IIRMC,114315,A,4039.261,N,01757.952,E,006.9,000.0,050709,000.0,E*67
$IIMWV,-161.0,R,004.0,N,A*12
$IIVHW,,,156,M,06.570,N,,*62
$IIHDM,156,M*3E
$IIRMC,114316,A,4039.257,N,01757.955,E,006.9,000.0,050709,000.0,E*66
$IIMWV,-167.0,R,004.1,N,A*15
$IIVHW,,,156,M,06.570,N,,*62
$IIHDM,156,M*3E
$IIRMC,114317,A,4039.257,N,01757.955,E,006.9,000.0,050709,000.0,E*67
$IIMWV,-170.0,R,004.1,N,A*13
$IIVHW,,,155,M,06.590,N,,*6F
$IIHDM,155,M*3D
$IIRMC,114318,A,4039.253,N,01757.956,E,006.8,000.0,050709,000.0,E*6E
$IIMWV,-170.0,R,004.1,N,A*13
$IIVHW,,,154,M,06.570,N,,*60
$IIHDM,154,M*3C
$IIRMC,114516,A,4039.253,N,01757.956,E,006.8,000.0,050709,000.0,E*66
$IIMWV,-170.0,R,004.1,N,A*13
$IIVHW,,,154,M,06.570,N,,*60
$IIHDM,154,M*3C
$IIRMC,114517,A,4039.253,N,01757.956,E,006.8,000.0,050709,000.0,E*67
$IIMWV,-170.0,R,004.1,N,A*13
$IIVHW,,,154,M,06.570,N,,*60
$IIHDM,154,M*3C
$IIRMC,114518,A,4039.253,N,01757.956,E,006.8,000.0,050709,000.0,E*68
$IIMWV,-170.0,R,004.1,N,A*13
$IIVHW,,,154,M,06.570,N,,*60
$IIHDM,154,M*3C
$IIRMC,114519,A,4039.143,N,01758.176,E,005.4,000.0,050709,000.0,E*61
$IIMWV,-062.0,R,011.6,N,A*12
$IIVHW,,,071,M,05.430,N,,*60
$IIHDM,071,M*3A
$IIRMC,114520,A,4039.143,N,01758.176,E,005.4,000.0,050709,000.0,E*6B
$IIMWV,-065.0,R,011.6,N,A*15
$IIVHW,,,071,M,05.310,N,,*65
$IIHDM,071,M*3A
$IIRMC,114521,A,4039.144,N,01758.180,E,005.2,000.0,050709,000.0,E*62
$IIMWV,-070.0,R,010.2,N,A*14
$IIVHW,,,071,M,05.230,N,,*66
$IIHDM,071,M*3A
$IIRMC,114522,A,4039.144,N,01758.180,E,005.2,000.0,050709,000.0,E*61
$IIMWV,-070.0,R,010.2,N,A*14
$IIVHW,,,071,M,05.050,N,,*62
$IIHDM,071,M*3A
$IIRMC,114523,A,4039.145,N,01758.183,E,005.0,000.0,050709,000.0,E*60
$IIMWV,-067.0,R,010.1,N,A*11
$IIVHW,,,071,M,04.970,N,,*68
$IIHDM,071,M*3A
$IIRMC,114524,A,4039.145,N,01758.183,E,005.0,000.0,050709,000.0,E*67
$IIMWV,-067.0,R,010.1,N,A*11
$IIVHW,,,070,M,04.870,N,,*68
$IIHDM,070,M*3B
$IIRMC,114525,A,4039.146,N,01758.185,E,005.0,000.0,050709,000.0,E*63
$IIMWV,-067.0,R,010.1,N,A*11
$IIVHW,,,070,M,04.800,N,,*6F
$IIHDM,070,M*3B
$IIRMC,114526,A,4039.146,N,01758.185,E,004.4,000.0,050709,000.0,E*65
$IIMWV,-063.0,R,009.9,N,A*15
$IIVHW,,,070,M,04.700,N,,*60
$IIHDM,070,M*3B
$IIRMC,114527,A,4039.147,N,01758.188,E,004.9,000.0,050709,000.0,E*65
$IIMWV,-060.0,R,008.3,N,A*1D
$IIVHW,,,070,M,04.560,N,,*64
$IIHDM,070,M*3B
$IIRMC,114528,A,4039.147,N,01758.188,E,004.9,000.0,050709,000.0,E*6A
$IIMWV,-060.0,R,008.3,N,A*1D
$IIVHW,,,068,M,04.460,N,,*6C
$IIHDM,068,M*32
$IIRMC,114529,A,4039.148,N,01758.191,E,004.6,000.0,050709,000.0,E*63
$IIMWV,-059.0,R,009.9,N,A*1C
$IIVHW,,,068,M,04.360,N,,*6B
$IIHDM,068,M*32
$IIRMC,114530,A,4039.150,N,01758.194,E,004.6,000.0,050709,000.0,E*67
$IIMWV,-059.0,R,009.9,N,A*1C
$IIVHW,,,067,M,04.300,N,,*62
$IIHDM,067,M*3D
$IIRMC,114531,A,4039.150,N,01758.194,E,004.3,000.0,050709,000.0,E*63
$IIMWV,-061.0,R,010.1,N,A*17
$IIVHW,,,064,M,04.300,N,,*61
$IIHDM,064,M*3E
$IIRMC,114532,A,4039.150,N,01758.194,E,004.3,000.0,050709,000.0,E*60
$IIMWV,-061.0,R,010.1,N,A*17
$IIVHW,,,064,M,04.350,N,,*64
$IIHDM,064,M*3E
$IIRMC,114533,A,4039.153,N,01758.198,E,005.0,000.0,050709,000.0,E*6C
$IIMWV,-061.0,R,009.8,N,A*16
$IIVHW,,,063,M,04.530,N,,*63
$IIHDM,063,M*39
$IIRMC,114534,A,4039.153,N,01758.198,E,005.2,000.0,050709,000.0,E*69
$IIMWV,-060.0,R,009.8,N,A*17
$IIVHW,,,063,M,04.650,N,,*66
$IIHDM,063,M*39
$IIRMC,114535,A,4039.156,N,01758.201,E,005.2,000.0,050709,000.0,E*6E
$IIMWV,-054.0,R,009.9,N,A*11
$IIVHW,,,054,M,04.860,N,,*6F
$IIHDM,054,M*3D
$IIRMC,114536,A,4039.158,N,01758.203,E,005.9,000.0,050709,000.0,E*6A
$IIMWV,-049.0,R,011.4,N,A*19
$IIVHW,,,047,M,05.160,N,,*65
$IIHDM,047,M*3F
$IIRMC,114537,A,4039.158,N,01758.203,E,005.9,000.0,050709,000.0,E*6B
$IIMWV,-047.0,R,011.4,N,A*17
$IIVHW,,,047,M,05.340,N,,*65
$IIHDM,047,M*3F
$IIRMC,114538,A,4039.158,N,01758.203,E,006.3,000.0,050709,000.0,E*6D
$IIMWV,-043.0,R,012.1,N,A*15
$IIVHW,,,042,M,05.480,N,,*6B
$IIHDM,042,M*3A
$IIRMC,114539,A,4039.160,N,01758.204,E,006.3,000.0,050709,000.0,E*60
$IIMWV,-042.0,R,012.1,N,A*14
$IIVHW,,,042,M,05.660,N,,*67
$IIHDM,042,M*3A
$IIRMC,114540,A,4039.160,N,01758.204,E,006.5,000.0,050709,000.0,E*68
$IIMWV,-039.0,R,013.0,N,A*18
$IIVHW,,,032,M,05.880,N,,*60
$IIHDM,032,M*3D
$IIRMC,114541,A,4039.166,N,01758.205,E,006.5,000.0,050709,000.0,E*6E
$IIMWV,-035.0,R,013.0,N,A*14
$IIVHW,,,032,M,06.200,N,,*61
$IIHDM,032,M*3D
$IIRMC,114542,A,4039.166,N,01758.205,E,006.7,000.0,050709,000.0,E*6F
$IIMWV,-033.0,R,014.4,N,A*11
$IIVHW,,,026,M,06.200,N,,*64
$IIHDM,026,M*38
$IIRMC,114543,A,4039.168,N,01758.206,E,006.7,000.0,050709,000.0,E*63
$IIMWV,-030.0,R,014.4,N,A*12
$IIVHW,,,026,M,06.480,N,,*6A
$IIHDM,026,M*38
$IIRMC,114544,A,4039.168,N,01758.206,E,007.3,000.0,050709,000.0,E*61
$IIMWV,-028.0,R,017.7,N,A*1B
$IIVHW,,,020,M,06.720,N,,*65
$IIHDM,020,M*3E
$IIRMC,114545,A,4039.174,N,01758.206,E,007.5,000.0,050709,000.0,E*6B
$IIMWV,-028.0,R,017.7,N,A*1B
$IIVHW,,,020,M,06.720,N,,*65
$IIHDM,020,M*3E
$IIRMC,114546,A,4039.174,N,01758.206,E,007.5,000.0,050709,000.0,E*68
$IIMWV,-028.0,R,017.8,N,A*14
$IIVHW,,,015,M,06.900,N,,*6F
$IIHDM,015,M*38
$IIRMC,114547,A,4039.178,N,01758.208,E,007.6,000.0,050709,000.0,E*68
$IIMWV,-027.0,R,017.8,N,A*1B
$IIVHW,,,015,M,06.980,N,,*67
$IIHDM,015,M*38
$IIRMC,114548,A,4039.178,N,01758.208,E,007.6,000.0,050709,000.0,E*67
$IIMWV,-023.0,R,019.8,N,A*11
$IIVHW,,,009,M,07.070,N,,*6D
$IIHDM,009,M*35
$IIRMC,114549,A,4039.183,N,01758.208,E,007.6,000.0,050709,000.0,E*62
$IIMWV,-022.0,R,020.2,N,A*10
$IIVHW,,,006,M,07.080,N,,*6D
$IIHDM,006,M*3A
$IIRMC,114550,A,4039.183,N,01758.208,E,007.6,000.0,050709,000.0,E*6A
$IIMWV,-022.0,R,020.2,N,A*10
$IIVHW,,,006,M,07.050,N,,*60
$IIHDM,006,M*3A
$IIRMC,114551,A,4039.187,N,01758.207,E,007.7,000.0,050709,000.0,E*61
$IIMWV,-019.0,R,020.1,N,A*1B
$IIVHW,,,001,M,07.020,N,,*60
$IIHDM,001,M*3D
$IIRMC,114552,A,4039.187,N,01758.207,E,006.9,000.0,050709,000.0,E*6D
$IIMWV,-019.0,R,020.1,N,A*1B
$IIVHW,,,001,M,06.870,N,,*6C
$IIHDM,001,M*3D
$IIRMC,114553,A,4039.190,N,01758.206,E,006.9,000.0,050709,000.0,E*6B
$IIMWV,-020.0,R,019.4,N,A*1E
$IIVHW,,,357,M,06.790,N,,*6D
$IIHDM,357,M*3D
$IIRMC,114554,A,4039.190,N,01758.206,E,006.9,000.0,050709,000.0,E*6C
$IIMWV,-019.0,R,019.4,N,A*14
$IIVHW,,,357,M,06.690,N,,*6C
$IIHDM,357,M*3D
$IIRMC,114555,A,4039.192,N,01758.206,E,006.9,000.0,050709,000.0,E*6F
$IIMWV,-016.0,R,019.4,N,A*1B
$IIVHW,,,357,M,06.670,N,,*62
$IIHDM,357,M*3D
$IIRMC,114556,A,4039.192,N,01758.206,E,006.8,000.0,050709,000.0,E*6D
$IIMWV,-016.0,R,017.5,N,A*14
$IIVHW,,,350,M,06.470,N,,*67
$IIHDM,350,M*3A
$IIRMC,114557,A,4039.198,N,01758.204,E,006.3,000.0,050709,000.0,E*6F
$IIMWV,-015.0,R,017.5,N,A*17
$IIVHW,,,350,M,06.310,N,,*66
$IIHDM,350,M*3A
$IIRMC,114558,A,4039.198,N,01758.204,E,006.3,000.0,050709,000.0,E*60
$IIMWV,-011.0,R,017.7,N,A*11
$IIVHW,,,347,M,06.210,N,,*61
$IIHDM,347,M*3C
$IIRMC,114559,A,4039.201,N,01758.202,E,006.1,000.0,050709,000.0,E*66
$IIMWV,-011.0,R,017.2,N,A*14
$IIVHW,,,344,M,06.040,N,,*65
$IIHDM,344,M*3F
$IIRMC,114600,A,4039.201,N,01758.202,E,006.1,000.0,050709,000.0,E*69
$IIMWV,-013.0,R,017.2,N,A*16
$IIVHW,,,344,M,05.880,N,,*62
$IIHDM,344,M*3F
$IIRMC,114601,A,4039.203,N,01758.201,E,005.1,000.0,050709,000.0,E*6A
$IIMWV,-013.0,R,017.6,N,A*12
$IIVHW,,,343,M,05.830,N,,*6E
$IIHDM,343,M*38
$IIRMC,114602,A,4039.205,N,01758.201,E,005.2,000.0,050709,000.0,E*6C
$IIMWV,-011.0,R,016.4,N,A*13
$IIVHW,,,343,M,05.530,N,,*63
$IIHDM,343,M*38
$IIRMC,114607,A,4039.211,N,01758.198,E,004.8,000.0,050709,000.0,E*64
$IIMWV,-010.0,R,016.8,N,A*1E
$IIVHW,,,343,M,04.890,N,,*65
$IIHDM,343,M*38
$IIRMC,114608,A,4039.211,N,01758.198,E,004.8,000.0,050709,000.0,E*6B
$IIMWV,-012.0,R,016.8,N,A*1C
$IIVHW,,,343,M,04.800,N,,*6C
$IIHDM,343,M*38
$IIRMC,114609,A,4039.212,N,01758.198,E,004.6,000.0,050709,000.0,E*67
$IIMWV,-012.0,R,016.8,N,A*1C
$IIVHW,,,343,M,04.770,N,,*64
$IIHDM,343,M*38
$IIRMC,114610,A,4039.212,N,01758.198,E,004.2,000.0,050709,000.0,E*6B
$IIMWV,-010.0,R,015.4,N,A*11
$IIVHW,,,342,M,04.520,N,,*62
$IIHDM,342,M*39
$IIRMC,114611,A,4039.215,N,01758.197,E,004.5,000.0,050709,000.0,E*65
$IIMWV,-010.0,R,015.4,N,A*11
$IIVHW,,,342,M,04.420,N,,*63
$IIHDM,342,M*39
$IIRMC,114612,A,4039.215,N,01758.197,E,004.5,000.0,050709,000.0,E*66
$IIMWV,-011.0,R,015.9,N,A*1D
$IIVHW,,,343,M,04.270,N,,*61
$IIHDM,343,M*38
$IIRMC,114613,A,4039.217,N,01758.196,E,004.2,000.0,050709,000.0,E*63
$IIMWV,-010.0,R,015.9,N,A*1C
$IIVHW,,,343,M,04.110,N,,*64
$IIHDM,343,M*38
$IIRMC,114614,A,4039.217,N,01758.196,E,004.2,000.0,050709,000.0,E*64
$IIMWV,-011.0,R,015.6,N,A*12
$IIVHW,,,343,M,04.020,N,,*66
$IIHDM,343,M*38
$IIRMC,114615,A,4039.219,N,01758.196,E,004.0,000.0,050709,000.0,E*69
$IIMWV,-011.0,R,015.5,N,A*11
$IIVHW,,,344,M,03.930,N,,*6E
$IIHDM,344,M*3F
$IIRMC,114616,A,4039.219,N,01758.196,E,004.0,000.0,050709,000.0,E*6A
$IIMWV,-011.0,R,015.5,N,A*11
$IIVHW,,,344,M,03.850,N,,*69
$IIHDM,344,M*3F
$IIRMC,114617,A,4039.220,N,01758.195,E,004.0,000.0,050709,000.0,E*62
$IIMWV,-011.0,R,015.5,N,A*11
$IIVHW,,,344,M,03.750,N,,*66
$IIHDM,344,M*3F
$IIRMC,114618,A,4039.220,N,01758.195,E,003.7,000.0,050709,000.0,E*6D
$IIMWV,-010.0,R,014.5,N,A*11
$IIVHW,,,344,M,03.600,N,,*62
$IIHDM,344,M*3F
$IIRMC,114619,A,4039.223,N,01758.194,E,003.7,000.0,050709,000.0,E*6E
$IIMWV,-011.0,R,014.5,N,A*10
$IIVHW,,,344,M,03.520,N,,*63
$IIHDM,344,M*3F
$IIRMC,114620,A,4039.223,N,01758.194,E,003.5,000.0,050709,000.0,E*66
$IIMWV,-010.0,R,014.4,N,A*10
$IIVHW,,,344,M,03.440,N,,*64
$IIHDM,344,M*3F
$IIRMC,114621,A,4039.225,N,01758.193,E,003.4,000.0,050709,000.0,E*67
$IIMWV,-009.0,R,014.9,N,A*15
$IIVHW,,,344,M,03.390,N,,*6E
$IIHDM,344,M*3F
$IIRMC,114622,A,4039.225,N,01758.193,E,003.4,000.0,050709,000.0,E*64
$IIMWV,-009.0,R,014.9,N,A*15
$IIVHW,,,344,M,03.260,N,,*60
$IIHDM,344,M*3F
$IIRMC,114623,A,4039.227,N,01758.193,E,003.2,000.0,050709,000.0,E*61
$IIMWV,-009.0,R,014.4,N,A*18
$IIVHW,,,344,M,03.160,N,,*63
$IIHDM,344,M*3F
$IIRMC,114624,A,4039.227,N,01758.192,E,003.1,000.0,050709,000.0,E*64
$IIMWV,-009.0,R,014.5,N,A*19
$IIVHW,,,344,M,03.110,N,,*64
$IIHDM,344,M*3F
$IIRMC,114625,A,4039.227,N,01758.192,E,003.1,000.0,050709,000.0,E*65
$IIMWV,-008.0,R,014.5,N,A*18
$IIVHW,,,344,M,02.960,N,,*6A
$IIHDM,344,M*3F
$IIRMC,114626,A,4039.229,N,01758.191,E,003.1,000.0,050709,000.0,E*6B
$IIMWV,-008.0,R,014.5,N,A*18
$IIVHW,,,344,M,02.930,N,,*6F
$IIHDM,344,M*3F
$IIRMC,114627,A,4039.229,N,01758.191,E,003.1,000.0,050709,000.0,E*6A
$IIMWV,-007.0,R,014.5,N,A*17
$IIVHW,,,344,M,02.820,N,,*6F
$IIHDM,344,M*3F
$IIRMC,114628,A,4039.230,N,01758.191,E,002.9,000.0,050709,000.0,E*64
$IIMWV,-005.0,R,014.1,N,A*11
$IIVHW,,,341,M,02.740,N,,*63
$IIHDM,341,M*3A
$IIRMC,114629,A,4039.230,N,01758.191,E,002.9,000.0,050709,000.0,E*65
$IIMWV,-004.0,R,014.1,N,A*10
$IIVHW,,,341,M,02.630,N,,*65
$IIHDM,341,M*3A
$IIRMC,114630,A,4039.230,N,01758.191,E,003.0,000.0,050709,000.0,E*65
$IIMWV,-005.0,R,014.3,N,A*13
$IIVHW,,,341,M,02.610,N,,*67
$IIHDM,341,M*3A
$IIRMC,114631,A,4039.231,N,01758.190,E,003.0,000.0,050709,000.0,E*64
$IIMWV,-005.0,R,014.3,N,A*13
$IIVHW,,,341,M,02.540,N,,*61
$IIHDM,341,M*3A
$IIRMC,114632,A,4039.231,N,01758.190,E,003.0,000.0,050709,000.0,E*67
$IIMWV,-003.0,R,014.3,N,A*15
$IIVHW,,,341,M,02.430,N,,*67
$IIHDM,341,M*3A
$IIRMC,114633,A,4039.233,N,01758.189,E,002.5,000.0,050709,000.0,E*68
$IIMWV,002.0,R,012.9,N,A*35
$IIVHW,,,337,M,02.370,N,,*65
$IIHDM,337,M*3B
$IIRMC,114634,A,4039.233,N,01758.189,E,002.5,000.0,050709,000.0,E*6F
$IIMWV,003.0,R,012.9,N,A*34
$IIVHW,,,337,M,02.270,N,,*64
$IIHDM,337,M*3B
$IIRMC,114635,A,4039.234,N,01758.188,E,002.5,000.0,050709,000.0,E*68
$IIMWV,003.0,R,012.9,N,A*34
$IIVHW,,,337,M,02.210,N,,*62
$IIHDM,337,M*3B
$IIRMC,114636,A,4039.234,N,01758.188,E,002.0,000.0,050709,000.0,E*6E
$IIMWV,003.0,R,011.3,N,A*3D
$IIVHW,,,335,M,02.200,N,,*61
$IIHDM,335,M*39
$IIRMC,114637,A,4039.235,N,01758.188,E,002.0,000.0,050709,000.0,E*6E
$IIMWV,002.0,R,011.3,N,A*3C
$IIVHW,,,335,M,02.090,N,,*6A
$IIHDM,335,M*39
$IIRMC,114638,A,4039.235,N,01758.188,E,002.1,000.0,050709,000.0,E*60
$IIMWV,002.0,R,011.5,N,A*3A
$IIVHW,,,334,M,02.030,N,,*61
$IIHDM,334,M*38
$IIRMC,114639,A,4039.236,N,01758.187,E,002.1,000.0,050709,000.0,E*6D
$IIMWV,003.0,R,011.5,N,A*3B
$IIVHW,,,334,M,01.980,N,,*60
$IIHDM,334,M*38
$IIRMC,114640,A,4039.237,N,01758.186,E,001.8,000.0,050709,000.0,E*69
$IIMWV,002.0,R,012.1,N,A*3D
$IIVHW,,,334,M,01.950,N,,*6D
$IIHDM,334,M*38
$IIRMC,114641,A,4039.237,N,01758.186,E,001.8,000.0,050709,000.0,E*68
$IIMWV,001.0,R,012.1,N,A*3E
$IIVHW,,,334,M,01.900,N,,*68
$IIHDM,334,M*38
$IIRMC,114642,A,4039.237,N,01758.186,E,001.9,000.0,050709,000.0,E*6A
$IIMWV,001.0,R,013.1,N,A*3F
$IIVHW,,,335,M,01.840,N,,*6C
$IIHDM,335,M*39
$IIRMC,114643,A,4039.238,N,01758.186,E,001.9,000.0,050709,000.0,E*64
$IIMWV,-001.0,R,013.1,N,A*12
$IIVHW,,,335,M,01.770,N,,*60
$IIHDM,335,M*39
$IIRMC,114644,A,4039.238,N,01758.186,E,001.7,000.0,050709,000.0,E*6D
$IIMWV,-003.0,R,012.7,N,A*17
$IIVHW,,,336,M,01.740,N,,*60
$IIHDM,336,M*3A
$IIRMC,114645,A,4039.239,N,01758.185,E,001.7,000.0,050709,000.0,E*6E
$IIMWV,-004.0,R,012.7,N,A*10
$IIVHW,,,336,M,01.680,N,,*6D
$IIHDM,336,M*3A
$IIRMC,114646,A,4039.239,N,01758.185,E,001.6,000.0,050709,000.0,E*6C
$IIMWV,-005.0,R,013.1,N,A*16
$IIVHW,,,337,M,01.640,N,,*60
$IIHDM,337,M*3B
$IIRMC,114647,A,4039.241,N,01758.185,E,001.6,000.0,050709,000.0,E*62
$IIMWV,-008.0,R,013.1,N,A*1B
$IIVHW,,,337,M,01.570,N,,*60
$IIHDM,337,M*3B
$IIRMC,114648,A,4039.241,N,01758.185,E,001.6,000.0,050709,000.0,E*6D
$IIMWV,-009.0,R,012.2,N,A*18
$IIVHW,,,338,M,01.500,N,,*68
$IIHDM,338,M*34
$IIRMC,114649,A,4039.243,N,01758.185,E,001.6,000.0,050709,000.0,E*6E
$IIMWV,-007.0,R,012.2,N,A*16
$IIVHW,,,338,M,01.480,N,,*61
$IIHDM,338,M*34
$IIRMC,114650,A,4039.243,N,01758.185,E,002.0,000.0,050709,000.0,E*63
$IIMWV,-006.0,R,012.6,N,A*13
$IIVHW,,,337,M,01.430,N,,*65
$IIHDM,337,M*3B
$IIRMC,114651,A,4039.244,N,01758.186,E,001.7,000.0,050709,000.0,E*62
$IIMWV,-008.0,R,012.6,N,A*1D
$IIVHW,,,337,M,01.400,N,,*66
$IIHDM,337,M*3B
$IIRMC,114652,A,4039.244,N,01758.186,E,001.7,000.0,050709,000.0,E*61
$IIMWV,-009.0,R,012.4,N,A*1E
$IIVHW,,,337,M,01.340,N,,*65
$IIHDM,337,M*3B
$IIRMC,114653,A,4039.244,N,01758.186,E,001.6,000.0,050709,000.0,E*61
$IIMWV,-010.0,R,012.7,N,A*15
$IIVHW,,,337,M,01.310,N,,*60
$IIHDM,337,M*3B
$IIRMC,114654,A,4039.244,N,01758.186,E,001.6,000.0,050709,000.0,E*66
$IIMWV,-011.0,R,012.7,N,A*14
$IIVHW,,,337,M,01.260,N,,*66
$IIHDM,337,M*3B
$IIRMC,114655,A,4039.245,N,01758.186,E,001.4,000.0,050709,000.0,E*64
$IIMWV,-012.0,R,013.2,N,A*13
$IIVHW,,,337,M,01.200,N,,*60
$IIHDM,337,M*3B
$IIRMC,114656,A,4039.245,N,01758.186,E,001.4,000.0,050709,000.0,E*67
$IIMWV,-012.0,R,013.2,N,A*13
$IIVHW,,,337,M,01.180,N,,*6B
$IIHDM,337,M*3B
$IIRMC,114657,A,4039.246,N,01758.184,E,001.4,000.0,050709,000.0,E*67
$IIMWV,-013.0,R,012.7,N,A*16
$IIVHW,,,336,M,01.140,N,,*66
$IIHDM,336,M*3A
$IIRMC,114658,A,4039.246,N,01758.184,E,001.4,000.0,050709,000.0,E*68
$IIMWV,-013.0,R,012.7,N,A*16
$IIVHW,,,336,M,01.090,N,,*6A
$IIHDM,336,M*3A
$IIRMC,114659,A,4039.246,N,01758.184,E,001.2,000.0,050709,000.0,E*6F
$IIMWV,-011.0,R,013.1,N,A*13
$IIVHW,,,333,M,01.050,N,,*63
$IIHDM,333,M*3F
$IIRMC,114700,A,4039.246,N,01758.184,E,001.2,000.0,050709,000.0,E*62
$IIMWV,-008.0,R,013.1,N,A*1B
$IIVHW,,,333,M,01.030,N,,*65
$IIHDM,333,M*3F
$IIRMC,114701,A,4039.248,N,01758.184,E,001.3,000.0,050709,000.0,E*6C
$IIMWV,-007.0,R,012.7,N,A*13
$IIVHW,,,332,M,00.970,N,,*68
$IIHDM,332,M*3E
$IIRMC,114702,A,4039.248,N,01758.184,E,001.3,000.0,050709,000.0,E*6F
$IIMWV,-006.0,R,012.2,N,A*17
$IIVHW,,,330,M,00.970,N,,*6A
$IIHDM,330,M*3C
$IIRMC,114703,A,4039.248,N,01758.183,E,001.3,000.0,050709,000.0,E*69
$IIMWV,-005.0,R,012.2,N,A*14
$IIVHW,,,330,M,00.950,N,,*68
$IIHDM,330,M*3C
$IIRMC,114704,A,4039.249,N,01758.183,E,001.3,000.0,050709,000.0,E*6F
$IIMWV,-003.0,R,012.4,N,A*14
$IIVHW,,,328,M,00.920,N,,*66
$IIHDM,328,M*35
$IIRMC,114705,A,4039.249,N,01758.183,E,001.3,000.0,050709,000.0,E*6E
$IIMWV,000.0,R,011.7,N,A*3A
$IIVHW,,,326,M,00.910,N,,*6B
$IIHDM,326,M*3B
$IIRMC,114706,A,4039.249,N,01758.183,E,001.3,000.0,050709,000.0,E*6D
$IIMWV,000.0,R,011.7,N,A*3A
$IIVHW,,,326,M,00.870,N,,*6C
$IIHDM,326,M*3B
$IIRMC,114707,A,4039.249,N,01758.183,E,001.8,000.0,050709,000.0,E*67
$IIMWV,003.0,R,010.3,N,A*3C
$IIVHW,,,324,M,00.860,N,,*6F
$IIHDM,324,M*39
$IIRMC,114708,A,4039.249,N,01758.183,E,001.8,000.0,050709,000.0,E*68
$IIMWV,003.0,R,010.3,N,A*3C
$IIVHW,,,324,M,00.840,N,,*6D
$IIHDM,324,M*39
$IIRMC,114709,A,4039.250,N,01758.182,E,001.4,000.0,050709,000.0,E*6C
$IIMWV,000.0,R,010.1,N,A*3D
$IIVHW,,,324,M,00.790,N,,*6F
$IIHDM,324,M*39
$IIRMC,114710,A,4039.250,N,01758.182,E,001.4,000.0,050709,000.0,E*64
$IIMWV,000.0,R,010.1,N,A*3D
$IIVHW,,,319,M,00.780,N,,*60
$IIHDM,319,M*37
$IIRMC,114711,A,4039.251,N,01758.182,E,001.0,000.0,050709,000.0,E*60
$IIMWV,-001.0,R,010.1,N,A*11
$IIVHW,,,319,M,00.740,N,,*6C
$IIHDM,319,M*37
$IIRMC,114712,A,4039.251,N,01758.182,E,001.0,000.0,050709,000.0,E*63
$IIMWV,-005.0,R,011.3,N,A*16
$IIVHW,,,316,M,00.740,N,,*63
$IIHDM,316,M*38
$IIRMC,114713,A,4039.251,N,01758.181,E,000.7,000.0,050709,000.0,E*67
$IIMWV,-008.0,R,011.7,N,A*1F
$IIVHW,,,315,M,00.700,N,,*64
$IIHDM,315,M*3B
$IIRMC,114714,A,4039.251,N,01758.181,E,000.7,000.0,050709,000.0,E*60
$IIMWV,-010.0,R,011.7,N,A*16
$IIVHW,,,315,M,00.680,N,,*6D
$IIHDM,315,M*3B
$IIRMC,114715,A,4039.252,N,01758.181,E,000.7,000.0,050709,000.0,E*62
$IIMWV,-010.0,R,011.7,N,A*16
$IIVHW,,,315,M,00.650,N,,*60
$IIHDM,315,M*3B
$IIRMC,114716,A,4039.252,N,01758.181,E,000.9,000.0,050709,000.0,E*6F
$IIMWV,-006.0,R,009.4,N,A*1B
$IIVHW,,,306,M,00.620,N,,*65
$IIHDM,306,M*39
$IIRMC,114717,A,4039.252,N,01758.181,E,000.9,000.0,050709,000.0,E*6E
$IIMWV,-006.0,R,009.4,N,A*1B
$IIVHW,,,306,M,00.580,N,,*6C
$IIHDM,306,M*39
$IIRMC,114718,A,4039.253,N,01758.180,E,001.0,000.0,050709,000.0,E*69
$IIMWV,-005.0,R,009.9,N,A*15
$IIVHW,,,306,M,00.560,N,,*62
$IIHDM,306,M*39
$IIRMC,114719,A,4039.253,N,01758.180,E,001.0,000.0,050709,000.0,E*68
$IIMWV,-004.0,R,009.9,N,A*14
$IIVHW,,,306,M,00.530,N,,*67
$IIHDM,306,M*39
$IIRMC,114720,A,4039.253,N,01758.180,E,001.2,000.0,050709,000.0,E*60
$IIMWV,-002.0,R,009.6,N,A*1D
$IIVHW,,,292,M,00.530,N,,*6B
$IIHDM,292,M*35
$IIRMC,114721,A,4039.254,N,01758.180,E,001.2,000.0,050709,000.0,E*66
$IIMWV,-001.0,R,009.6,N,A*1E
$IIVHW,,,292,M,00.500,N,,*68
$IIHDM,292,M*35
$IIRMC,114722,A,4039.254,N,01758.180,E,001.0,000.0,050709,000.0,E*67
$IIMWV,-004.0,R,009.9,N,A*14
$IIVHW,,,273,M,00.440,N,,*62
$IIHDM,273,M*3A
$IIRMC,114723,A,4039.255,N,01758.180,E,001.0,000.0,050709,000.0,E*67
$IIMWV,-005.0,R,009.9,N,A*15
$IIVHW,,,273,M,00.440,N,,*62
$IIHDM,273,M*3A
$IIRMC,114724,A,4039.255,N,01758.180,E,000.9,000.0,050709,000.0,E*68
$IIMWV,-006.0,R,010.8,N,A*1F
$IIVHW,,,278,M,00.440,N,,*69
$IIHDM,278,M*31
$IIRMC,114725,A,4039.256,N,01758.180,E,000.9,000.0,050709,000.0,E*6A
$IIMWV,-007.0,R,010.8,N,A*1E
$IIVHW,,,278,M,00.410,N,,*6C
$IIHDM,278,M*31
$IIRMC,114726,A,4039.256,N,01758.180,E,000.8,000.0,050709,000.0,E*68
$IIMWV,-008.0,R,011.6,N,A*1E
$IIVHW,,,274,M,00.410,N,,*60
$IIHDM,274,M*3D
$IIRMC,114727,A,4039.256,N,01758.181,E,000.7,000.0,050709,000.0,E*67
$IIMWV,-013.0,R,011.6,N,A*14
$IIVHW,,,274,M,00.390,N,,*6F
$IIHDM,274,M*3D
$IIRMC,114728,A,4039.256,N,01758.181,E,000.7,000.0,050709,000.0,E*68
$IIMWV,-017.0,R,010.4,N,A*13
$IIVHW,,,271,M,00.350,N,,*66
$IIHDM,271,M*38
$IIRMC,114729,A,4039.255,N,01758.181,E,000.7,000.0,050709,000.0,E*6A
$IIMWV,-021.0,R,010.4,N,A*16
$IIVHW,,,271,M,00.300,N,,*63
$IIHDM,271,M*38
$IIRMC,114730,A,4039.255,N,01758.181,E,000.7,000.0,050709,000.0,E*62
$IIMWV,-024.0,R,011.0,N,A*16
$IIVHW,,,259,M,00.280,N,,*60
$IIHDM,259,M*32
$IIRMC,114731,A,4039.255,N,01758.183,E,000.7,000.0,050709,000.0,E*61
$IIMWV,-025.0,R,011.0,N,A*17
$IIVHW,,,259,M,00.240,N,,*6C
$IIHDM,259,M*32
$IIRMC,114732,A,4039.255,N,01758.183,E,000.7,000.0,050709,000.0,E*62
$IIMWV,-023.0,R,010.1,N,A*11
$IIVHW,,,264,M,00.230,N,,*65
$IIHDM,264,M*3C
$IIRMC,114733,A,4039.255,N,01758.184,E,000.7,000.0,050709,000.0,E*64
$IIMWV,-021.0,R,010.1,N,A*13
$IIVHW,,,264,M,00.000,N,,*64
$IIHDM,264,M*3C
$IIRMC,114734,A,4039.255,N,01758.184,E,000.7,000.0,050709,000.0,E*63
$IIMWV,-020.0,R,009.2,N,A*19
$IIVHW,,,266,M,00.000,N,,*66
$IIHDM,266,M*3E
$IIRMC,114735,A,4039.255,N,01758.184,E,000.7,000.0,050709,000.0,E*62
$IIMWV,-024.0,R,009.2,N,A*1D
$IIVHW,,,266,M,00.000,N,,*66
$IIHDM,266,M*3E
$IIRMC,114736,A,4039.255,N,01758.184,E,000.8,000.0,050709,000.0,E*6E
$IIMWV,-026.0,R,008.5,N,A*19
$IIVHW,,,269,M,00.000,N,,*69
$IIHDM,269,M*31
$IIRMC,114737,A,4039.255,N,01758.186,E,000.8,000.0,050709,000.0,E*6D
$IIMWV,-025.0,R,008.5,N,A*1A
$IIVHW,,,269,M,00.000,N,,*69
$IIHDM,269,M*31
$IIRMC,114738,A,4039.255,N,01758.186,E,000.8,000.0,050709,000.0,E*62
$IIMWV,-024.0,R,008.7,N,A*19
$IIVHW,,,272,M,00.000,N,,*63
$IIHDM,272,M*3B
$IIRMC,114739,A,4039.256,N,01758.186,E,000.7,000.0,050709,000.0,E*6F
$IIMWV,-023.0,R,008.7,N,A*1E
$IIVHW,,,272,M,00.000,N,,*63
$IIHDM,272,M*3B
$IIRMC,114740,A,4039.256,N,01758.186,E,000.7,000.0,050709,000.0,E*61
$IIMWV,-023.0,R,011.4,N,A*15
$IIVHW,,,274,M,00.040,N,,*61
$IIHDM,274,M*3D
$IIRMC,114741,A,4039.256,N,01758.187,E,000.9,000.0,050709,000.0,E*6F
$IIMWV,-026.0,R,011.4,N,A*10
$IIVHW,,,274,M,00.100,N,,*64
$IIHDM,274,M*3D
$IIRMC,114742,A,4039.256,N,01758.187,E,000.9,000.0,050709,000.0,E*6C
$IIMWV,-028.0,R,012.5,N,A*1C
$IIVHW,,,066,M,00.110,N,,*64
$IIHDM,066,M*3C
$IIRMC,114743,A,4039.256,N,01758.187,E,001.3,000.0,050709,000.0,E*66
$IIMWV,-032.0,R,012.5,N,A*17
$IIVHW,,,066,M,00.100,N,,*65
$IIHDM,066,M*3C
$IIRMC,114744,A,4039.256,N,01758.188,E,001.3,000.0,050709,000.0,E*6E
$IIMWV,-034.0,R,013.2,N,A*17
$IIVHW,,,100,M,00.080,N,,*6D
$IIHDM,100,M*3D
$IIRMC,114745,A,4039.256,N,01758.188,E,001.5,000.0,050709,000.0,E*69
$IIMWV,-034.0,R,013.2,N,A*17
$IIVHW,,,102,M,00.060,N,,*61
$IIHDM,102,M*3F
$IIRMC,114746,A,4039.256,N,01758.190,E,001.5,000.0,050709,000.0,E*63
$IIMWV,-034.0,R,013.2,N,A*17
$IIVHW,,,102,M,00.260,N,,*63
$IIHDM,102,M*3F
$IIRMC,114747,A,4039.256,N,01758.190,E,001.6,000.0,050709,000.0,E*61
$IIMWV,-042.0,R,012.5,N,A*10
$IIVHW,,,102,M,00.280,N,,*6D
$IIHDM,102,M*3F
$IIRMC,114748,A,4039.256,N,01758.190,E,001.6,000.0,050709,000.0,E*6E
$IIMWV,-042.0,R,012.5,N,A*10
$IIVHW,,,107,M,00.270,N,,*67
$IIHDM,107,M*3A
$IIRMC,114749,A,4039.257,N,01758.191,E,001.8,000.0,050709,000.0,E*61
$IIMWV,-045.0,R,011.6,N,A*17
$IIVHW,,,107,M,00.520,N,,*65
$IIHDM,107,M*3A
$IIRMC,114750,A,4039.257,N,01758.191,E,001.8,000.0,050709,000.0,E*69
$IIMWV,-045.0,R,011.6,N,A*17
$IIVHW,,,068,M,00.610,N,,*6D
$IIHDM,068,M*32
$IIRMC,114751,A,4039.258,N,01758.193,E,001.9,000.0,050709,000.0,E*64
$IIMWV,-049.0,R,014.3,N,A*1B
$IIVHW,,,068,M,00.570,N,,*68
$IIHDM,068,M*32
$IIRMC,114752,A,4039.258,N,01758.193,E,001.9,000.0,050709,000.0,E*67
$IIMWV,-051.0,R,014.3,N,A*12
$IIVHW,,,076,M,00.980,N,,*64
$IIHDM,076,M*3D
$IIRMC,114753,A,4039.257,N,01758.196,E,002.3,000.0,050709,000.0,E*65
$IIMWV,-054.0,R,013.9,N,A*1A
$IIVHW,,,076,M,01.180,N,,*6D
$IIHDM,076,M*3D
$IIRMC,114754,A,4039.258,N,01758.197,E,002.3,000.0,050709,000.0,E*6C
$IIMWV,-057.0,R,013.9,N,A*19
$IIVHW,,,049,M,01.280,N,,*62
$IIHDM,049,M*31
$IIRMC,114755,A,4039.258,N,01758.197,E,002.7,000.0,050709,000.0,E*69
$IIMWV,-059.0,R,014.2,N,A*1B
$IIVHW,,,053,M,01.390,N,,*69
$IIHDM,053,M*3A
$IIRMC,114756,A,4039.258,N,01758.197,E,002.7,000.0,050709,000.0,E*6A
$IIMWV,-061.0,R,014.2,N,A*10
$IIVHW,,,053,M,01.550,N,,*63
$IIHDM,053,M*3A
$IIRMC,114757,A,4039.258,N,01758.200,E,003.1,000.0,050709,000.0,E*61
$IIMWV,-066.0,R,013.6,N,A*14
$IIVHW,,,054,M,01.840,N,,*68
$IIHDM,054,M*3D
$IIRMC,114758,A,4039.258,N,01758.200,E,003.1,000.0,050709,000.0,E*6E
$IIMWV,-070.0,R,013.6,N,A*13
$IIVHW,,,054,M,01.980,N,,*65
$IIHDM,054,M*3D
$IIRMC,114759,A,4039.259,N,01758.202,E,003.3,000.0,050709,000.0,E*6E
$IIMWV,-072.0,R,012.6,N,A*10
$IIVHW,,,062,M,02.190,N,,*6A
$IIHDM,062,M*38
$IIRMC,114800,A,4039.259,N,01758.202,E,003.3,000.0,050709,000.0,E*6D
$IIMWV,-075.0,R,012.6,N,A*17
$IIVHW,,,062,M,02.400,N,,*66
$IIHDM,062,M*38
$IIRMC,114801,A,4039.259,N,01758.206,E,003.6,000.0,050709,000.0,E*6D
$IIMWV,-079.0,R,012.7,N,A*1A
$IIVHW,,,064,M,02.650,N,,*67
$IIHDM,064,M*3E
$IIRMC,114802,A,4039.259,N,01758.206,E,003.6,000.0,050709,000.0,E*6E
$IIMWV,-079.0,R,012.7,N,A*1A
$IIVHW,,,064,M,02.800,N,,*6C
$IIHDM,064,M*3E
$IIRMC,114803,A,4039.259,N,01758.208,E,003.6,000.0,050709,000.0,E*61
$IIMWV,-077.0,R,012.7,N,A*14
$IIVHW,,,064,M,02.970,N,,*6A
$IIHDM,064,M*3E
$IIRMC,114804,A,4039.259,N,01758.208,E,004.3,000.0,050709,000.0,E*64
$IIMWV,-076.0,R,012.8,N,A*1A
$IIVHW,,,065,M,03.160,N,,*63
$IIHDM,065,M*3F
$IIRMC,114805,A,4039.261,N,01758.213,E,004.3,000.0,050709,000.0,E*64
$IIMWV,-076.0,R,012.8,N,A*1A
$IIVHW,,,065,M,03.250,N,,*63
$IIHDM,065,M*3F
$IIRMC,114806,A,4039.261,N,01758.214,E,004.2,000.0,050709,000.0,E*61
$IIMWV,-076.0,R,011.9,N,A*18
$IIVHW,,,065,M,03.380,N,,*6F
$IIHDM,065,M*3F
$IIRMC,114807,A,4039.261,N,01758.214,E,004.2,000.0,050709,000.0,E*60
$IIMWV,-075.0,R,011.9,N,A*1B
$IIVHW,,,065,M,03.520,N,,*63
$IIHDM,065,M*3F
$IIRMC,114808,A,4039.261,N,01758.214,E,004.4,000.0,050709,000.0,E*69
$IIMWV,-075.0,R,013.9,N,A*19
$IIVHW,,,065,M,03.710,N,,*62
$IIHDM,065,M*3F
$IIRMC,114809,A,4039.263,N,01758.219,E,004.4,000.0,050709,000.0,E*67
$IIMWV,-076.0,R,013.9,N,A*1A
$IIVHW,,,065,M,03.910,N,,*6C
$IIHDM,065,M*3F
$IIRMC,114810,A,4039.264,N,01758.220,E,004.7,000.0,050709,000.0,E*61
$IIMWV,-076.0,R,013.7,N,A*14
$IIVHW,,,065,M,04.070,N,,*64
$IIHDM,065,M*3F
$IIRMC,114811,A,4039.264,N,01758.220,E,004.7,000.0,050709,000.0,E*60
$IIMWV,-075.0,R,013.7,N,A*17
$IIVHW,,,065,M,04.250,N,,*64
$IIHDM,065,M*3F
$IIRMC,114812,A,4039.264,N,01758.220,E,005.2,000.0,050709,000.0,E*67
$IIMWV,-073.0,R,013.7,N,A*11
$IIVHW,,,065,M,04.420,N,,*65
$IIHDM,065,M*3F
$IIRMC,114813,A,4039.266,N,01758.225,E,005.2,000.0,050709,000.0,E*61
$IIMWV,-073.0,R,013.7,N,A*11
$IIVHW,,,065,M,04.700,N,,*64
$IIHDM,065,M*3F
$IIRMC,114814,A,4039.266,N,01758.225,E,005.8,000.0,050709,000.0,E*6C
$IIMWV,-075.0,R,013.1,N,A*11
$IIVHW,,,065,M,04.870,N,,*6C
$IIHDM,065,M*3F
$IIRMC,114815,A,4039.268,N,01758.229,E,005.8,000.0,050709,000.0,E*6F
$IIMWV,-076.0,R,013.1,N,A*12
$IIVHW,,,065,M,04.980,N,,*62
$IIHDM,065,M*3F
$IIRMC,114816,A,4039.268,N,01758.229,E,005.8,000.0,050709,000.0,E*6C
$IIMWV,-075.0,R,012.6,N,A*17
$IIVHW,,,068,M,05.210,N,,*6C
$IIHDM,068,M*32
$IIRMC,114817,A,4039.268,N,01758.233,E,006.2,000.0,050709,000.0,E*6F
$IIMWV,-072.0,R,013.8,N,A*1F
$IIVHW,,,067,M,05.340,N,,*67
$IIHDM,067,M*3D
$IIRMC,114818,A,4039.268,N,01758.233,E,006.2,000.0,050709,000.0,E*60
$IIMWV,-074.0,R,013.8,N,A*19
$IIVHW,,,067,M,05.600,N,,*66
$IIHDM,067,M*3D
$IIRMC,114819,A,4039.269,N,01758.237,E,006.6,000.0,050709,000.0,E*60
$IIMWV,-075.0,R,015.3,N,A*15
$IIVHW,,,069,M,05.810,N,,*67
$IIHDM,069,M*33
$IIRMC,114820,A,4039.269,N,01758.237,E,006.6,000.0,050709,000.0,E*6A
$IIMWV,-075.0,R,015.3,N,A*15
$IIVHW,,,069,M,06.140,N,,*68
$IIHDM,069,M*33
$IIRMC,114821,A,4039.271,N,01758.242,E,007.3,000.0,050709,000.0,E*64
$IIMWV,-074.0,R,013.3,N,A*12
$IIVHW,,,073,M,06.260,N,,*62
$IIHDM,073,M*38
$IIRMC,114822,A,4039.271,N,01758.242,E,007.3,000.0,050709,000.0,E*67
$IIMWV,-072.0,R,013.3,N,A*14
$IIVHW,,,073,M,06.370,N,,*62
$IIHDM,073,M*38
$IIRMC,114823,A,4039.271,N,01758.245,E,007.0,000.0,050709,000.0,E*62
$IIMWV,-071.0,R,013.2,N,A*16
$IIVHW,,,072,M,06.430,N,,*60
$IIHDM,072,M*39
$IIRMC,114824,A,4039.271,N,01758.245,E,007.0,000.0,050709,000.0,E*65
$IIMWV,-071.0,R,013.2,N,A*16
$IIVHW,,,072,M,06.500,N,,*62
$IIHDM,072,M*39
$IIRMC,114825,A,4039.273,N,01758.252,E,007.2,000.0,050709,000.0,E*62
$IIMWV,-071.0,R,013.6,N,A*12
$IIVHW,,,071,M,06.650,N,,*67
$IIHDM,071,M*3A
$IIRMC,114826,A,4039.273,N,01758.252,E,007.2,000.0,050709,000.0,E*61
$IIMWV,-071.0,R,013.6,N,A*12
$IIVHW,,,071,M,06.710,N,,*62
$IIHDM,071,M*3A
$IIRMC,114827,A,4039.274,N,01758.255,E,007.2,000.0,050709,000.0,E*60
$IIMWV,-071.0,R,013.6,N,A*12
$IIVHW,,,071,M,06.800,N,,*6C
$IIHDM,071,M*3A
$IIRMC,114828,A,4039.274,N,01758.255,E,007.1,000.0,050709,000.0,E*6C
$IIMWV,-068.0,R,013.1,N,A*1D
$IIVHW,,,070,M,06.870,N,,*6A
$IIHDM,070,M*3B
$IIRMC,114829,A,4039.276,N,01758.262,E,007.1,000.0,050709,000.0,E*6B
$IIMWV,-068.0,R,013.1,N,A*1D
$IIVHW,,,070,M,06.880,N,,*65
$IIHDM,070,M*3B
$IIRMC,114830,A,4039.276,N,01758.262,E,007.1,000.0,050709,000.0,E*63
$IIMWV,-068.0,R,013.1,N,A*1D
$IIVHW,,,070,M,06.980,N,,*64
$IIHDM,070,M*3B
$IIRMC,114831,A,4039.277,N,01758.264,E,007.1,000.0,050709,000.0,E*65
$IIMWV,-068.0,R,013.1,N,A*1D
$IIVHW,,,070,M,07.060,N,,*62
$IIHDM,070,M*3B
$IIRMC,114832,A,4039.277,N,01758.264,E,007.6,000.0,050709,000.0,E*61
$IIMWV,-063.0,R,011.3,N,A*16
$IIVHW,,,070,M,07.180,N,,*6D
$IIHDM,070,M*3B
$IIRMC,114833,A,4039.280,N,01758.272,E,007.6,000.0,050709,000.0,E*6F
$IIMWV,-062.0,R,011.3,N,A*17
$IIVHW,,,070,M,07.210,N,,*67
$IIHDM,070,M*3B
$IIRMC,114834,A,4039.280,N,01758.272,E,007.7,000.0,050709,000.0,E*69
$IIMWV,-061.0,R,012.3,N,A*17
$IIVHW,,,070,M,07.250,N,,*63
$IIHDM,070,M*3B
$IIRMC,114835,A,4039.281,N,01758.277,E,007.7,000.0,050709,000.0,E*6C
$IIMWV,-061.0,R,012.3,N,A*17
$IIVHW,,,069,M,07.280,N,,*66
$IIHDM,069,M*33
$IIRMC,114836,A,4039.281,N,01758.277,E,007.7,000.0,050709,000.0,E*6F
$IIMWV,-060.0,R,014.0,N,A*13
$IIVHW,,,069,M,07.300,N,,*6F
$IIHDM,069,M*33
$IIRMC,114837,A,4039.283,N,01758.282,E,007.7,000.0,050709,000.0,E*66
$IIMWV,-061.0,R,014.0,N,A*12
$IIVHW,,,069,M,07.280,N,,*66
$IIHDM,069,M*33
$IIRMC,114838,A,4039.283,N,01758.282,E,007.7,000.0,050709,000.0,E*69
$IIMWV,-060.0,R,012.4,N,A*11
$IIVHW,,,069,M,07.310,N,,*6E
$IIHDM,069,M*33
$IIRMC,114839,A,4039.284,N,01758.285,E,007.7,000.0,050709,000.0,E*68
$IIMWV,-060.0,R,012.4,N,A*11
$IIVHW,,,069,M,07.290,N,,*67
$IIHDM,069,M*33
$IIRMC,114840,A,4039.284,N,01758.285,E,007.6,000.0,050709,000.0,E*67
$IIMWV,-064.0,R,012.1,N,A*10
$IIVHW,,,069,M,07.240,N,,*6A
$IIHDM,069,M*33
$IIRMC,114841,A,4039.288,N,01758.293,E,007.6,000.0,050709,000.0,E*6D
$IIMWV,-064.0,R,012.1,N,A*10
$IIVHW,,,068,M,07.200,N,,*6F
$IIHDM,068,M*32
$IIRMC,114842,A,4039.288,N,01758.293,E,007.6,000.0,050709,000.0,E*6E
$IIMWV,-064.0,R,012.4,N,A*15
$IIVHW,,,068,M,07.190,N,,*65
$IIHDM,068,M*32
$IIRMC,114843,A,4039.290,N,01758.298,E,007.6,000.0,050709,000.0,E*6D
$IIMWV,-065.0,R,012.4,N,A*14
$IIVHW,,,068,M,07.220,N,,*6D
$IIHDM,068,M*32
$IIRMC,114844,A,4039.290,N,01758.298,E,007.7,000.0,050709,000.0,E*6B
$IIMWV,-065.0,R,014.0,N,A*16
$IIVHW,,,068,M,07.310,N,,*6F
$IIHDM,068,M*32
$IIRMC,114845,A,4039.290,N,01758.304,E,007.7,000.0,050709,000.0,E*6E
$IIMWV,-066.0,R,014.6,N,A*13
$IIVHW,,,068,M,07.370,N,,*69
$IIHDM,068,M*32
$IIRMC,114846,A,4039.290,N,01758.304,E,007.7,000.0,050709,000.0,E*6D
$IIMWV,-067.0,R,014.6,N,A*12
$IIVHW,,,069,M,07.480,N,,*60
$IIHDM,069,M*33
$IIRMC,114847,A,4039.292,N,01758.309,E,007.7,000.0,050709,000.0,E*63
$IIMWV,-067.0,R,012.8,N,A*1A
$IIVHW,,,069,M,07.540,N,,*6D
$IIHDM,069,M*33
$IIRMC,114848,A,4039.292,N,01758.309,E,007.7,000.0,050709,000.0,E*6C
$IIMWV,-066.0,R,012.8,N,A*1B
$IIVHW,,,071,M,07.560,N,,*66
$IIHDM,071,M*3A
$IIRMC,114849,A,4039.293,N,01758.315,E,008.0,000.0,050709,000.0,E*69
$IIMWV,-061.0,R,011.3,N,A*14
$IIVHW,,,071,M,07.580,N,,*68
$IIHDM,071,M*3A
$IIRMC,114850,A,4039.293,N,01758.315,E,008.0,000.0,050709,000.0,E*61
$IIMWV,-058.0,R,011.3,N,A*1E
$IIVHW,,,072,M,07.530,N,,*60
$IIHDM,072,M*39
$IIRMC,114851,A,4039.294,N,01758.321,E,007.7,000.0,050709,000.0,E*68
$IIMWV,-058.0,R,010.6,N,A*1A
$IIVHW,,,072,M,07.430,N,,*61
$IIHDM,072,M*39
$IIRMC,114852,A,4039.294,N,01758.321,E,007.7,000.0,050709,000.0,E*6B
$IIMWV,-058.0,R,010.6,N,A*1A
$IIVHW,,,072,M,07.390,N,,*6C
$IIHDM,072,M*39
$IIRMC,114853,A,4039.295,N,01758.326,E,007.6,000.0,050709,000.0,E*6D
$IIMWV,-060.0,R,010.8,N,A*1F
$IIVHW,,,072,M,07.350,N,,*60
$IIHDM,072,M*39
$IIRMC,114854,A,4039.295,N,01758.326,E,007.6,000.0,050709,000.0,E*6A
$IIMWV,-060.0,R,010.8,N,A*1F
$IIVHW,,,072,M,07.330,N,,*66
$IIHDM,072,M*39
$IIRMC,114855,A,4039.297,N,01758.331,E,007.2,000.0,050709,000.0,E*6B
$IIMWV,-062.0,R,012.8,N,A*1F
$IIVHW,,,072,M,07.300,N,,*65
$IIHDM,072,M*39
$IIRMC,114856,A,4039.297,N,01758.331,E,007.6,000.0,050709,000.0,E*6C
$IIMWV,-064.0,R,011.9,N,A*1B
$IIVHW,,,074,M,07.400,N,,*64
$IIHDM,074,M*3F
$IIRMC,114857,A,4039.298,N,01758.336,E,007.6,000.0,050709,000.0,E*65
$IIMWV,-065.0,R,011.9,N,A*1A
$IIVHW,,,074,M,07.440,N,,*60
$IIHDM,074,M*3F
$IIRMC,114858,A,4039.298,N,01758.336,E,007.8,000.0,050709,000.0,E*64
$IIMWV,-065.0,R,011.8,N,A*1B
$IIVHW,,,077,M,07.470,N,,*60
$IIHDM,077,M*3C
$IIRMC,114859,A,4039.298,N,01758.342,E,007.8,000.0,050709,000.0,E*66
$IIMWV,-067.0,R,011.8,N,A*19
$IIVHW,,,077,M,07.470,N,,*60
$IIHDM,077,M*3C
$IIRMC,114900,A,4039.298,N,01758.342,E,007.9,000.0,050709,000.0,E*6A
$IIMWV,-069.0,R,011.3,N,A*1C
$IIVHW,,,078,M,07.440,N,,*6C
$IIHDM,078,M*33
$IIRMC,114901,A,4039.298,N,01758.348,E,007.9,000.0,050709,000.0,E*61
$IIMWV,-069.0,R,011.3,N,A*1C
$IIVHW,,,078,M,07.400,N,,*68
$IIHDM,078,M*33
$IIRMC,114902,A,4039.298,N,01758.348,E,007.7,000.0,050709,000.0,E*6C
$IIMWV,-071.0,R,011.2,N,A*14
$IIVHW,,,078,M,07.370,N,,*68
$IIHDM,078,M*33
$IIRMC,114903,A,4039.299,N,01758.351,E,007.7,000.0,050709,000.0,E*64
$IIMWV,-071.0,R,011.2,N,A*14
$IIVHW,,,077,M,07.350,N,,*65
$IIHDM,077,M*3C
$IIRMC,114904,A,4039.299,N,01758.351,E,007.7,000.0,050709,000.0,E*63
$IIMWV,-075.0,R,012.7,N,A*16
$IIVHW,,,076,M,07.370,N,,*66
$IIHDM,076,M*3D
$IIRMC,114905,A,4039.301,N,01758.359,E,007.7,000.0,050709,000.0,E*6A
$IIMWV,-076.0,R,012.7,N,A*15
$IIVHW,,,076,M,07.380,N,,*69
$IIHDM,076,M*3D
$IIRMC,114906,A,4039.301,N,01758.359,E,007.7,000.0,050709,000.0,E*69
$IIMWV,-077.0,R,014.9,N,A*1C
$IIVHW,,,075,M,07.430,N,,*66
$IIHDM,075,M*3E
$IIRMC,114907,A,4039.302,N,01758.364,E,007.9,000.0,050709,000.0,E*6B
$IIMWV,-077.0,R,014.9,N,A*1C
$IIVHW,,,075,M,07.580,N,,*6C
$IIHDM,075,M*3E
$IIRMC,114908,A,4039.302,N,01758.364,E,007.9,000.0,050709,000.0,E*64
$IIMWV,-076.0,R,014.7,N,A*13
$IIVHW,,,076,M,07.670,N,,*63
$IIHDM,076,M*3D
$IIRMC,114909,A,4039.302,N,01758.371,E,008.1,000.0,050709,000.0,E*66
$IIMWV,-076.0,R,014.7,N,A*13
$IIVHW,,,076,M,07.720,N,,*67
$IIHDM,076,M*3D
$IIRMC,114910,A,4039.302,N,01758.371,E,008.1,000.0,050709,000.0,E*6E
$IIMWV,-074.0,R,014.0,N,A*16
$IIVHW,,,079,M,07.730,N,,*69
$IIHDM,079,M*32
$IIRMC,114911,A,4039.303,N,01758.373,E,008.1,000.0,050709,000.0,E*6C
$IIMWV,-074.0,R,014.0,N,A*16
$IIVHW,,,079,M,07.660,N,,*6D
$IIHDM,079,M*32
$IIRMC,114912,A,4039.303,N,01758.373,E,008.1,000.0,050709,000.0,E*6F
$IIMWV,-073.0,R,011.0,N,A*14
$IIVHW,,,079,M,07.560,N,,*6E
$IIHDM,079,M*32
$IIRMC,114913,A,4039.303,N,01758.379,E,007.7,000.0,050709,000.0,E*6D
$IIMWV,-069.0,R,010.4,N,A*1A
$IIVHW,,,078,M,07.480,N,,*60
$IIHDM,078,M*33
$IIRMC,114914,A,4039.305,N,01758.385,E,007.7,000.0,050709,000.0,E*6F
$IIMWV,-069.0,R,010.4,N,A*1A
$IIVHW,,,078,M,07.390,N,,*66
$IIHDM,078,M*33
$IIRMC,114915,A,4039.305,N,01758.385,E,007.3,000.0,050709,000.0,E*6A
$IIMWV,-068.0,R,011.2,N,A*1C
$IIVHW,,,078,M,07.370,N,,*68
$IIHDM,078,M*33
$IIRMC,114916,A,4039.305,N,01758.385,E,007.3,000.0,050709,000.0,E*69
$IIMWV,-068.0,R,011.2,N,A*1C
$IIVHW,,,078,M,07.340,N,,*6B
$IIHDM,078,M*33
$IIRMC,114917,A,4039.306,N,01758.392,E,007.2,000.0,050709,000.0,E*6C
$IIMWV,-069.0,R,010.2,N,A*1C
$IIVHW,,,080,M,07.350,N,,*6D
$IIHDM,080,M*34
$IIRMC,114918,A,4039.306,N,01758.392,E,007.2,000.0,050709,000.0,E*63
$IIMWV,-069.0,R,010.2,N,A*1C
$IIVHW,,,080,M,07.360,N,,*6E
$IIHDM,080,M*34
$IIRMC,114919,A,4039.306,N,01758.396,E,007.6,000.0,050709,000.0,E*62
$IIMWV,-071.0,R,009.9,N,A*16
$IIVHW,,,080,M,07.440,N,,*6B
$IIHDM,080,M*34
$IIRMC,114920,A,4039.306,N,01758.396,E,007.6,000.0,050709,000.0,E*68
$IIMWV,-071.0,R,009.9,N,A*16
$IIVHW,,,082,M,07.490,N,,*64
$IIHDM,082,M*36
$IIRMC,114921,A,4039.306,N,01758.404,E,005.8,000.0,050709,000.0,E*69
$IIMWV,-070.0,R,010.5,N,A*13
$IIVHW,,,083,M,07.500,N,,*6D
$IIHDM,083,M*37
$IIRMC,114922,A,4039.306,N,01758.404,E,005.8,000.0,050709,000.0,E*6A
$IIMWV,-070.0,R,010.5,N,A*13
$IIVHW,,,083,M,07.420,N,,*6E
$IIHDM,083,M*37
$IIRMC,114923,A,4039.307,N,01758.409,E,007.5,000.0,050709,000.0,E*68
$IIMWV,-069.0,R,011.8,N,A*17
$IIVHW,,,080,M,07.350,N,,*6D
$IIHDM,080,M*34
$IIRMC,114924,A,4039.307,N,01758.409,E,007.5,000.0,050709,000.0,E*6F
$IIMWV,-070.0,R,011.8,N,A*1F
$IIVHW,,,080,M,07.250,N,,*6C
$IIHDM,080,M*34
$IIRMC,114925,A,4039.309,N,01758.413,E,007.4,000.0,050709,000.0,E*6A
$IIMWV,-069.0,R,013.4,N,A*19
$IIVHW,,,077,M,07.210,N,,*60
$IIHDM,077,M*3C
$IIRMC,114926,A,4039.309,N,01758.413,E,007.4,000.0,050709,000.0,E*69
$IIMWV,-068.0,R,013.7,N,A*1B
$IIVHW,,,077,M,07.280,N,,*69
$IIHDM,077,M*3C
$IIRMC,114927,A,4039.310,N,01758.417,E,007.4,000.0,050709,000.0,E*64
$IIMWV,-068.0,R,013.7,N,A*1B
$IIVHW,,,076,M,07.380,N,,*69
$IIHDM,076,M*3D
$IIRMC,114928,A,4039.310,N,01758.417,E,007.8,000.0,050709,000.0,E*67
$IIMWV,-067.0,R,013.6,N,A*15
$IIVHW,,,075,M,07.440,N,,*61
$IIHDM,075,M*3E
$IIRMC,114929,A,4039.312,N,01758.424,E,007.8,000.0,050709,000.0,E*64
$IIMWV,-066.0,R,013.6,N,A*14
$IIVHW,,,075,M,07.580,N,,*6C
$IIHDM,075,M*3E
$IIRMC,114930,A,4039.312,N,01758.424,E,007.4,000.0,050709,000.0,E*60
$IIMWV,-066.0,R,013.7,N,A*15
$IIVHW,,,075,M,07.650,N,,*62
$IIHDM,075,M*3E
$IIRMC,114931,A,4039.313,N,01758.430,E,007.4,000.0,050709,000.0,E*65
$IIMWV,-066.0,R,013.7,N,A*15
$IIVHW,,,075,M,07.720,N,,*64
$IIHDM,075,M*3E
$IIRMC,114932,A,4039.313,N,01758.430,E,008.3,000.0,050709,000.0,E*6E
$IIMWV,-067.0,R,014.5,N,A*11
$IIVHW,,,075,M,07.770,N,,*61
$IIHDM,075,M*3E
$IIRMC,114933,A,4039.315,N,01758.436,E,008.3,000.0,050709,000.0,E*6F
$IIMWV,-067.0,R,014.5,N,A*11
$IIVHW,,,075,M,07.770,N,,*61
$IIHDM,075,M*3E
$IIRMC,114934,A,4039.315,N,01758.436,E,008.3,000.0,050709,000.0,E*68
$IIMWV,-068.0,R,014.5,N,A*1E
$IIVHW,,,075,M,07.750,N,,*63
$IIHDM,075,M*3E
$IIRMC,114935,A,4039.316,N,01758.438,E,008.3,000.0,050709,000.0,E*64
$IIMWV,-068.0,R,014.5,N,A*1E
$IIVHW,,,075,M,07.690,N,,*6E
$IIHDM,075,M*3E
$IIRMC,114936,A,4039.316,N,01758.438,E,008.3,000.0,050709,000.0,E*67
$IIMWV,-067.0,R,014.3,N,A*17
$IIVHW,,,074,M,07.550,N,,*60
$IIHDM,074,M*3F
$IIRMC,114937,A,4039.321,N,01758.445,E,008.3,000.0,050709,000.0,E*68
$IIMWV,-067.0,R,014.3,N,A*17
$IIVHW,,,074,M,07.460,N,,*62
$IIHDM,074,M*3F
$IIRMC,114938,A,4039.322,N,01758.448,E,007.4,000.0,050709,000.0,E*61
$IIMWV,-067.0,R,014.0,N,A*14
$IIVHW,,,073,M,07.390,N,,*6D
$IIHDM,073,M*38
$IIRMC,114939,A,4039.322,N,01758.448,E,007.4,000.0,050709,000.0,E*60
$IIMWV,-068.0,R,014.2,N,A*19
$IIVHW,,,073,M,07.380,N,,*6C
$IIHDM,073,M*38
$IIRMC,114940,A,4039.322,N,01758.448,E,007.4,000.0,050709,000.0,E*6E
$IIMWV,-069.0,R,014.2,N,A*18
$IIVHW,,,073,M,07.430,N,,*60
$IIHDM,073,M*38
$IIRMC,114941,A,4039.325,N,01758.454,E,008.0,000.0,050709,000.0,E*6E
$IIMWV,-069.0,R,014.4,N,A*1E
$IIVHW,,,073,M,07.490,N,,*6A
$IIHDM,073,M*38
$IIRMC,114942,A,4039.327,N,01758.457,E,008.0,000.0,050709,000.0,E*6C
$IIMWV,-069.0,R,014.4,N,A*1E
$IIVHW,,,073,M,07.490,N,,*6A
$IIHDM,073,M*38
$IIRMC,114943,A,4039.327,N,01758.457,E,008.5,000.0,050709,000.0,E*68
$IIMWV,-069.0,R,013.7,N,A*1A
$IIVHW,,,073,M,07.660,N,,*67
$IIHDM,073,M*38
$IIRMC,114944,A,4039.327,N,01758.457,E,008.5,000.0,050709,000.0,E*6F
$IIMWV,-068.0,R,013.7,N,A*1B
$IIVHW,,,073,M,07.700,N,,*60
$IIHDM,073,M*38
$IIRMC,114945,A,4039.330,N,01758.466,E,008.3,000.0,050709,000.0,E*6C
$IIMWV,-068.0,R,013.7,N,A*1B
$IIVHW,,,073,M,07.730,N,,*63
$IIHDM,073,M*38
$IIRMC,114946,A,4039.330,N,01758.466,E,008.3,000.0,050709,000.0,E*6F
$IIMWV,-068.0,R,013.6,N,A*1A
$IIVHW,,,072,M,07.690,N,,*69
$IIHDM,072,M*39
$IIRMC,114947,A,4039.332,N,01758.472,E,008.3,000.0,050709,000.0,E*69
$IIMWV,-068.0,R,013.7,N,A*1B
$IIVHW,,,072,M,07.670,N,,*67
$IIHDM,072,M*39
$IIRMC,114948,A,4039.332,N,01758.472,E,008.3,000.0,050709,000.0,E*66
$IIMWV,-068.0,R,013.7,N,A*1B
$IIVHW,,,072,M,07.610,N,,*61
$IIHDM,072,M*39
$IIRMC,114949,A,4039.334,N,01758.477,E,008.2,000.0,050709,000.0,E*65
$IIMWV,-068.0,R,013.2,N,A*1E
$IIVHW,,,072,M,07.520,N,,*61
$IIHDM,072,M*39
$IIRMC,114950,A,4039.334,N,01758.477,E,008.2,000.0,050709,000.0,E*6D
$IIMWV,-068.0,R,013.2,N,A*1E
$IIVHW,,,072,M,07.490,N,,*6B
$IIHDM,072,M*39
$IIRMC,114951,A,4039.335,N,01758.483,E,008.2,000.0,050709,000.0,E*66
$IIMWV,-068.0,R,013.2,N,A*1E
$IIVHW,,,071,M,07.420,N,,*63
$IIHDM,071,M*3A
$IIRMC,114952,A,4039.335,N,01758.483,E,008.2,000.0,050709,000.0,E*65
$IIMWV,-069.0,R,013.2,N,A*1F
$IIVHW,,,071,M,07.430,N,,*62
$IIHDM,071,M*3A
$IIRMC,114953,A,4039.337,N,01758.488,E,008.2,000.0,050709,000.0,E*6D
$IIMWV,-069.0,R,013.5,N,A*18
$IIVHW,,,071,M,07.440,N,,*65
$IIHDM,071,M*3A
$IIRMC,114954,A,4039.338,N,01758.494,E,008.2,000.0,050709,000.0,E*68
$IIMWV,-070.0,R,013.5,N,A*10
$IIVHW,,,071,M,07.420,N,,*63
$IIHDM,071,M*3A
$IIRMC,114955,A,4039.338,N,01758.494,E,008.2,000.0,050709,000.0,E*69
$IIMWV,-070.0,R,013.0,N,A*15
$IIVHW,,,071,M,07.470,N,,*66
$IIHDM,071,M*3A
$IIRMC,114956,A,4039.340,N,01758.499,E,008.2,000.0,050709,000.0,E*68
$IIMWV,-070.0,R,013.0,N,A*15
$IIVHW,,,071,M,07.460,N,,*67
$IIHDM,071,M*3A
$IIRMC,114957,A,4039.340,N,01758.499,E,008.2,000.0,050709,000.0,E*69
$IIMWV,-070.0,R,013.0,N,A*15
$IIVHW,,,071,M,07.490,N,,*68
$IIHDM,071,M*3A
$IIRMC,114958,A,4039.340,N,01758.499,E,008.2,000.0,050709,000.0,E*66
$IIMWV,-068.0,R,012.6,N,A*1B
$IIVHW,,,071,M,07.490,N,,*68
$IIHDM,071,M*3A
$IIRMC,114959,A,4039.341,N,01758.502,E,008.2,000.0,050709,000.0,E*65
$IIMWV,-067.0,R,012.6,N,A*14
$IIVHW,,,071,M,07.480,N,,*69
$IIHDM,071,M*3A
$IIRMC,115000,A,4039.341,N,01758.502,E,008.2,000.0,050709,000.0,E*61
$IIMWV,-066.0,R,012.5,N,A*16
$IIVHW,,,072,M,07.450,N,,*67
$IIHDM,072,M*39
$IIRMC,115001,A,4039.342,N,01758.505,E,008.2,000.0,050709,000.0,E*64
$IIMWV,-066.0,R,012.5,N,A*16
$IIVHW,,,072,M,07.480,N,,*6A
$IIHDM,072,M*39
$IIRMC,115002,A,4039.342,N,01758.505,E,008.2,000.0,050709,000.0,E*67
$IIMWV,-067.0,R,012.4,N,A*16
$IIVHW,,,073,M,07.550,N,,*67
$IIHDM,073,M*38
$IIRMC,115003,A,4039.355,N,01758.512,E,008.2,000.0,050709,000.0,E*66
$IIMWV,-067.0,R,012.4,N,A*16
$IIVHW,,,073,M,07.570,N,,*65
$IIHDM,073,M*38
$IIRMC,115004,A,4039.355,N,01758.512,E,008.2,000.0,050709,000.0,E*61
$IIMWV,-067.0,R,013.2,N,A*11
$IIVHW,,,073,M,07.550,N,,*67
$IIHDM,073,M*38
$IIRMC,115005,A,4039.359,N,01758.518,E,008.2,000.0,050709,000.0,E*66
$IIMWV,-068.0,R,013.4,N,A*18
$IIVHW,,,072,M,07.560,N,,*65
$IIHDM,072,M*39
$IIRMC,115006,A,4039.360,N,01758.520,E,008.2,000.0,050709,000.0,E*64
$IIMWV,-068.0,R,013.4,N,A*18
$IIVHW,,,072,M,07.550,N,,*66
$IIHDM,072,M*39
$IIRMC,115007,A,4039.360,N,01758.520,E,007.9,000.0,050709,000.0,E*61
$IIMWV,-069.0,R,014.0,N,A*1A
$IIVHW,,,072,M,07.580,N,,*6B
$IIHDM,072,M*39
$IIRMC,115008,A,4039.360,N,01758.520,E,007.9,000.0,050709,000.0,E*6E
$IIMWV,-070.0,R,014.0,N,A*12
$IIVHW,,,072,M,07.550,N,,*66
$IIHDM,072,M*39
$IIRMC,115009,A,4039.360,N,01758.529,E,007.9,000.0,050709,000.0,E*66
$IIMWV,-070.0,R,013.7,N,A*12
$IIVHW,,,072,M,07.520,N,,*61
$IIHDM,072,M*39
$IIRMC,115010,A,4039.360,N,01758.529,E,007.9,000.0,050709,000.0,E*6E
$IIMWV,-070.0,R,013.7,N,A*12
$IIVHW,,,072,M,07.430,N,,*61
$IIHDM,072,M*39
$IIRMC,115011,A,4039.362,N,01758.535,E,007.9,000.0,050709,000.0,E*60
$IIMWV,-070.0,R,013.6,N,A*13
$IIVHW,,,073,M,07.380,N,,*6C
$IIHDM,073,M*38
$IIRMC,115012,A,4039.362,N,01758.535,E,007.9,000.0,050709,000.0,E*63
$IIMWV,-070.0,R,013.6,N,A*13
$IIVHW,,,073,M,07.300,N,,*64
$IIHDM,073,M*38
$IIRMC,115013,A,4039.366,N,01758.542,E,007.9,000.0,050709,000.0,E*66
$IIMWV,-070.0,R,013.1,N,A*14
$IIVHW,,,073,M,07.290,N,,*6C
$IIHDM,073,M*38
$IIRMC,115014,A,4039.366,N,01758.542,E,007.9,000.0,050709,000.0,E*61
$IIMWV,-071.0,R,013.1,N,A*15
$IIVHW,,,073,M,07.310,N,,*65
$IIHDM,073,M*38
$IIRMC,115015,A,4039.371,N,01758.546,E,007.9,000.0,050709,000.0,E*62
$IIMWV,-070.0,R,013.1,N,A*14
$IIVHW,,,073,M,07.390,N,,*6D
$IIHDM,073,M*38
$IIRMC,115016,A,4039.371,N,01758.546,E,007.3,000.0,050709,000.0,E*6B
$IIMWV,-069.0,R,011.9,N,A*16
$IIVHW,,,075,M,07.460,N,,*63
$IIHDM,075,M*3E
$IIRMC,115017,A,4039.382,N,01758.558,E,007.3,000.0,050709,000.0,E*69
$IIMWV,-069.0,R,011.9,N,A*16
$IIVHW,,,075,M,07.490,N,,*6C
$IIHDM,075,M*3E
$IIRMC,115018,A,4039.386,N,01758.566,E,008.1,000.0,050709,000.0,E*62
$IIMWV,-069.0,R,012.5,N,A*19
$IIVHW,,,076,M,07.600,N,,*64
$IIHDM,076,M*3D
$IIRMC,115019,A,4039.386,N,01758.566,E,008.3,000.0,050709,000.0,E*61
$IIMWV,-069.0,R,012.5,N,A*19
$IIVHW,,,076,M,07.590,N,,*6E
$IIHDM,076,M*3D
$IIRMC,115020,A,4039.386,N,01758.566,E,008.3,000.0,050709,000.0,E*6B
$IIMWV,-070.0,R,012.5,N,A*11
$IIVHW,,,076,M,07.510,N,,*66
$IIHDM,076,M*3D
$IIRMC,115021,A,4039.388,N,01758.571,E,008.3,000.0,050709,000.0,E*62
$IIMWV,-070.0,R,013.1,N,A*14
$IIVHW,,,076,M,07.430,N,,*65
$IIHDM,076,M*3D
$IIRMC,115022,A,4039.390,N,01758.576,E,008.3,000.0,050709,000.0,E*6F
$IIMWV,-070.0,R,013.1,N,A*14
$IIVHW,,,075,M,07.390,N,,*6B
$IIHDM,075,M*3E
$IIRMC,115023,A,4039.390,N,01758.576,E,008.3,000.0,050709,000.0,E*6E
$IIMWV,-071.0,R,013.9,N,A*1D
$IIVHW,,,075,M,07.300,N,,*62
$IIHDM,075,M*3E
$IIRMC,115024,A,4039.390,N,01758.576,E,008.3,000.0,050709,000.0,E*69
$IIMWV,-071.0,R,013.9,N,A*1D
$IIVHW,,,075,M,07.200,N,,*63
$IIHDM,075,M*3E
$IIRMC,115025,A,4039.391,N,01758.582,E,008.3,000.0,050709,000.0,E*62
$IIMWV,-072.0,R,013.9,N,A*1E
$IIVHW,,,075,M,07.210,N,,*62
$IIHDM,075,M*3E
$IIRMC,115026,A,4039.391,N,01758.582,E,008.3,000.0,050709,000.0,E*61
$IIMWV,-073.0,R,013.5,N,A*13
$IIVHW,,,074,M,07.220,N,,*60
$IIHDM,074,M*3F
$IIRMC,115027,A,4039.395,N,01758.588,E,008.3,000.0,050709,000.0,E*6E
$IIMWV,-075.0,R,013.3,N,A*13
$IIVHW,,,074,M,07.250,N,,*67
$IIHDM,074,M*3F
$IIRMC,115028,A,4039.395,N,01758.588,E,008.3,000.0,050709,000.0,E*61
$IIMWV,-073.0,R,013.3,N,A*15
$IIVHW,,,074,M,07.420,N,,*66
$IIHDM,074,M*3F
$IIRMC,115029,A,4039.397,N,01758.593,E,008.3,000.0,050709,000.0,E*68
$IIMWV,-073.0,R,013.3,N,A*15
$IIVHW,,,074,M,07.490,N,,*6D
$IIHDM,074,M*3F
$IIRMC,115030,A,4039.398,N,01758.597,E,008.3,000.0,050709,000.0,E*6B
$IIMWV,-072.0,R,013.3,N,A*14
$IIVHW,,,074,M,07.580,N,,*6D
$IIHDM,074,M*3F
$IIRMC,115031,A,4039.398,N,01758.597,E,008.3,000.0,050709,000.0,E*6A
$IIMWV,-069.0,R,012.2,N,A*1E
$IIVHW,,,074,M,07.580,N,,*6D
$IIHDM,074,M*3F
$IIRMC,115032,A,4039.400,N,01758.605,E,008.3,000.0,050709,000.0,E*67
$IIMWV,-070.0,R,012.2,N,A*16
$IIVHW,,,074,M,07.530,N,,*66
$IIHDM,074,M*3F
$IIRMC,115033,A,4039.400,N,01758.605,E,008.3,000.0,050709,000.0,E*66
$IIMWV,-070.0,R,012.1,N,A*15
$IIVHW,,,074,M,07.480,N,,*6C
$IIHDM,074,M*3F
$IIRMC,115034,A,4039.400,N,01758.605,E,008.3,000.0,050709,000.0,E*61
$IIMWV,-069.0,R,012.1,N,A*1D
$IIVHW,,,074,M,07.440,N,,*60
$IIHDM,074,M*3F
$IIRMC,115035,A,4039.401,N,01758.611,E,008.3,000.0,050709,000.0,E*64
$IIMWV,-067.0,R,011.5,N,A*14
$IIVHW,,,074,M,07.410,N,,*65
$IIHDM,074,M*3F
$IIRMC,115036,A,4039.401,N,01758.611,E,008.3,000.0,050709,000.0,E*67
$IIMWV,-067.0,R,011.5,N,A*14
$IIVHW,,,073,M,07.410,N,,*62
$IIHDM,073,M*38
$IIRMC,115037,A,4039.403,N,01758.616,E,008.3,000.0,050709,000.0,E*63
$IIMWV,-067.0,R,011.5,N,A*14
$IIVHW,,,073,M,07.360,N,,*62
$IIHDM,073,M*38
$IIRMC,115038,A,4039.403,N,01758.616,E,008.3,000.0,050709,000.0,E*6C
$IIMWV,-068.0,R,012.5,N,A*18
$IIVHW,,,072,M,07.360,N,,*63
$IIHDM,072,M*39
$IIRMC,115039,A,4039.407,N,01758.617,E,008.3,000.0,050709,000.0,E*68
$IIMWV,-069.0,R,012.5,N,A*19
$IIVHW,,,072,M,07.360,N,,*63
$IIHDM,072,M*39
$IIRMC,115040,A,4039.407,N,01758.617,E,007.7,000.0,050709,000.0,E*6D
$IIMWV,-070.0,R,013.6,N,A*13
$IIVHW,,,070,M,07.400,N,,*60
$IIHDM,070,M*3B
$IIRMC,115041,A,4039.411,N,01758.622,E,008.8,000.0,050709,000.0,E*6D
$IIMWV,-070.0,R,013.3,N,A*16
$IIVHW,,,070,M,07.440,N,,*64
$IIHDM,070,M*3B
$IIRMC,115042,A,4039.414,N,01758.630,E,008.8,000.0,050709,000.0,E*68
$IIMWV,-069.0,R,013.3,N,A*1E
$IIVHW,,,070,M,07.500,N,,*61
$IIHDM,070,M*3B
$IIRMC,115043,A,4039.414,N,01758.630,E,008.8,000.0,050709,000.0,E*69
$IIMWV,-067.0,R,013.8,N,A*1B
$IIVHW,,,070,M,07.520,N,,*63
$IIHDM,070,M*3B
$IIRMC,115044,A,4039.414,N,01758.630,E,008.8,000.0,050709,000.0,E*6E
$IIMWV,-066.0,R,013.8,N,A*1A
$IIVHW,,,070,M,07.460,N,,*66
$IIHDM,070,M*3B
$IIRMC,115045,A,4039.415,N,01758.638,E,008.1,000.0,050709,000.0,E*6F
$IIMWV,-066.0,R,014.0,N,A*15
$IIVHW,,,068,M,07.430,N,,*6A
$IIHDM,068,M*32
$IIRMC,115046,A,4039.415,N,01758.638,E,008.1,000.0,050709,000.0,E*6C
$IIMWV,-065.0,R,014.0,N,A*16
$IIVHW,,,068,M,07.430,N,,*6A
$IIHDM,068,M*32
