$GPRMC,142637,V,,,,,,,271004,,*34
$GPRMB,V,,,,,,,,,,,,V*66
$GPGGA,142637,,,,,0,00,,,M,,M,,*63
$GPGSA,A,1,,,,,,,,,,,,,,,*1E
$GPGSV,3,1,11,01,23,312,00,04,30,051,00,05,63,134,00,06,31,229,00*73
$GPGSV,3,2,11,09,09,167,00,14,14,254,00,17,33,137,32,20,04,345,00*7D
$GPGSV,3,3,11,24,45,096,40,25,24,312,00,30,74,247,00,,,,*45
$PGRME,,M,,M,,M*00
$GPGLL,,,,,142638,*5A
$PGRMZ,,,*7E
$PGRMM,WGS 84*06
$GPBOD,,T,,M,,*47
$GPRTE,1,1,c,0*07
$GPRMC,142639,V,,,,,,,271004,,*3A
$GPRMB,V,,,,,,,,,,,,V*66
$GPGGA,142639,,,,,0,00,,,M,,M,,*6D
$GPGSA,A,1,,,,,,,,,,,,,,,*1E
$GPGSV,3,1,11,01,23,312,00,04,30,051,00,05,63,134,00,06,31,229,00*73
$GPGSV,3,2,11,09,09,167,00,14,14,254,00,17,33,137,32,20,04,345,00*7D
$GPGSV,3,3,11,24,45,096,40,25,24,312,00,30,74,247,00,,,,*45
$PGRME,,M,,M,,M*00
$GPGLL,,,,,142640,*55
$PGRMZ,,,*7E
$PGRMM,WGS 84*06
$GPBOD,,T,,M,,*47
$GPRTE,1,1,c,0*07
$GPRMC,142641,V,,,,,,,271004,,*35
$GPRMB,V,,,,,,,,,,,,V*66
$GPGGA,142641,,,,,0,00,,,M,,M,,*62
$GPGSA,A,1,,,,,,,,,,,,,,,*1E
$GPGSV,3,1,11,01,23,312,00,04,30,051,00,05,63,134,00,06,31,229,00*73
$GPGSV,3,2,11,09,09,167,00,14,14,254,00,17,33,137,32,20,04,345,00*7D
$GPGSV,3,3,11,24,45,096,40,25,24,312,00,30,75,244,00,,,,*47
$PGRME,,M,,M,,M*00
$GPGLL,,,,,142642,*57
$PGRMZ,,,*7E
$PGRMM,WGS 84*06
$GPBOD,,T,,M,,*47
$GPRTE,1,1,c,0*07
$GPRMC,142643,V,,,,,,,271004,,*37
$GPRMB,V,,,,,,,,,,,,V*66
$GPGGA,142643,,,,,0,00,,,M,,M,,*60
$GPGSA,A,1,,,,,,,,,,,,,,,*1E
$GPGSV,3,1,11,01,23,312,00,04,30,051,00,05,63,134,00,06,31,229,00*73
$GPGSV,3,2,11,09,09,167,00,14,14,254,00,17,33,137,32,20,04,345,00*7D
$GPGSV,3,3,11,24,45,096,40,25,24,312,00,30,75,244,00,,,,*47
$PGRME,,M,,M,,M*00
$GPGLL,,,,,142644,*51
$PGRMZ,,,*7E
$PGRMM,WGS 84*06
$GPBOD,,T,,M,,*47
$GPRTE,1,1,c,0*07
$GPRMC,142645,V,,,,,,,271004,,*31
$GPRMB,V,,,,,,,,,,,,V*66
$GPGGA,142645,,,,,0,00,,,M,,M,,*66
$GPGSA,A,1,,,,,,,,,,,,,,,*1E
$GPGSV,3,1,11,01,23,312,00,04,30,051,00,05,63,134,00,06,31,229,00*73
$GPGSV,3,2,11,09,09,167,00,14,14,254,00,17,33,137,32,20,04,345,00*7D
$GPGSV,3,3,11,24,45,096,40,25,24,312,00,30,75,244,00,,,,*47
$PGRME,,M,,M,,M*00
$GPGLL,,,,,142646,*53
$PGRMZ,,,*7E
$PGRMM,WGS 84*06
$GPBOD,,T,,M,,*47
$GPRTE,1,1,c,0*07
$GPRMC,142647,V,,,,,,,271004,,*33
$GPRMB,V,,,,,,,,,,,,V*66
$GPGGA,142647,,,,,0,00,,,M,,M,,*64
$GPGSA,A,1,,,,,,,,,,,,,,,*1E
$GPGSV,3,1,11,01,23,312,00,04,30,051,00,05,63,134,00,06,31,229,00*73
$GPGSV,3,2,11,09,09,167,00,14,14,254,00,17,33,137,31,20,04,345,00*7E
$GPGSV,3,3,11,24,45,096,40,25,24,312,00,30,75,244,00,,,,*47
$PGRME,,M,,M,,M*00
$GPGLL,,,,,142648,*5D
$PGRMZ,,,*7E
$PGRMM,WGS 84*06
$GPBOD,,T,,M,,*47
$GPRTE,1,1,c,0*07
$GPRMC,142649,V,,,,,,,271004,,*3D
$GPRMB,V,,,,,,,,,,,,V*66
$GPGGA,142649,,,,,0,00,,,M,,M,,*6A
$GPGSA,A,1,,,,,,,,,,,,,,,*1E
$GPGSV,3,1,11,01,23,312,00,04,30,051,00,05,63,134,00,06,31,229,00*73
$GPGSV,3,2,11,09,09,167,00,14,14,254,00,17,33,137,33,20,04,345,00*7C
$GPGSV,3,3,11,24,45,096,40,25,24,312,00,30,75,244,00,,,,*47
$PGRME,,M,,M,,M*00
$GPGLL,,,,,142650,*54
$PGRMZ,,,*7E
$PGRMM,WGS 84*06
$GPBOD,,T,,M,,*47
$GPRTE,1,1,c,0*07
$GPRMC,142651,V,,,,,,,271004,,*34
$GPRMB,V,,,,,,,,,,,,V*66
$GPGGA,142651,,,,,0,00,,,M,,M,,*63
$GPGSA,A,1,,,,,,,,,,,,,,,*1E
$GPGSV,3,1,11,01,23,312,00,04,30,051,00,05,63,134,00,06,31,229,00*73
$GPGSV,3,2,11,09,09,167,00,14,14,254,00,17,33,137,33,20,04,345,00*7C
$GPGSV,3,3,11,24,45,096,40,25,24,312,00,30,75,244,00,,,,*47
$PGRME,,M,,M,,M*00
$GPGLL,,,,,142652,*56
$PGRMZ,,,*7E
$PGRMM,WGS 84*06
$GPBOD,,T,,M,,*47
$GPRTE,1,1,c,0*07
$GPRMC,142653,V,,,,,,,271004,,*36
$GPRMB,V,,,,,,,,,,,,V*66
$GPGGA,142653,,,,,0,00,,,M,,M,,*61
$GPGSA,A,1,,,,,,,,,,,,,,,*1E
$GPGSV,3,1,11,01,23,311,00,04,30,051,00,05,63,134,00,06,31,229,00*70
$GPGSV,3,2,11,09,09,167,00,14,14,254,00,17,33,137,34,20,04,345,00*7B
$GPGSV,3,3,11,24,45,096,40,25,24,312,00,30,75,244,00,,,,*47
$PGRME,,M,,M,,M*00
$GPGLL,,,,,142654,*50
$PGRMZ,,,*7E
$PGRMM,WGS 84*06
$GPBOD,,T,,M,,*47
$GPRTE,1,1,c,0*07
$GPRMC,142655,V,,,,,,,271004,,*30
$GPRMB,V,,,,,,,,,,,,V*66
$GPGGA,142655,,,,,0,00,,,M,,M,,*67
$GPGSA,A,1,,,,,,,,,,,,,,,*1E
$GPGSV,3,1,11,01,23,311,00,04,30,051,00,05,63,134,00,06,31,229,00*70
$GPGSV,3,2,11,09,09,167,00,14,14,254,00,17,33,137,34,20,04,345,00*7B
$GPGSV,3,3,11,24,45,096,40,25,24,312,00,30,75,244,00,,,,*47
$PGRME,,M,,M,,M*00
$GPGLL,,,,,142656,*52
$PGRMZ,,,*7E
$PGRMM,WGS 84*06
$GPBOD,,T,,M,,*47
$GPRTE,1,1,c,0*07
$GPRMC,142657,V,,,,,,,271004,,*32
$GPRMB,V,,,,,,,,,,,,V*66
$GPGGA,142657,,,,,0,00,,,M,,M,,*65
$GPGSA,A,1,,,,,,,,,,,,,,,*1E
$GPGSV,3,1,11,01,23,311,00,04,30,051,00,05,63,134,00,06,31,229,00*70
$GPGSV,3,2,11,09,09,167,00,14,14,254,00,17,33,137,33,20,04,345,00*7C
$GPGSV,3,3,11,24,45,096,40,25,24,312,00,30,75,244,00,,,,*47
$PGRME,,M,,M,,M*00
$GPGLL,,,,,142658,*5C
$PGRMZ,,,*7E
$PGRMM,WGS 84*06
$GPBOD,,T,,M,,*47
$GPRTE,1,1,c,0*07
$GPRMC,142659,V,,,,,,,271004,,*3C
$GPRMB,V,,,,,,,,,,,,V*66
$GPGGA,142659,,,,,0,00,,,M,,M,,*6B
$GPGSA,A,1,,,,,,,,,,,,,,,*1E
$GPGSV,3,1,11,01,23,311,00,04,30,051,00,05,63,134,00,06,31,229,00*70
$GPGSV,3,2,11,09,09,167,00,14,14,254,00,17,33,137,33,20,04,345,00*7C
$GPGSV,3,3,11,24,45,095,40,25,24,312,00,30,75,244,00,,,,*44
$PGRME,,M,,M,,M*00
$GPGLL,,,,,142700,*50
$PGRMZ,,,*7E
$PGRMM,WGS 84*06
$GPBOD,,T,,M,,*47
$GPRTE,1,1,c,0*07
$GPRMC,142701,V,,,,,,,271004,,*30
$GPRMB,V,,,,,,,,,,,,V*66
$GPGGA,142701,,,,,0,00,,,M,,M,,*67
$GPGSA,A,1,,,,,,,,,,,,,,,*1E
$GPGSV,3,1,11,01,23,311,00,04,30,051,00,05,63,134,00,06,31,229,00*70
$GPGSV,3,2,11,09,09,167,00,14,14,254,00,17,33,137,36,20,04,345,00*79
$GPGSV,3,3,11,24,45,095,39,25,24,312,00,30,75,244,00,,,,*4A
$PGRME,,M,,M,,M*00
$GPGLL,,,,,142702,*52
$PGRMZ,,,*7E
$PGRMM,WGS 84*06
$GPBOD,,T,,M,,*47
$GPRTE,1,1,c,0*07
$GPRMC,142703,V,,,,,,,271004,,*32
$GPRMB,V,,,,,,,,,,,,V*66
$GPGGA,142703,,,,,0,00,,,M,,M,,*65
$GPGSA,A,1,,,,,,,,,,,,,,,*1E
$GPGSV,3,1,11,01,23,311,00,04,30,051,00,05,63,134,00,06,31,229,00*70
$GPGSV,3,2,11,09,09,167,00,14,14,254,00,17,33,137,35,20,04,345,00*7A
$GPGSV,3,3,11,24,45,095,38,25,24,312,00,30,75,244,00,,,,*4B
$PGRME,,M,,M,,M*00
$GPGLL,,,,,142704,*54
$PGRMZ,,,*7E
$PGRMM,WGS 84*06
$GPBOD,,T,,M,,*47
$GPRTE,1,1,c,0*07
$GPRMC,142705,V,,,,,,,271004,,*34
$GPRMB,V,,,,,,,,,,,,V*66
$GPGGA,142705,,,,,0,00,,,M,,M,,*63
$GPGSA,A,1,,,,,,,,,,,,,,,*1E
$GPGSV,3,1,11,01,23,311,00,04,30,051,00,05,63,134,00,06,31,229,00*70
$GPGSV,3,2,11,09,09,167,00,14,14,254,00,17,33,137,36,20,04,345,00*79
$GPGSV,3,3,11,24,45,095,38,25,24,312,00,30,75,244,00,,,,*4B
$PGRME,,M,,M,,M*00
$GPGLL,,,,,142706,*56
$PGRMZ,,,*7E
$PGRMM,WGS 84*06
$GPBOD,,T,,M,,*47
$GPRTE,1,1,c,0*07
$GPRMC,142707,V,,,,,,,271004,,*36
$GPRMB,V,,,,,,,,,,,,V*66
$GPGGA,142707,,,,,0,00,,,M,,M,,*61
$GPGSA,A,1,,,,,,,,,,,,,,,*1E
$GPGSV,3,1,11,01,23,311,00,04,30,050,00,05,63,134,00,06,31,229,00*71
$GPGSV,3,2,11,09,09,167,00,14,14,254,00,17,33,137,35,20,04,345,00*7A
$GPGSV,3,3,11,24,45,095,37,25,24,312,00,30,75,244,00,,,,*44
$PGRME,,M,,M,,M*00
$GPGLL,,,,,142708,*58
$PGRMZ,,,*7E
$PGRMM,WGS 84*06
$GPBOD,,T,,M,,*47
$GPRTE,1,1,c,0*07
$GPRMC,142709,V,,,,,,,271004,,*38
$GPRMB,V,,,,,,,,,,,,V*66
$GPGGA,142710,,,,,0,00,,,M,,M,,*67
$GPGSA,A,1,,,,,,,,,,,,,,,*1E
$GPGSV,3,1,11,01,23,311,00,04,30,050,00,05,63,134,00,06,31,229,00*71
$GPGSV,3,2,11,09,09,167,00,14,14,254,00,17,33,137,34,20,04,345,00*7B
$GPGSV,3,3,11,24,45,095,36,25,24,312,00,30,75,244,00,,,,*45
$PGRME,,M,,M,,M*00
$GPGLL,,,,,142710,*51
$PGRMZ,,,*7E
$PGRMM,WGS 84*06
$GPBOD,,T,,M,,*47
$GPRTE,1,1,c,0*07
$GPRMC,142711,V,,,,,,,271004,,*31
$GPRMB,V,,,,,,,,,,,,V*66
$GPGGA,142712,,,,,0,00,,,M,,M,,*65
$GPGSA,A,1,,,,,,,,,,,,,,,*1E
$GPGSV,3,1,11,01,23,311,00,04,30,050,00,05,62,134,00,06,31,229,00*70
$GPGSV,3,2,11,09,09,167,00,14,14,254,00,17,33,137,33,20,04,345,00*7C
$GPGSV,3,3,11,24,45,095,35,25,24,312,00,30,75,244,00,,,,*46
$PGRME,,M,,M,,M*00
$GPGLL,,,,,142712,*53
$PGRMZ,,,*7E
$PGRMM,WGS 84*06
$GPBOD,,T,,M,,*47
$GPRTE,1,1,c,0*07
$GPRMC,142714,V,,,,,,,271004,,*34
$GPRMB,V,,,,,,,,,,,,V*66
$GPGGA,142714,,,,,0,00,,,M,,M,,*63
$GPGSA,A,1,,,,,,,,,,,,,,,*1E
$GPGSV,3,1,11,01,23,311,00,04,30,050,00,05,62,134,00,06,31,229,00*70
$GPGSV,3,2,11,09,09,167,00,14,14,254,00,17,33,137,33,20,04,345,00*7C
$GPGSV,3,3,11,24,45,095,34,25,24,312,00,30,75,244,00,,,,*47
$PGRME,,M,,M,,M*00
$GPGLL,,,,,142714,*55
$PGRMZ,,,*7E
$PGRMM,WGS 84*06
$GPBOD,,T,,M,,*47
$GPRTE,1,1,c,0*07
$GPRMC,142716,V,,,,,,,271004,,*36
$GPRMB,V,,,,,,,,,,,,V*66
$GPGGA,142716,,,,,0,00,,,M,,M,,*61
$GPGSA,A,1,,,,,,,,,,,,,,,*1E
$GPGSV,3,1,11,01,23,311,00,04,30,050,00,05,62,134,00,06,32,229,00*73
$GPGSV,3,2,11,09,09,167,00,14,14,254,00,17,33,137,32,20,04,345,00*7D
$GPGSV,3,3,11,24,45,095,33,25,24,312,00,30,75,244,00,,,,*40
$PGRME,,M,,M,,M*00
$GPGLL,,,,,142717,*56
$PGRMZ,,,*7E
$PGRMM,WGS 84*06
$GPBOD,,T,,M,,*47
$GPRTE,1,1,c,0*07
$GPRMC,142718,V,,,,,,,271004,,*38
$GPRMB,V,,,,,,,,,,,,V*66
$GPGGA,142718,,,,,0,00,,,M,,M,,*6F
$GPGSA,A,1,,,,,,,,,,,,,,,*1E
$GPGSV,3,1,11,01,23,311,00,04,30,050,00,05,62,134,00,06,32,229,00*73
$GPGSV,3,2,11,09,09,167,00,14,14,254,00,17,33,137,31,20,04,345,00*7E
$GPGSV,3,3,11,24,45,095,32,25,24,312,00,30,75,244,00,,,,*41
$PGRME,,M,,M,,M*00
$GPGLL,,,,,142719,*58
$PGRMZ,,,*7E
$PGRMM,WGS 84*06
$GPBOD,,T,,M,,*47
$GPRTE,1,1,c,0*07
$GPRMC,142720,V,,,,,,,271004,,*33
$GPRMB,V,,,,,,,,,,,,V*66
$GPGGA,142720,,,,,0,00,,,M,,M,,*64
$GPGSA,A,1,,,,,,,,,,,,,,,*1E
$GPGSV,3,1,11,01,23,311,00,04,30,050,00,05,62,134,00,06,32,229,00*73
$GPGSV,3,2,11,09,09,167,00,14,14,254,00,17,33,137,31,20,04,345,00*7E
$GPGSV,3,3,11,24,45,095,31,25,24,312,00,30,75,244,00,,,,*42
$PGRME,,M,,M,,M*00
$GPGLL,,,,,142721,*53
$PGRMZ,,,*7E
$PGRMM,WGS 84*06
$GPBOD,,T,,M,,*47
$GPRTE,1,1,c,0*07
$GPRMC,142722,V,,,,,,,271004,,*31
$GPRMB,V,,,,,,,,,,,,V*66
$GPGGA,142722,,,,,0,00,,,M,,M,,*66
$GPGSA,A,1,,,,,,,,,,,,,,,*1E
$GPGSV,3,1,11,01,23,311,00,04,30,050,00,05,62,134,00,06,32,229,00*73
$GPGSV,3,2,11,09,09,167,00,14,14,254,00,17,33,137,30,20,04,345,00*7F
$GPGSV,3,3,11,24,45,095,30,25,24,312,00,30,75,244,00,,,,*43
$PGRME,,M,,M,,M*00
$GPGLL,,,,,142723,*51
$PGRMZ,,,*7E
$PGRMM,WGS 84*06
$GPBOD,,T,,M,,*47
$GPRTE,1,1,c,0*07
$GPRMC,142724,V,,,,,,,271004,,*37
$GPRMB,V,,,,,,,,,,,,V*66
$GPGGA,142724,,,,,0,00,,,M,,M,,*60
$GPGSA,A,1,,,,,,,,,,,,,,,*1E
$GPGSV,3,1,11,01,23,311,00,04,30,050,00,05,62,134,00,06,32,229,00*73
$GPGSV,3,2,11,09,09,167,00,14,14,254,00,17,33,137,30,20,04,345,00*7F
$GPGSV,3,3,11,24,45,095,30,25,24,312,00,30,75,244,00,,,,*43
$PGRME,,M,,M,,M*00
$GPGLL,,,,,142725,*57
$PGRMZ,,,*7E
$PGRMM,WGS 84*06
$GPBOD,,T,,M,,*47
$GPRTE,1,1,c,0*07
$GPRMC,142726,V,,,,,,,271004,,*35
$GPRMB,V,,,,,,,,,,,,V*66
$GPGGA,142726,,,,,0,00,,,M,,M,,*62
$GPGSA,A,1,,,,,,,,,,,,,,,*1E
$GPGSV,3,1,11,01,23,311,00,04,30,050,00,05,62,134,00,06,32,229,00*73
$GPGSV,3,2,11,09,08,167,00,14,14,254,44,17,33,137,30,20,04,345,00*7E
$GPGSV,3,3,11,24,45,095,31,25,24,312,00,30,75,244,00,,,,*42
$PGRME,,M,,M,,M*00
$GPGLL,,,,,142727,*55
$PGRMZ,,,*7E
$PGRMM,WGS 84*06
$GPBOD,,T,,M,,*47
$GPRTE,1,1,c,0*07
$GPRMC,142728,V,,,,,,,271004,,*3B
$GPRMB,V,,,,,,,,,,,,V*66
$GPGGA,142728,,,,,0,00,,,M,,M,,*6C
$GPGSA,A,1,,,,,,,,,,,,,,,*1E
$GPGSV,3,1,11,01,23,311,00,04,30,050,00,05,62,134,00,06,32,229,00*73
$GPGSV,3,2,11,09,08,167,00,14,14,254,44,17,33,137,31,20,04,345,00*7F
$GPGSV,3,3,11,24,45,095,31,25,24,312,39,30,75,244,00,,,,*48
$PGRME,,M,,M,,M*00
$GPGLL,,,,,142729,*5B
$PGRMZ,,,*7E
$PGRMM,WGS 84*06
$GPBOD,,T,,M,,*47
$GPRTE,1,1,c,0*07
$GPRMC,142730,V,,,,,,,271004,,*32
$GPRMB,V,,,,,,,,,,,,V*66
$GPGGA,142730,,,,,0,00,,,M,,M,,*65
$GPGSA,A,1,,,,,,,,,,,,,,,*1E
$GPGSV,3,1,11,01,23,311,00,04,30,050,00,05,62,134,00,06,32,229,00*73
$GPGSV,3,2,11,09,08,167,42,14,14,254,42,17,33,137,36,20,04,345,00*78
$GPGSV,3,3,11,24,45,095,31,25,24,312,39,30,75,244,47,,,,*4B
$PGRME,,M,,M,,M*00
$GPGLL,,,,,142731,*52
$PGRMZ,,,*7E
$PGRMM,WGS 84*06
$GPBOD,,T,,M,,*47
$GPRTE,1,1,c,0*07
$GPRMC,142732,V,,,,,,,271004,,*30
$GPRMB,V,,,,,,,,,,,,V*66
$GPGGA,142732,,,,,0,00,,,M,,M,,*67
$GPGSA,A,1,,,,,,,,,,,,,,,*1E
$GPGSV,3,1,11,01,23,311,00,04,30,050,00,05,62,134,00,06,32,229,46*71
$GPGSV,3,2,11,09,08,167,40,14,14,254,42,17,33,137,40,20,04,345,00*7B
$GPGSV,3,3,11,24,45,095,35,25,24,312,38,30,75,244,48,,,,*41
$PGRME,,M,,M,,M*00
$GPGLL,,,,,142733,*50
$PGRMZ,,,*7E
$PGRMM,WGS 84*06
$GPBOD,,T,,M,,*47
$GPRTE,1,1,c,0*07
$GPRMC,142734,V,,,,,,,271004,,*36
$GPRMB,V,,,,,,,,,,,,V*66
$GPGGA,142734,,,,,0,00,,,M,,M,,*61
$GPGSA,A,1,,,,,,,,,,,,,,,*1E
$GPGSV,3,1,11,01,23,311,00,04,30,050,00,05,62,134,00,06,32,229,47*70
$GPGSV,3,2,11,09,08,167,38,14,14,254,42,17,33,137,42,20,04,345,00*76
$GPGSV,3,3,11,24,45,095,38,25,24,312,37,30,75,244,49,,,,*42
$PGRME,,M,,M,,M*00
$GPGLL,,,,,142735,*56
$PGRMZ,,,*7E
$PGRMM,WGS 84*06
$GPBOD,,T,,M,,*47
$GPRTE,1,1,c,0*07
$GPRMC,142736,V,,,,,,,271004,,*34
$GPRMB,V,,,,,,,,,,,,V*66
$GPGGA,142736,,,,,0,00,,,M,,M,,*63
$GPGSA,A,1,,,,,,,,,,,,,,,*1E
$GPGSV,3,1,11,01,23,311,41,04,30,050,00,05,62,134,42,06,32,229,47*73
$GPGSV,3,2,11,09,08,167,37,14,14,254,42,17,33,137,43,20,04,345,00*78
$GPGSV,3,3,11,24,45,095,39,25,24,312,38,30,75,244,50,,,,*44
$PGRME,,M,,M,,M*00
$GPGLL,,,,,142737,*54
$PGRMZ,,,*7E
$PGRMM,WGS 84*06
$GPBOD,,T,,M,,*47
$GPRTE,1,1,c,0*07
$GPRMC,142738,V,,,,,,,271004,,*3A
$GPRMB,V,,,,,,,,,,,,V*66
$GPGGA,142738,,,,,0,00,,,M,,M,,*6D
$GPGSA,A,1,,,,,,,,,,,,,,,*1E
$GPGSV,3,1,11,01,23,311,41,04,30,050,00,05,62,134,42,06,32,229,47*73
$GPGSV,3,2,11,09,08,167,36,14,14,254,42,17,33,137,43,20,04,345,00*79
$GPGSV,3,3,11,24,45,095,40,25,24,312,38,30,75,244,50,,,,*4A
$PGRME,,M,,M,,M*00
$GPGLL,,,,,142739,*5A
$PGRMZ,,,*7E
$PGRMM,WGS 84*06
$GPBOD,,T,,M,,*47
$GPRTE,1,1,c,0*07
$GPRMC,142727,A,6012.089,N,02440.458,E,000.0,360.0,271004,006.0,E*7F
$GPRMB,A,,,,,,,,,,,,V*71
$GPGGA,142728,6012.089,N,02440.458,E,1,00,1.6,20.7,M,19.7,M,,*7A
$GPGSA,A,3,,,,06,,14,17,,24,25,,,5.4,1.6,5.1*34
$GPGSV,3,1,11,01,23,311,41,04,30,050,00,05,62,134,42,06,32,229,48*7C
$GPGSV,3,2,11,09,08,167,35,14,14,254,42,17,33,137,44,20,04,345,00*7D
$GPGSV,3,3,11,24,45,095,40,25,24,312,38,30,75,244,50,,,,*4A
$PGRME,6.4,M,20.4,M,21.3,M*2A
$GPGLL,6012.089,N,02440.458,E,142728,A*2F
$PGRMZ,66,f,3*2B
$PGRMM,WGS 84*06
$GPBOD,,T,,M,,*47
$GPRTE,1,1,c,0*07
$GPRMC,142729,A,6012.090,N,02440.458,E,000.0,360.0,271004,006.0,E*79
$GPRMB,A,,,,,,,,,,,,V*71
$GPGGA,142730,6012.090,N,02440.458,E,1,05,1.6,18.3,M,19.7,M,,*71
$GPGSA,A,3,,,,06,,14,17,,24,25,,,5.4,1.6,5.1*34
$GPGSV,3,1,11,01,23,311,41,04,30,050,00,05,62,134,42,06,32,229,48*7C
$GPGSV,3,2,11,09,08,167,35,14,14,254,42,17,33,137,44,20,04,345,00*7D
$GPGSV,3,3,11,24,45,095,41,25,24,312,38,30,75,244,50,,,,*4B
$PGRME,6.4,M,20.4,M,21.3,M*2A
$GPGLL,6012.090,N,02440.458,E,142730,A*2E
$PGRMZ,56,f,3*28
$PGRMM,WGS 84*06
$GPBOD,,T,,M,,*47
$GPRTE,1,1,c,0*07
$GPRMC,142731,A,6012.090,N,02440.457,E,000.0,360.0,271004,006.0,E*7F
$GPRMB,A,,,,,,,,,,,,V*71
$GPGGA,142732,6012.090,N,02440.457,E,1,05,1.6,24.9,M,19.7,M,,*79
$GPGSA,A,3,01,,05,06,09,14,17,,24,25,,,5.4,1.6,5.1*39
$GPGSV,3,1,11,01,23,311,41,04,30,050,00,05,62,134,42,06,32,229,48*7C
$GPGSV,3,2,11,09,08,167,35,14,14,254,42,17,33,137,44,20,04,345,00*7D
$GPGSV,3,3,11,24,45,095,41,25,24,312,39,30,75,244,50,,,,*4A
$PGRME,4.6,M,8.0,M,9.2,M*2F
$GPGLL,6012.089,N,02440.456,E,142732,A*2A
$PGRMZ,94,f,3*26
$PGRMM,WGS 84*06
$GPBOD,,T,,M,,*47
$GPRTE,1,1,c,0*07
$GPRMC,142733,A,6012.090,N,02440.456,E,000.0,360.0,271004,006.0,E*7C
$GPRMB,A,,,,,,,,,,,,V*71
$GPGGA,142734,6012.090,N,02440.456,E,1,08,1.2,30.6,M,19.7,M,,*7D
$GPGSA,A,3,01,,05,06,09,14,17,,24,25,,,2.3,1.2,2.0*3B
$GPGSV,3,1,11,01,23,311,41,04,30,050,00,05,62,134,42,06,32,229,48*7C
$GPGSV,3,2,11,09,08,167,35,14,13,253,41,17,33,137,44,20,04,345,00*7E
$GPGSV,3,3,11,24,45,095,41,25,24,312,39,30,75,244,50,,,,*4A
$PGRME,4.6,M,8.0,M,9.2,M*2F
$GPGLL,6012.090,N,02440.456,E,142734,A*24
$PGRMZ,105,f,3*1F
$PGRMM,WGS 84*06
$GPBOD,,T,,M,,*47
$GPRTE,1,1,c,0*07
$GPRMC,142735,A,6012.090,N,02440.457,E,000.0,360.0,271004,006.0,E*7B
$GPRMB,A,,,,,,,,,,,,V*71
$GPGGA,142736,6012.090,N,02440.457,E,1,08,1.2,31.9,M,19.7,M,,*70
$GPGSA,A,3,01,,05,06,09,14,17,,24,25,,,2.4,1.2,2.1*3D
$GPGSV,3,1,11,01,23,311,40,04,30,050,00,05,62,134,42,06,32,229,48*7D
$GPGSV,3,2,11,09,08,167,35,14,13,253,42,17,33,137,44,20,04,345,00*7D
$GPGSV,3,3,11,24,45,095,40,25,24,312,40,30,75,244,50,,,,*45
$PGRME,4.6,M,8.0,M,9.2,M*2F
$GPGLL,6012.090,N,02440.458,E,142736,A*28
$PGRMZ,102,f,3*18
$PGRMM,WGS 84*06
$GPBOD,,T,,M,,*47
$GPRTE,1,1,c,0*07
$GPRMC,142737,A,6012.090,N,02440.458,E,000.0,360.0,271004,006.0,E*76
$GPRMB,A,,,,,,,,,,,,V*71
$GPGGA,142737,6012.090,N,02440.458,E,1,08,1.2,30.6,M,19.7,M,,*70
$GPGSA,A,3,01,,05,06,09,14,17,,24,25,,,2.3,1.2,2.0*3B
$GPGSV,3,1,11,01,23,311,40,04,30,050,00,05,62,134,42,06,32,229,49*7C
$GPGSV,3,2,11,09,08,167,35,14,13,253,42,17,33,137,44,20,04,345,00*7D
$GPGSV,3,3,11,24,45,095,41,25,24,312,39,30,75,244,50,,,,*4A
$PGRME,4.6,M,8.0,M,9.2,M*2F
$GPGLL,6012.091,N,02440.459,E,142738,A*26
$PGRMZ,97,f,3*25
$PGRMM,WGS 84*06
$GPBOD,,T,,M,,*47
$GPRTE,1,1,c,0*07
$GPRMC,142739,A,6012.091,N,02440.460,E,000.0,360.0,271004,006.0,E*72
$GPRMB,A,,,,,,,,,,,,V*71
$GPGGA,142740,6012.091,N,02440.460,E,1,08,1.2,28.8,M,19.7,M,,*7D
$GPGSA,A,3,01,,05,06,09,14,17,,24,25,,,2.4,1.2,2.1*3D
$GPGSV,3,1,11,01,23,311,39,04,30,050,00,05,62,134,42,06,32,229,49*72
$GPGSV,3,2,11,09,08,167,35,14,13,253,41,17,33,137,44,20,04,345,00*7E
$GPGSV,3,3,11,24,45,095,40,25,24,312,39,30,75,244,50,,,,*4B
$PGRME,4.6,M,8.0,M,9.2,M*2F
$GPGLL,6012.091,N,02440.460,E,142740,A*23
$PGRMZ,94,f,3*26
$PGRMM,WGS 84*06
$GPBOD,,T,,M,,*47
$GPRTE,1,1,c,0*07
$GPRMC,142741,A,6012.091,N,02440.460,E,000.0,360.0,271004,006.0,E*7D
$GPRMB,A,,,,,,,,,,,,V*71
$GPGGA,142742,6012.091,N,02440.460,E,1,08,1.2,28.1,M,19.7,M,,*76
$GPGSA,A,3,01,,05,06,09,14,17,,24,25,,,2.4,1.2,2.1*3D
$GPGSV,3,1,11,01,23,311,38,04,30,050,00,05,62,134,42,06,32,229,48*72
$GPGSV,3,2,11,09,08,167,35,14,13,253,41,17,33,137,44,20,04,345,00*7E
$GPGSV,3,3,11,24,45,095,40,25,24,312,39,30,75,244,50,,,,*4B
$PGRME,4.6,M,7.9,M,9.2,M*29
$GPGLL,6012.091,N,02440.461,E,142742,A*20
$PGRMZ,92,f,3*20
$PGRMM,WGS 84*06
$GPBOD,,T,,M,,*47
$GPRTE,1,1,c,0*07
$GPRMC,142743,A,6012.091,N,02440.461,E,000.0,360.0,271004,006.0,E*7E
$GPRMB,A,,,,,,,,,,,,V*71
$GPGGA,142744,6012.091,N,02440.461,E,1,08,1.2,27.5,M,19.7,M,,*7A
$GPGSA,A,3,01,,05,06,09,14,17,,24,25,,,2.3,1.2,2.0*3B
$GPGSV,3,1,11,01,23,311,38,04,30,050,00,05,62,134,43,06,32,229,48*73
$GPGSV,3,2,11,09,08,167,35,14,13,253,41,17,33,137,45,20,04,345,00*7F
$GPGSV,3,3,11,24,45,095,40,25,24,312,39,30,75,244,50,,,,*4B
$PGRME,4.6,M,7.9,M,9.2,M*29
$GPGLL,6012.091,N,02440.461,E,142744,A*26
$PGRMZ,90,f,3*22
$PGRMM,WGS 84*06
$GPBOD,,T,,M,,*47
$GPRTE,1,1,c,0*07
$GPRMC,142745,A,6012.091,N,02440.461,E,000.0,360.0,271004,006.0,E*78
$GPRMB,A,,,,,,,,,,,,V*71
$GPGGA,142746,6012.091,N,02440.461,E,1,08,1.2,27.3,M,19.7,M,,*7E
$GPGSA,A,3,01,,05,06,09,14,17,,24,25,,,2.4,1.2,2.1*3D
$GPGSV,3,1,11,01,23,311,37,04,30,050,00,05,62,134,43,06,32,229,48*7C
$GPGSV,3,2,11,09,08,167,35,14,13,253,41,17,34,137,45,20,04,345,00*78
$GPGSV,3,3,11,24,45,095,39,25,24,312,40,30,75,244,50,,,,*4B
$PGRME,4.6,M,7.9,M,9.2,M*29
$GPGLL,6012.091,N,02440.461,E,142746,A*24
$PGRMZ,88,f,3*2B
$PGRMM,WGS 84*06
$GPBOD,,T,,M,,*47
$GPRTE,1,1,c,0*07
$GPRMC,142747,A,6012.091,N,02440.461,E,000.0,360.0,271004,006.0,E*7A
$GPRMB,A,,,,,,,,,,,,V*71
$GPGGA,142748,6012.091,N,02440.461,E,1,08,1.2,26.6,M,19.7,M,,*74
$GPGSA,A,3,01,,05,06,09,14,17,,24,25,,,2.4,1.2,2.1*3D
$GPGSV,3,1,11,01,23,311,37,04,30,050,00,05,62,134,43,06,32,229,48*7C
$GPGSV,3,2,11,09,08,167,35,14,13,253,41,17,34,137,45,20,04,345,00*78
$GPGSV,3,3,11,24,45,095,40,25,24,312,40,30,75,244,50,,,,*45
$PGRME,4.6,M,7.9,M,9.2,M*29
$GPGLL,6012.091,N,02440.461,E,142748,A*2A
$PGRMZ,86,f,3*25
$PGRMM,WGS 84*06
$GPBOD,,T,,M,,*47
$GPRTE,1,1,c,0*07
$GPRMC,142749,A,6012.091,N,02440.461,E,000.0,360.0,271004,006.0,E*74
$GPRMB,A,,,,,,,,,,,,V*71
$GPGGA,142750,6012.091,N,02440.461,E,1,08,1.2,25.8,M,19.7,M,,*70
$GPGSA,A,3,01,,05,06,09,14,17,,24,25,,,2.3,1.2,2.0*3B
$GPGSV,3,1,11,01,23,311,37,04,30,050,00,05,62,134,43,06,32,229,48*7C
$GPGSV,3,2,11,09,08,167,34,14,13,253,41,17,34,137,45,20,04,345,00*79
$GPGSV,3,3,11,24,45,095,40,25,24,312,40,30,75,244,50,,,,*45
$PGRME,4.6,M,7.9,M,9.2,M*29
$GPGLL,6012.091,N,02440.461,E,142750,A*23
$PGRMZ,84,f,3*27
$PGRMM,WGS 84*06
$GPBOD,,T,,M,,*47
$GPRTE,1,1,c,0*07
$GPRMC,142751,A,6012.091,N,02440.461,E,000.0,360.0,271004,006.0,E*7D
$GPRMB,A,,,,,,,,,,,,V*71
$GPGGA,142752,6012.091,N,02440.461,E,1,08,1.2,25.1,M,19.7,M,,*7B
$GPGSA,A,3,01,,05,06,09,14,17,,24,25,,,2.4,1.2,2.1*3D
$GPGSV,3,1,11,01,23,311,37,04,30,050,00,05,62,134,43,06,32,229,48*7C
$GPGSV,3,2,11,09,08,167,35,14,13,253,41,17,34,137,44,20,04,345,00*79
$GPGSV,3,3,11,24,45,095,40,25,24,312,40,30,75,244,50,,,,*45
$PGRME,4.6,M,7.9,M,9.2,M*29
$GPGLL,6012.091,N,02440.461,E,142752,A*21
$PGRMZ,81,f,3*22
$PGRMM,WGS 84*06
$GPBOD,,T,,M,,*47
$GPRTE,1,1,c,0*07
$GPRMC,142753,A,6012.091,N,02440.461,E,000.0,360.0,271004,006.0,E*7F
$GPRMB,A,,,,,,,,,,,,V*71
$GPGGA,142754,6012.091,N,02440.461,E,1,08,1.2,24.4,M,19.7,M,,*79
$GPGSA,A,3,01,,05,06,09,14,17,,24,25,,,2.4,1.2,2.1*3D
$GPGSV,3,1,11,01,23,311,37,04,30,050,00,05,62,134,43,06,32,229,48*7C
$GPGSV,3,2,11,09,08,167,34,14,13,253,41,17,34,137,44,20,04,345,00*78
$GPGSV,3,3,11,24,45,095,41,25,24,312,40,30,75,244,50,,,,*44
$PGRME,4.6,M,7.9,M,9.2,M*29
$GPGLL,6012.091,N,02440.461,E,142754,A*27
$PGRMZ,80,f,3*23
$PGRMM,WGS 84*06
$GPBOD,,T,,M,,*47
$GPRTE,1,1,c,0*07
$GPRMC,142755,A,6012.091,N,02440.461,E,000.0,360.0,271004,006.0,E*79
$GPRMB,A,,,,,,,,,,,,V*71
$GPGGA,142756,6012.091,N,02440.461,E,1,08,1.1,24.3,M,19.7,M,,*7F
$GPGSA,A,3,01,,05,06,09,14,17,,24,25,30,,1.8,1.1,1.5*35
$GPGSV,3,1,11,01,23,311,39,04,30,050,00,05,62,134,43,06,32,229,48*72
$GPGSV,3,2,11,09,08,167,34,14,13,253,41,17,34,137,44,20,04,345,00*78
$GPGSV,3,3,11,24,45,095,41,25,24,312,41,30,75,244,50,,,,*45
$PGRME,4.3,M,5.8,M,7.2,M*21
$GPGLL,6012.091,N,02440.461,E,142756,A*25
$PGRMZ,79,f,3*25
$PGRMM,WGS 84*06
$GPBOD,,T,,M,,*47
$GPRTE,1,1,c,0*07
$GPRMC,142757,A,6012.091,N,02440.461,E,000.0,360.0,271004,006.0,E*7B
$GPRMB,A,,,,,,,,,,,,V*71
$GPGGA,142758,6012.091,N,02440.461,E,1,09,1.1,24.0,M,19.7,M,,*73
$GPGSA,A,3,01,,05,06,09,14,17,,24,25,30,,1.9,1.1,1.5*34
$GPGSV,3,1,11,01,23,311,41,04,30,050,00,05,62,134,42,06,32,229,48*7C
$GPGSV,3,2,11,09,08,167,34,14,13,253,41,17,34,137,44,20,04,345,00*78
$GPGSV,3,3,11,24,45,095,41,25,24,312,42,30,75,244,51,,,,*47
$PGRME,4.3,M,5.8,M,7.2,M*21
$GPGLL,6012.091,N,02440.461,E,142758,A*2B
$PGRMZ,78,f,3*24
$PGRMM,WGS 84*06
$GPBOD,,T,,M,,*47
$GPRTE,1,1,c,0*07
$GPRMC,142759,A,6012.091,N,02440.461,E,000.0,360.0,271004,006.0,E*75
$GPRMB,A,,,,,,,,,,,,V*71
$GPGGA,142800,6012.091,N,02440.461,E,1,09,1.1,23.8,M,19.7,M,,*7E
$GPGSA,A,3,01,,05,06,09,14,17,,24,25,30,,1.9,1.1,1.5*34
$GPGSV,3,1,11,01,23,311,41,04,30,050,00,05,62,134,42,06,32,229,48*7C
$GPGSV,3,2,11,09,08,167,34,14,13,253,40,17,34,137,44,20,04,345,00*79
$GPGSV,3,3,11,24,45,095,40,25,24,312,42,30,75,244,51,,,,*46
$PGRME,4.3,M,5.8,M,7.2,M*21
$GPGLL,6012.091,N,02440.461,E,142800,A*29
$PGRMZ,78,f,3*24
$PGRMM,WGS 84*06
$GPBOD,,T,,M,,*47
$GPRTE,1,1,c,0*07
$GPRMC,142801,A,6012.091,N,02440.461,E,000.0,360.0,271004,006.0,E*77
$GPRMB,A,,,,,,,,,,,,V*71
$GPGGA,142802,6012.091,N,02440.461,E,1,09,1.1,23.5,M,19.7,M,,*71
$GPGSA,A,3,01,,05,06,09,14,17,,24,25,30,,1.8,1.1,1.5*35
$GPGSV,3,1,11,01,23,311,42,04,30,050,00,05,62,134,42,06,32,229,48*7F
$GPGSV,3,2,11,09,08,167,34,14,13,253,41,17,34,137,44,20,04,345,00*78
$GPGSV,3,3,11,24,45,095,40,25,24,312,42,30,75,244,51,,,,*46
$PGRME,4.3,M,5.8,M,7.2,M*21
$GPGLL,6012.091,N,02440.461,E,142802,A*2B
$PGRMZ,77,f,3*2B
$PGRMM,WGS 84*06
$GPBOD,,T,,M,,*47
$GPRTE,1,1,c,0*07
$GPRMC,142803,A,6012.091,N,02440.461,E,000.0,360.0,271004,006.0,E*75
$GPRMB,A,,,,,,,,,,,,V*71
$GPGGA,142804,6012.091,N,02440.461,E,1,09,1.1,23.5,M,19.7,M,,*77
$GPGSA,A,3,01,,05,06,09,14,17,,24,25,30,,1.8,1.1,1.5*35
$GPGSV,3,1,11,01,23,311,42,04,30,050,00,05,62,134,41,06,32,229,48*7C
$GPGSV,3,2,11,09,08,167,34,14,13,253,40,17,34,137,44,20,04,345,00*79
$GPGSV,3,3,11,24,45,095,40,25,24,312,42,30,75,244,51,,,,*46
$PGRME,4.3,M,5.8,M,7.2,M*21
$GPGLL,6012.091,N,02440.462,E,142804,A*2E
$PGRMZ,77,f,3*2B
$PGRMM,WGS 84*06
$GPBOD,,T,,M,,*47
$GPRTE,1,1,c,0*07
$GPRMC,142805,A,6012.091,N,02440.462,E,000.0,360.0,271004,006.0,E*70
$GPRMB,A,,,,,,,,,,,,V*71
$GPGGA,142806,6012.091,N,02440.462,E,1,09,1.1,23.4,M,19.7,M,,*77
$GPGSA,A,3,01,,05,06,09,14,17,,24,25,30,,1.8,1.1,1.5*35
$GPGSV,3,1,11,01,23,311,41,04,30,050,00,05,62,134,41,06,32,229,48*7F
$GPGSV,3,2,11,09,08,167,34,14,13,253,40,17,34,137,44,20,04,345,00*79
$GPGSV,3,3,11,24,45,095,40,25,24,312,42,30,75,244,51,,,,*46
$PGRME,4.3,M,5.8,M,7.2,M*21
$GPGLL,6012.090,N,02440.462,E,142806,A*2D
$PGRMZ,77,f,3*2B
$PGRMM,WGS 84*06
$GPBOD,,T,,M,,*47
$GPRTE,1,1,c,0*07
$GPRMC,142807,A,6012.090,N,02440.462,E,000.0,360.0,271004,006.0,E*73
$GPRMB,A,,,,,,,,,,,,V*71
$GPGGA,142808,6012.090,N,02440.462,E,1,09,1.1,23.3,M,19.7,M,,*7F
$GPGSA,A,3,01,,05,06,09,14,17,,24,25,30,,1.8,1.1,1.5*35
$GPGSV,3,1,11,01,23,311,41,04,30,050,00,05,62,134,42,06,32,229,48*7C
$GPGSV,3,2,11,09,08,167,34,14,13,253,40,17,34,137,44,20,04,345,00*79
$GPGSV,3,3,11,24,45,095,40,25,24,312,41,30,75,244,51,,,,*45
$PGRME,4.3,M,5.8,M,7.2,M*21
$GPGLL,6012.090,N,02440.462,E,142808,A*23
$PGRMZ,77,f,3*2B
$PGRMM,WGS 84*06
$GPBOD,,T,,M,,*47
$GPRTE,1,1,c,0*07
$GPRMC,142809,A,6012.090,N,02440.462,E,000.0,360.0,271004,006.0,E*7D
$GPRMB,A,,,,,,,,,,,,V*71
$GPGGA,142810,6012.090,N,02440.462,E,1,09,1.1,23.4,M,19.7,M,,*71
$GPGSA,A,3,01,,05,06,09,14,17,,24,25,30,,1.9,1.1,1.5*34
$GPGSV,3,1,11,01,23,311,41,04,30,050,00,05,62,134,42,06,32,229,48*7C
$GPGSV,3,2,11,09,08,167,33,14,13,253,40,17,34,137,44,20,04,345,00*7E
$GPGSV,3,3,11,24,45,095,41,25,24,312,41,30,75,244,51,,,,*44
$PGRME,4.3,M,5.8,M,7.2,M*21
$GPGLL,6012.090,N,02440.461,E,142810,A*29
$PGRMZ,77,f,3*2B
$PGRMM,WGS 84*06
$GPBOD,,T,,M,,*47
$GPRTE,1,1,c,0*07
$GPRMC,142811,A,6012.090,N,02440.461,E,000.0,360.0,271004,006.0,E*77
$GPRMB,A,,,,,,,,,,,,V*71
$GPGGA,142812,6012.090,N,02440.461,E,1,09,1.1,23.4,M,19.7,M,,*70
$GPGSA,A,3,01,,05,06,09,14,17,,24,25,30,,1.9,1.1,1.5*34
$GPGSV,3,1,11,01,23,311,41,04,30,050,30,05,62,134,42,06,32,229,48*7F
$GPGSV,3,2,11,09,08,167,33,14,13,253,40,17,34,137,44,20,04,345,00*7E
$GPGSV,3,3,11,24,45,095,40,25,25,312,41,30,75,244,51,,,,*44
$PGRME,4.3,M,5.8,M,7.2,M*21
$GPGLL,6012.090,N,02440.461,E,142812,A*2B
$PGRMZ,76,f,3*2A
$PGRMM,WGS 84*06
$GPBOD,,T,,M,,*47
$GPRTE,1,1,c,0*07
$GPRMC,142813,A,6012.090,N,02440.461,E,000.0,360.0,271004,006.0,E*75
$GPRMB,A,,,,,,,,,,,,V*71
$GPGGA,142814,6012.090,N,02440.461,E,1,09,1.1,23.0,M,19.7,M,,*72
$GPGSA,A,3,01,,05,06,09,14,17,,24,25,30,,1.8,1.1,1.5*35
$GPGSV,3,1,11,01,23,311,41,04,30,050,30,05,62,134,43,06,32,229,48*7E
$GPGSV,3,2,11,09,08,167,34,14,13,253,40,17,34,137,44,20,04,345,00*79
$GPGSV,3,3,11,24,45,094,40,25,25,312,41,30,75,244,51,,,,*45
$PGRME,4.3,M,5.8,M,7.2,M*21
$GPGLL,6012.090,N,02440.461,E,142814,A*2D
$PGRMZ,75,f,3*29
$PGRMM,WGS 84*06
$GPBOD,,T,,M,,*47
$GPRTE,1,1,c,0*07
$GPRMC,142815,A,6012.090,N,02440.461,E,000.0,360.0,271004,006.0,E*73
$GPRMB,A,,,,,,,,,,,,V*71
$GPGGA,142816,6012.090,N,02440.461,E,1,09,1.1,22.5,M,19.7,M,,*74
$GPGSA,A,3,01,,05,06,09,14,17,,24,25,30,,1.9,1.1,1.5*34
$GPGSV,3,1,11,01,23,311,41,04,30,050,00,05,62,134,43,06,32,229,48*7D
$GPGSV,3,2,11,09,08,167,34,14,13,253,40,17,34,137,44,20,04,345,00*79
$GPGSV,3,3,11,24,45,094,39,25,25,312,41,30,75,244,51,,,,*4B
$PGRME,4.3,M,5.8,M,7.2,M*21
$GPGLL,6012.090,N,02440.461,E,142816,A*2F
$PGRMZ,73,f,3*2F
$PGRMM,WGS 84*06
$GPBOD,,T,,M,,*47
$GPRTE,1,1,c,0*07
$GPRMC,142817,A,6012.090,N,02440.461,E,000.0,360.0,271004,006.0,E*71
$GPRMB,A,,,,,,,,,,,,V*71
$GPGGA,142818,6012.090,N,02440.461,E,1,09,1.1,22.0,M,19.7,M,,*7F
$GPGSA,A,3,01,,05,06,09,14,17,,24,25,30,,1.9,1.1,1.5*34
$GPGSV,3,1,11,01,23,311,41,04,30,050,00,05,62,134,43,06,32,229,48*7D
$GPGSV,3,2,11,09,08,167,33,14,13,253,40,17,34,137,44,20,04,345,00*7E
$GPGSV,3,3,11,24,45,094,38,25,25,312,41,30,75,244,51,,,,*4A
$PGRME,4.3,M,5.8,M,7.2,M*21
$GPGLL,6012.090,N,02440.461,E,142818,A*21
$PGRMZ,71,f,3*2D
$PGRMM,WGS 84*06
$GPBOD,,T,,M,,*47
$GPRTE,1,1,c,0*07
$GPRMC,142819,A,6012.090,N,02440.461,E,000.0,360.0,271004,006.0,E*7F
$GPRMB,A,,,,,,,,,,,,V*71
$GPGGA,142820,6012.090,N,02440.461,E,1,09,1.1,21.5,M,19.7,M,,*72
$GPGSA,A,3,01,,05,06,09,14,17,,24,25,30,,1.9,1.1,1.5*34
$GPGSV,3,1,11,01,23,311,41,04,30,050,00,05,62,134,42,06,32,229,48*7C
$GPGSV,3,2,11,09,08,167,34,14,13,253,40,17,34,137,43,20,04,345,00*7E
$GPGSV,3,3,11,24,45,094,37,25,25,312,41,30,75,244,51,,,,*45
$PGRME,4.3,M,5.8,M,7.2,M*21
$GPGLL,6012.090,N,02440.461,E,142820,A*2A
$PGRMZ,70,f,3*2C
$PGRMM,WGS 84*06
$GPBOD,,T,,M,,*47
$GPRTE,1,1,c,0*07
$GPRMC,142821,A,6012.090,N,02440.461,E,000.0,360.0,271004,006.0,E*74
$GPRMB,A,,,,,,,,,,,,V*71
$GPGGA,142822,6012.090,N,02440.461,E,1,09,1.1,21.1,M,19.7,M,,*74
$GPGSA,A,3,01,,05,06,09,14,17,,24,25,30,,1.9,1.1,1.5*34
$GPGSV,3,1,11,01,23,311,40,04,30,050,00,05,62,134,42,06,32,229,48*7D
$GPGSV,3,2,11,09,08,167,34,14,13,253,40,17,34,137,43,20,04,345,00*7E
$GPGSV,3,3,11,24,45,094,36,25,25,312,41,30,75,244,51,,,,*44
$PGRME,4.3,M,5.8,M,7.2,M*21
$GPGLL,6012.090,N,02440.461,E,142822,A*28
$PGRMZ,69,f,3*24
$PGRMM,WGS 84*06
$GPBOD,,T,,M,,*47
$GPRTE,1,1,c,0*07
$GPRMC,142823,A,6012.090,N,02440.462,E,000.0,360.0,271004,006.0,E*75
$GPRMB,A,,,,,,,,,,,,V*71
$GPGGA,142824,6012.090,N,02440.462,E,1,09,1.1,20.8,M,19.7,M,,*79
$GPGSA,A,3,01,,05,06,09,14,17,,24,25,30,,1.9,1.1,1.6*37
$GPGSV,3,1,11,01,23,311,40,04,30,050,00,05,62,134,42,06,32,229,48*7D
$GPGSV,3,2,11,09,08,167,33,14,13,253,40,17,34,137,43,20,04,345,00*79
$GPGSV,3,3,11,24,45,094,36,25,25,312,41,30,75,244,51,,,,*44
$PGRME,4.3,M,5.8,M,7.2,M*21
$GPGLL,6012.090,N,02440.462,E,142824,A*2D
$PGRMZ,68,f,3*25
$PGRMM,WGS 84*06
$GPBOD,,T,,M,,*47
$GPRTE,1,1,c,0*07
$GPRMC,142825,A,6012.090,N,02440.462,E,000.0,360.0,271004,006.0,E*73
$GPRMB,A,,,,,,,,,,,,V*71
$GPGGA,142826,6012.090,N,02440.462,E,1,09,1.1,20.6,M,19.7,M,,*75
$GPGSA,A,3,01,,05,06,09,14,17,,24,25,30,,2.0,1.1,1.6*3D
$GPGSV,3,1,11,01,23,311,40,04,30,050,00,05,62,134,41,06,32,229,48*7E
$GPGSV,3,2,11,09,08,167,33,14,13,253,40,17,34,137,42,20,04,345,00*78
$GPGSV,3,3,11,24,45,094,36,25,25,312,41,30,75,244,51,,,,*44
$PGRME,4.3,M,5.8,M,7.2,M*21
$GPGLL,6012.090,N,02440.463,E,142826,A*2E
$PGRMZ,67,f,3*2A
$PGRMM,WGS 84*06
$GPBOD,,T,,M,,*47
$GPRTE,1,1,c,0*07
$GPRMC,142828,A,6012.090,N,02440.463,E,000.0,360.0,271004,006.0,E*7F
$GPRMB,A,,,,,,,,,,,,V*71
$GPGGA,142828,6012.090,N,02440.463,E,1,09,1.1,20.5,M,19.7,M,,*79
$GPGSA,A,3,01,,05,06,09,14,17,,24,25,30,,2.0,1.1,1.6*3D
$GPGSV,3,1,11,01,23,311,40,04,30,050,00,05,62,134,41,06,32,229,47*71
$GPGSV,3,2,11,09,08,167,32,14,13,253,40,17,34,137,42,20,04,345,00*79
$GPGSV,3,3,11,24,45,094,36,25,25,312,42,30,75,244,51,,,,*47
$PGRME,4.3,M,5.8,M,7.2,M*21
$GPGLL,6012.090,N,02440.463,E,142828,A*20
$PGRMZ,67,f,3*2A
$PGRMM,WGS 84*06
$GPBOD,,T,,M,,*47
$GPRTE,1,1,c,0*07
$GPRMC,142830,A,6012.090,N,02440.463,E,000.0,360.0,271004,006.0,E*76
$GPRMB,A,,,,,,,,,,,,V*71
$GPGGA,142830,6012.090,N,02440.463,E,1,09,1.1,20.6,M,19.7,M,,*73
$GPGSA,A,3,01,,05,06,09,14,17,,24,25,30,,2.0,1.1,1.6*3D
$GPGSV,3,1,11,01,23,311,40,04,30,050,00,05,62,134,41,06,32,229,48*7E
$GPGSV,3,2,11,09,08,167,32,14,13,253,40,17,34,137,42,20,04,345,00*79
$GPGSV,3,3,11,24,45,094,37,25,25,312,42,30,75,244,51,,,,*46
$PGRME,4.3,M,5.8,M,7.2,M*21
$GPGLL,6012.090,N,02440.463,E,142830,A*29
$PGRMZ,67,f,3*2A
$PGRMM,WGS 84*06
$GPBOD,,T,,M,,*47
$GPRTE,1,1,c,0*07
$GPRMC,142832,A,6012.090,N,02440.463,E,000.0,360.0,271004,006.0,E*74
$GPRMB,A,,,,,,,,,,,,V*71
$GPGGA,142832,6012.090,N,02440.463,E,1,09,1.1,20.6,M,19.7,M,,*71
$GPGSA,A,3,01,,05,06,09,14,17,,24,25,30,,2.0,1.1,1.6*3D
$GPGSV,3,1,11,01,23,311,40,04,30,050,00,05,62,134,41,06,32,229,48*7E
$GPGSV,3,2,11,09,08,167,31,14,13,253,40,17,34,137,42,20,04,345,00*7A
$GPGSV,3,3,11,24,45,094,38,25,25,312,42,30,75,244,51,,,,*49
$PGRME,4.3,M,5.8,M,7.2,M*21
$GPGLL,6012.090,N,02440.463,E,142832,A*2B
$PGRMZ,68,f,3*25
$PGRMM,WGS 84*06
$GPBOD,,T,,M,,*47
$GPRTE,1,1,c,0*07
$GPRMC,142834,A,6012.090,N,02440.463,E,000.0,360.0,271004,006.0,E*72
$GPRMB,A,,,,,,,,,,,,V*71
$GPGGA,142834,6012.090,N,02440.463,E,1,09,1.1,20.7,M,19.7,M,,*76
$GPGSA,A,3,01,,05,06,09,14,17,,24,25,30,,1.8,1.1,1.5*35
$GPGSV,3,1,11,01,23,311,40,04,30,050,30,05,62,134,40,06,32,229,48*7C
$GPGSV,3,2,11,09,08,167,32,14,13,253,40,17,34,137,42,20,04,345,00*79
$GPGSV,3,3,11,24,45,094,38,25,25,312,42,30,75,244,51,,,,*49
$PGRME,4.3,M,5.8,M,7.2,M*21
$GPGLL,6012.090,N,02440.463,E,142834,A*2D
$PGRMZ,68,f,3*25
$PGRMM,WGS 84*06
$GPBOD,,T,,M,,*47
$GPRTE,1,1,c,0*07
$GPRMC,142836,A,6012.089,N,02440.463,E,000.0,360.0,271004,006.0,E*78
$GPRMB,A,,,,,,,,,,,,V*71
$GPGGA,142836,6012.089,N,02440.463,E,1,09,1.1,20.9,M,19.7,M,,*72
$GPGSA,A,3,01,,05,06,09,14,17,,24,25,30,,1.9,1.1,1.5*34
$GPGSV,3,1,11,01,23,311,39,04,30,050,30,05,62,134,40,06,32,229,48*72
$GPGSV,3,2,11,09,08,167,31,14,13,253,40,17,34,137,42,20,04,345,00*7A
$GPGSV,3,3,11,24,45,094,38,25,25,312,42,30,75,244,51,,,,*49
$PGRME,4.3,M,5.8,M,7.2,M*21
$GPGLL,6012.089,N,02440.463,E,142836,A*27
$PGRMZ,69,f,3*24
$PGRMM,WGS 84*06
$GPBOD,,T,,M,,*47
$GPRTE,1,1,c,0*07
$GPRMC,142838,A,6012.089,N,02440.463,E,000.0,360.0,271004,006.0,E*76
$GPRMB,A,,,,,,,,,,,,V*71
$GPGGA,142838,6012.089,N,02440.463,E,1,09,1.1,21.3,M,19.7,M,,*77
$GPGSA,A,3,01,,05,06,09,14,17,,24,25,30,,1.9,1.1,1.5*34
$GPGSV,3,1,11,01,23,311,39,04,30,050,31,05,62,134,40,06,32,229,48*73
$GPGSV,3,2,11,09,08,167,31,14,13,253,40,17,34,137,43,20,04,345,00*7B
$GPGSV,3,3,11,24,45,094,39,25,25,312,42,30,75,241,51,,,,*4D
$PGRME,4.3,M,5.8,M,7.2,M*21
$GPGLL,6012.089,N,02440.462,E,142838,A*28
$PGRMZ,70,f,3*2C
$PGRMM,WGS 84*06
$GPBOD,,T,,M,,*47
$GPRTE,1,1,c,0*07
$GPRMC,142840,A,6012.089,N,02440.462,E,000.0,360.0,271004,006.0,E*78
$GPRMB,A,,,,,,,,,,,,V*71
$GPGGA,142840,6012.089,N,02440.462,E,1,09,1.1,21.7,M,19.7,M,,*7D
$GPGSA,A,3,01,,05,06,09,14,17,,24,25,30,,1.9,1.1,1.5*34
$GPGSV,3,1,11,01,23,311,39,04,30,050,31,05,62,134,40,06,32,229,47*7C
$GPGSV,3,2,11,09,08,167,31,14,13,253,39,17,34,137,43,20,04,345,00*75
$GPGSV,3,3,11,24,45,094,39,25,25,312,42,30,75,241,51,,,,*4D
$PGRME,4.3,M,5.8,M,7.2,M*21
$GPGLL,6012.089,N,02440.462,E,142840,A*27
$PGRMZ,71,f,3*2D
$PGRMM,WGS 84*06
$GPBOD,,T,,M,,*47
$GPRTE,1,1,c,0*07
$GPRMC,142842,A,6012.089,N,02440.462,E,000.0,360.0,271004,006.0,E*7A
$GPRMB,A,,,,,,,,,,,,V*71
$GPGGA,142842,6012.089,N,02440.462,E,1,09,1.1,22.0,M,19.7,M,,*7B
$GPGSA,A,3,01,,05,06,09,14,17,,24,25,30,,1.9,1.1,1.5*34
$GPGSV,3,1,11,01,23,311,39,04,30,050,31,05,62,134,40,06,32,229,47*7C
$GPGSV,3,2,11,09,08,167,31,14,13,253,39,17,34,137,43,20,04,345,00*75
$GPGSV,3,3,11,24,45,094,39,25,25,312,41,30,75,241,51,,,,*4E
$PGRME,4.3,M,5.8,M,7.2,M*21
$GPGLL,6012.089,N,02440.462,E,142842,A*25
$PGRMZ,72,f,3*2E
$PGRMM,WGS 84*06
$GPBOD,,T,,M,,*47
$GPRTE,1,1,c,0*07
$GPRMC,142844,A,6012.089,N,02440.462,E,000.0,360.0,271004,006.0,E*7C
$GPRMB,A,,,,,,,,,,,,V*71
$GPGGA,142844,6012.089,N,02440.462,E,1,09,1.1,22.4,M,19.7,M,,*79
$GPGSA,A,3,01,,05,06,09,14,17,,24,25,30,,1.9,1.1,1.5*34
$GPGSV,3,1,11,01,23,311,39,04,30,050,31,05,62,134,39,06,32,229,47*72
$GPGSV,3,2,11,09,08,167,31,14,13,253,39,17,34,137,43,20,04,345,00*75
$GPGSV,3,3,11,24,45,094,38,25,25,312,41,30,75,241,51,,,,*4F
$PGRME,4.3,M,5.8,M,7.2,M*21
$GPGLL,6012.089,N,02440.462,E,142844,A*23
$PGRMZ,74,f,3*28
$PGRMM,WGS 84*06
$GPBOD,,T,,M,,*47
$GPRTE,1,1,c,0*07
$GPRMC,142846,A,6012.089,N,02440.462,E,000.0,360.0,271004,006.0,E*7E
$GPRMB,A,,,,,,,,,,,,V*71
$GPGGA,142846,6012.089,N,02440.462,E,1,09,1.1,22.6,M,19.7,M,,*79
$GPGSA,A,3,01,,05,06,09,14,17,,24,25,30,,1.9,1.1,1.6*37
$GPGSV,3,1,11,01,23,311,39,04,30,050,31,05,62,134,39,06,32,229,48*7D
$GPGSV,3,2,11,09,08,167,30,14,13,253,39,17,34,137,43,20,04,345,00*74
$GPGSV,3,3,11,24,45,094,38,25,25,312,41,30,75,241,51,,,,*4F
$PGRME,4.3,M,5.8,M,7.2,M*21
$GPGLL,6012.089,N,02440.462,E,142846,A*21
$PGRMZ,74,f,3*28
$PGRMM,WGS 84*06
$GPBOD,,T,,M,,*47
$GPRTE,1,1,c,0*07
$GPRMC,142848,A,6012.088,N,02440.462,E,000.0,360.0,271004,006.0,E*71
$GPRMB,A,,,,,,,,,,,,V*71
$GPGGA,142848,6012.088,N,02440.462,E,1,09,1.1,22.8,M,19.7,M,,*78
$GPGSA,A,3,01,,05,06,09,14,17,,24,25,30,,1.9,1.1,1.6*37
$GPGSV,3,1,11,01,23,311,39,04,30,050,31,05,62,134,40,06,32,229,48*73
$GPGSV,3,2,11,09,08,167,30,14,13,253,39,17,34,137,43,20,04,345,00*74
$GPGSV,3,3,11,24,45,094,38,25,25,312,41,30,75,241,51,,,,*4F
$PGRME,4.3,M,5.8,M,7.2,M*21
$GPGLL,6012.088,N,02440.462,E,142848,A*2E
$PGRMZ,75,f,3*29
$PGRMM,WGS 84*06
$GPBOD,,T,,M,,*47
$GPRTE,1,1,c,0*07
$GPRMC,142850,A,6012.088,N,02440.462,E,000.0,360.0,271004,006.0,E*78
$GPRMB,A,,,,,,,,,,,,V*71
$GPGGA,142850,6012.088,N,02440.462,E,1,09,1.1,22.8,M,19.7,M,,*71
$GPGSA,A,3,01,,05,06,09,14,17,,24,25,30,,1.9,1.1,1.6*37
$GPGSV,3,1,11,01,23,310,38,04,30,050,30,05,62,134,40,06,32,229,48*72
$GPGSV,3,2,11,09,08,167,30,14,13,253,39,17,34,137,42,20,04,345,00*75
$GPGSV,3,3,11,24,45,094,38,25,25,312,41,30,75,241,51,,,,*4F
$PGRME,4.3,M,5.8,M,7.2,M*21
$GPGLL,6012.088,N,02440.462,E,142850,A*27
$PGRMZ,74,f,3*28
$PGRMM,WGS 84*06
$GPBOD,,T,,M,,*47
$GPRTE,1,1,c,0*07
$GPRMC,142852,A,6012.088,N,02440.462,E,000.0,360.0,271004,006.0,E*7A
$GPRMB,A,,,,,,,,,,,,V*71
$GPGGA,142852,6012.088,N,02440.462,E,1,09,1.1,22.6,M,19.7,M,,*7D
$GPGSA,A,3,01,,05,06,09,14,17,,24,25,30,,1.9,1.1,1.6*37
$GPGSV,3,1,11,01,23,310,38,04,30,050,31,05,62,134,40,06,32,229,48*73
$GPGSV,3,2,11,09,08,167,30,14,13,253,39,17,34,137,42,20,04,345,00*75
$GPGSV,3,3,11,24,45,094,38,25,25,312,41,30,75,241,51,,,,*4F
$PGRME,4.3,M,5.8,M,7.2,M*21
$GPGLL,6012.088,N,02440.462,E,142852,A*25
$PGRMZ,74,f,3*28
$PGRMM,WGS 84*06
$GPBOD,,T,,M,,*47
$GPRTE,1,1,c,0*07
$GPRMC,142854,A,6012.088,N,02440.463,E,000.0,360.0,271004,006.0,E*7D
$GPRMB,A,,,,,,,,,,,,V*71
$GPGGA,142854,6012.088,N,02440.463,E,1,09,1.1,22.4,M,19.7,M,,*78
$GPGSA,A,3,01,,05,06,09,14,17,,24,25,30,,1.9,1.1,1.6*37
$GPGSV,3,1,11,01,23,310,38,04,30,050,31,05,62,134,40,06,32,229,48*73
$GPGSV,3,2,11,09,08,167,30,14,13,253,39,17,34,137,42,20,04,345,00*75
$GPGSV,3,3,11,24,45,094,37,25,25,312,41,30,75,241,51,,,,*40
$PGRME,4.3,M,5.8,M,7.2,M*21
$GPGLL,6012.088,N,02440.463,E,142854,A*22
$PGRMZ,73,f,3*2F
$PGRMM,WGS 84*06
$GPBOD,,T,,M,,*47
$GPRTE,1,1,c,0*07
$GPRMC,142856,A,6012.088,N,02440.463,E,000.0,360.0,271004,006.0,E*7F
$GPRMB,A,,,,,,,,,,,,V*71
$GPGGA,142856,6012.088,N,02440.463,E,1,09,1.1,21.9,M,19.7,M,,*74
$GPGSA,A,3,01,,05,06,09,14,17,,24,25,30,,1.9,1.1,1.6*37
$GPGSV,3,1,11,01,23,310,37,04,30,050,30,05,62,134,41,06,32,229,48*7C
$GPGSV,3,2,11,09,08,167,30,14,13,253,38,17,34,137,42,20,04,345,00*74
$GPGSV,3,3,11,24,45,094,37,25,25,312,41,30,75,241,51,,,,*40
$PGRME,4.3,M,6.0,M,7.4,M*2C
$GPGLL,6012.088,N,02440.463,E,142856,A*20
$PGRMZ,71,f,3*2D
$PGRMM,WGS 84*06
$GPBOD,,T,,M,,*47
$GPRTE,1,1,c,0*07
$GPRMC,142858,A,6012.088,N,02440.463,E,000.0,360.0,271004,006.0,E*71
$GPRMB,A,,,,,,,,,,,,V*71
$GPGGA,142858,6012.088,N,02440.463,E,1,09,1.1,21.3,M,19.7,M,,*70
$GPGSA,A,3,01,,05,06,09,14,17,,24,25,30,,1.9,1.1,1.6*37
$GPGSV,3,1,11,01,23,310,37,04,30,050,30,05,62,134,41,06,32,229,48*7C
$GPGSV,3,2,11,09,08,167,30,14,13,253,38,17,34,137,42,20,04,345,00*74
$GPGSV,3,3,11,24,45,094,38,25,25,312,41,30,75,241,51,,,,*4F
$PGRME,4.3,M,6.0,M,7.4,M*2C
$GPGLL,6012.088,N,02440.463,E,142858,A*2E
$PGRMZ,70,f,3*2C
$PGRMM,WGS 84*06
$GPBOD,,T,,M,,*47
$GPRTE,1,1,c,0*07
$GPRMC,142900,A,6012.088,N,02440.463,E,000.0,360.0,271004,006.0,E*7D
$GPRMB,A,,,,,,,,,,,,V*71
$GPGGA,142900,6012.088,N,02440.463,E,1,09,1.1,21.3,M,19.7,M,,*7C
$GPGSA,A,3,01,,05,06,09,14,17,,24,25,30,,2.0,1.1,1.6*3D
$GPGSV,3,1,11,01,23,310,36,04,30,050,30,05,62,134,41,06,32,229,48*7D
$GPGSV,3,2,11,09,08,167,30,14,13,253,38,17,34,137,42,20,04,345,00*74
$GPGSV,3,3,11,24,45,094,38,25,25,312,41,30,75,241,51,,,,*4F
$PGRME,4.3,M,5.8,M,7.2,M*21
$GPGLL,6012.088,N,02440.463,E,142900,A*22
$PGRMZ,69,f,3*24
$PGRMM,WGS 84*06
$GPBOD,,T,,M,,*47
$GPRTE,1,1,c,0*07
$GPRMC,142902,A,6012.088,N,02440.463,E,000.0,360.0,271004,006.0,E*7F
$GPRMB,A,,,,,,,,,,,,V*71
$GPGGA,142902,6012.088,N,02440.463,E,1,09,1.1,21.0,M,19.7,M,,*7D
$GPGSA,A,3,01,,05,06,09,14,17,,24,25,30,,2.1,1.2,1.7*3E
$GPGSV,3,1,11,01,23,310,35,04,29,049,30,05,62,134,41,06,32,229,48*7E
$GPGSV,3,2,11,09,08,167,30,14,13,253,38,17,34,137,42,20,04,345,00*74
$GPGSV,3,3,11,24,45,094,38,25,25,312,41,30,75,241,51,,,,*4F
$PGRME,4.3,M,5.8,M,7.2,M*21
$GPGLL,6012.088,N,02440.463,E,142902,A*20
$PGRMZ,68,f,3*25
$PGRMM,WGS 84*06
$GPBOD,,T,,M,,*47
$GPRTE,1,1,c,0*07
$GPRMC,142904,A,6012.088,N,02440.463,E,000.0,360.0,271004,006.0,E*79
$GPRMB,A,,,,,,,,,,,,V*71
$GPGGA,142904,6012.088,N,02440.463,E,1,09,1.2,20.5,M,19.7,M,,*7C
$GPGSA,A,3,01,,05,06,09,14,17,,24,25,30,,2.1,1.2,1.7*3E
$GPGSV,3,1,11,01,23,310,34,04,29,049,30,05,62,134,41,06,32,229,48*7F
$GPGSV,3,2,11,09,08,167,30,14,13,253,38,17,34,137,42,20,04,345,00*74
$GPGSV,3,3,11,24,45,094,37,25,25,312,41,30,75,241,50,,,,*41
$PGRME,4.3,M,5.8,M,7.2,M*21
$GPGLL,6012.088,N,02440.463,E,142904,A*26
$PGRMZ,66,f,3*2B
$PGRMM,WGS 84*06
$GPBOD,,T,,M,,*47
$GPRTE,1,1,c,0*07
$GPRMC,142906,A,6012.088,N,02440.464,E,000.0,360.0,271004,006.0,E*7C
$GPRMB,A,,,,,,,,,,,,V*71
$GPGGA,142906,6012.088,N,02440.464,E,1,09,1.2,19.8,M,19.7,M,,*7E
$GPGSA,A,3,01,,05,06,09,14,17,,24,25,30,,2.1,1.2,1.7*3E
$GPGSV,3,1,11,01,23,310,32,04,29,049,30,05,61,134,41,06,32,229,49*7B
$GPGSV,3,2,11,09,08,167,30,14,13,253,38,17,34,137,43,20,04,345,00*75
$GPGSV,3,3,11,24,45,094,37,25,25,312,41,30,75,241,50,,,,*41
$PGRME,4.3,M,5.8,M,7.2,M*21
$GPGLL,6012.088,N,02440.464,E,142906,A*23
$PGRMZ,64,f,3*29
$PGRMM,WGS 84*06
$GPBOD,,T,,M,,*47
$GPRTE,1,1,c,0*07
$GPRMC,142908,A,6012.088,N,02440.464,E,000.0,360.0,271004,006.0,E*72
$GPRMB,A,,,,,,,,,,,,V*71
$GPGGA,142908,6012.088,N,02440.464,E,1,09,1.2,19.3,M,19.7,M,,*7B
$GPGSA,A,3,01,,05,06,09,14,17,,24,25,30,,2.1,1.2,1.7*3E
$GPGSV,3,1,11,01,23,310,31,04,29,049,30,05,61,134,41,06,32,229,49*78
$GPGSV,3,2,11,09,08,167,30,14,13,253,38,17,34,137,43,20,04,345,00*75
$GPGSV,3,3,11,24,45,094,37,25,25,312,41,30,75,241,50,,,,*41
$PGRME,4.3,M,5.8,M,7.2,M*21
$GPGLL,6012.088,N,02440.464,E,142908,A*2D
$PGRMZ,63,f,3*2E
$PGRMM,WGS 84*06
$GPBOD,,T,,M,,*47
$GPRTE,1,1,c,0*07
$GPRMC,142910,A,6012.089,N,02440.464,E,000.0,360.0,271004,006.0,E*7A
$GPRMB,A,,,,,,,,,,,,V*71
$GPGGA,142910,6012.089,N,02440.464,E,1,09,1.2,18.9,M,19.7,M,,*78
$GPGSA,A,3,01,,05,06,09,14,17,,24,25,30,,2.1,1.2,1.7*3E
$GPGSV,3,1,11,01,23,310,31,04,29,049,30,05,61,134,41,06,33,229,49*79
$GPGSV,3,2,11,09,08,167,30,14,13,253,38,17,34,137,43,20,04,345,00*75
$GPGSV,3,3,11,24,45,094,37,25,25,312,41,30,75,241,50,,,,*41
$PGRME,4.3,M,5.8,M,7.3,M*20
$GPGLL,6012.088,N,02440.464,E,142910,A*24
$PGRMZ,63,f,3*2E
$PGRMM,WGS 84*06
$GPBOD,,T,,M,,*47
$GPRTE,1,1,c,0*07
$GPRMC,142912,A,6012.088,N,02440.464,E,000.0,360.0,271004,006.0,E*79
$GPRMB,A,,,,,,,,,,,,V*71
$GPGGA,142912,6012.088,N,02440.464,E,1,09,1.2,19.4,M,19.7,M,,*77
$GPGSA,A,3,01,,05,06,09,14,17,,24,25,30,,2.1,1.2,1.7*3E
$GPGSV,3,1,11,01,23,310,31,04,29,049,30,05,61,134,41,06,33,229,49*79
$GPGSV,3,2,11,09,08,167,30,14,13,253,38,17,34,137,43,20,04,345,00*75
$GPGSV,3,3,11,24,45,094,37,25,25,312,41,30,75,241,49,,,,*49
$PGRME,4.3,M,5.8,M,7.3,M*20
$GPGLL,6012.088,N,02440.464,E,142912,A*26
$PGRMZ,64,f,3*29
$PGRMM,WGS 84*06
$GPBOD,,T,,M,,*47
$GPRTE,1,1,c,0*07
$GPRMC,142914,A,6012.088,N,02440.464,E,000.0,360.0,271004,006.0,E*7F
$GPRMB,A,,,,,,,,,,,,V*71
$GPGGA,142914,6012.088,N,02440.464,E,1,09,1.2,20.0,M,19.7,M,,*7F
$GPGSA,A,3,01,,05,06,09,14,17,,24,25,30,,2.1,1.2,1.7*3E
$GPGSV,3,1,11,01,23,310,31,04,29,049,31,05,61,134,41,06,33,229,49*78
$GPGSV,3,2,11,09,08,167,30,14,13,253,38,17,34,137,43,20,04,345,00*75
$GPGSV,3,3,11,24,45,094,37,25,25,312,40,30,75,241,49,,,,*48
$PGRME,4.3,M,5.8,M,7.3,M*20
$GPGLL,6012.088,N,02440.464,E,142914,A*20
$PGRMZ,66,f,3*2B
$PGRMM,WGS 84*06
$GPBOD,,T,,M,,*47
$GPRTE,1,1,c,0*07
$GPRMC,142916,A,6012.088,N,02440.464,E,000.0,360.0,271004,006.0,E*7D
$GPRMB,A,,,,,,,,,,,,V*71
$GPGGA,142916,6012.088,N,02440.464,E,1,09,1.2,20.2,M,19.7,M,,*7F
$GPGSA,A,3,01,,05,06,09,14,17,,24,25,30,,2.1,1.2,1.7*3E
$GPGSV,3,1,11,01,23,310,31,04,29,049,31,05,61,134,41,06,33,229,50*70
$GPGSV,3,2,11,09,08,167,30,14,13,253,39,17,34,137,43,20,04,345,00*74
$GPGSV,3,3,11,24,45,094,37,25,25,312,40,30,75,241,49,,,,*48
$PGRME,4.3,M,5.8,M,7.3,M*20
$GPGLL,6012.088,N,02440.464,E,142916,A*22
$PGRMZ,67,f,3*2A
$PGRMM,WGS 84*06
$GPBOD,,T,,M,,*47
$GPRTE,1,1,c,0*07
$GPRMC,142918,A,6012.088,N,02440.463,E,000.0,360.0,271004,006.0,E*74
$GPRMB,A,,,,,,,,,,,,V*71
$GPGGA,142918,6012.088,N,02440.463,E,1,09,1.2,20.9,M,19.7,M,,*7D
$GPGSA,A,3,01,,05,06,09,14,17,,24,25,30,,2.1,1.2,1.8*31
$GPGSV,3,1,11,01,23,310,31,04,29,049,31,05,61,134,41,06,33,229,50*70
$GPGSV,3,2,11,09,08,167,30,14,13,253,39,17,34,137,43,20,04,345,00*74
$GPGSV,3,3,11,24,45,094,37,25,25,312,40,30,75,241,49,,,,*48
$PGRME,4.3,M,5.8,M,7.3,M*20
$GPGLL,6012.088,N,02440.463,E,142918,A*2B
$PGRMZ,68,f,3*25
$PGRMM,WGS 84*06
$GPBOD,,T,,M,,*47
$GPRTE,1,1,c,0*07
$GPRMC,142919,A,6012.089,N,02440.463,E,000.0,360.0,271004,006.0,E*74
$GPRMB,A,,,,,,,,,,,,V*71
$GPGGA,142920,6012.089,N,02440.463,E,1,09,1.2,21.1,M,19.7,M,,*7E
$GPGSA,A,3,,,05,06,09,14,17,,24,25,30,,2.1,1.2,1.8*30
$GPGSV,3,1,11,01,23,310,30,04,29,049,31,05,61,134,40,06,33,229,50*70
$GPGSV,3,2,11,09,08,167,30,14,13,253,39,17,34,137,43,20,04,345,00*74
$GPGSV,3,3,11,24,45,094,36,25,25,312,39,30,75,241,49,,,,*47
$PGRME,4.4,M,6.0,M,7.5,M*2A
$GPGLL,6012.089,N,02440.463,E,142920,A*21
$PGRMZ,70,f,3*2C
$PGRMM,WGS 84*06
$GPBOD,,T,,M,,*47
$GPRTE,1,1,c,0*07
$GPRMC,142922,A,6012.089,N,02440.463,E,000.0,360.0,271004,006.0,E*7C
$GPRMB,A,,,,,,,,,,,,V*71
$GPGGA,142922,6012.089,N,02440.463,E,1,08,1.2,21.4,M,19.7,M,,*78
$GPGSA,A,3,01,,05,06,09,14,17,,24,25,30,,2.1,1.2,1.8*31
$GPGSV,3,1,11,01,23,310,31,04,29,049,31,05,61,134,40,06,33,229,50*71
$GPGSV,3,2,11,09,07,167,31,14,13,253,39,17,34,137,43,20,04,345,00*7A
$GPGSV,3,3,11,24,45,094,37,25,25,312,39,30,75,241,49,,,,*46
$PGRME,4.3,M,5.8,M,7.2,M*21
$GPGLL,6012.088,N,02440.463,E,142922,A*22
$PGRMZ,72,f,3*2E
$PGRMM,WGS 84*06
$GPBOD,,T,,M,,*47
$GPRTE,1,1,c,0*07
$GPRMC,142924,A,6012.088,N,02440.463,E,000.0,360.0,271004,006.0,E*7B
$GPRMB,A,,,,,,,,,,,,V*71
$GPGGA,142924,6012.088,N,02440.463,E,1,09,1.2,22.4,M,19.7,M,,*7D
$GPGSA,A,3,01,,05,06,09,14,17,,24,25,30,,2.1,1.2,1.8*31
$GPGSV,3,1,11,01,23,310,32,04,29,049,31,05,61,134,39,06,33,229,50*7C
$GPGSV,3,2,11,09,07,167,31,14,13,253,40,17,34,137,43,20,04,345,00*74
$GPGSV,3,3,11,24,45,094,37,25,25,312,38,30,75,241,49,,,,*47
$PGRME,4.3,M,5.8,M,7.2,M*21
$GPGLL,6012.088,N,02440.462,E,142924,A*25
$PGRMZ,75,f,3*29
$PGRMM,WGS 84*06
$GPBOD,,T,,M,,*47
$GPRTE,1,1,c,0*07
$GPRMC,142926,A,6012.088,N,02440.462,E,000.0,360.0,271004,006.0,E*78
$GPRMB,A,,,,,,,,,,,,V*71
$GPGGA,142926,6012.088,N,02440.462,E,1,09,1.2,24.2,M,19.7,M,,*7E
$GPGSA,A,3,01,,05,06,09,14,17,,24,25,30,,2.1,1.2,1.8*31
$GPGSV,3,1,11,01,23,310,34,04,29,049,32,05,61,134,39,06,33,229,51*78
$GPGSV,3,2,11,09,07,167,31,14,13,253,40,17,34,137,43,20,04,345,00*74
$GPGSV,3,3,11,24,45,094,37,25,25,312,38,30,75,241,49,,,,*47
$PGRME,4.3,M,5.8,M,7.2,M*21
$GPGLL,6012.088,N,02440.462,E,142926,A*27
$PGRMZ,79,f,3*25
$PGRMM,WGS 84*06
$GPBOD,,T,,M,,*47
$GPRTE,1,1,c,0*07
$GPRMC,142928,A,6012.088,N,02440.462,E,000.0,360.0,271004,006.0,E*76
$GPRMB,A,,,,,,,,,,,,V*71
$GPGGA,142928,6012.088,N,02440.462,E,1,09,1.2,25.6,M,19.7,M,,*75
$GPGSA,A,3,01,,05,06,09,14,17,,24,25,30,,2.2,1.2,1.8*32
$GPGSV,3,1,11,01,23,310,36,04,29,049,33,05,61,134,38,06,33,229,51*7A
$GPGSV,3,2,11,09,07,167,31,14,13,253,41,17,34,137,43,20,04,345,00*75
$GPGSV,3,3,11,24,45,094,38,25,25,312,38,30,75,241,49,,,,*48
$PGRME,4.3,M,5.8,M,7.2,M*21
$GPGLL,6012.088,N,02440.462,E,142928,A*29
$PGRMZ,84,f,3*27
$PGRMM,WGS 84*06
$GPBOD,,T,,M,,*47
$GPRTE,1,1,c,0*07
$GPRMC,142930,A,6012.088,N,02440.462,E,000.0,360.0,271004,006.0,E*7F
$GPRMB,A,,,,,,,,,,,,V*71
$GPGGA,142930,6012.088,N,02440.462,E,1,09,1.2,26.4,M,19.7,M,,*7D
$GPGSA,A,3,01,,05,06,09,14,17,,24,25,30,,2.2,1.2,1.8*32
$GPGSV,3,1,11,01,23,310,37,04,29,049,34,05,61,134,36,06,33,229,51*72
$GPGSV,3,2,11,09,07,167,31,14,13,253,41,17,34,137,44,20,04,345,00*72
$GPGSV,3,3,11,24,45,094,38,25,25,312,37,30,75,241,49,,,,*47
$PGRME,4.3,M,5.8,M,7.2,M*21
$GPGLL,6012.088,N,02440.461,E,142930,A*23
$PGRMZ,89,f,3*2A
$PGRMM,WGS 84*06
$GPBOD,,T,,M,,*47
$GPRTE,1,1,c,0*07
$GPRMC,142932,A,6012.088,N,02440.461,E,000.0,360.0,271004,006.0,E*7E
$GPRMB,A,,,,,,,,,,,,V*71
$GPGGA,142932,6012.089,N,02440.461,E,1,09,1.2,28.7,M,19.7,M,,*70
$GPGSA,A,3,01,,05,06,09,14,17,,24,25,30,,2.2,1.2,1.8*32
$GPGSV,3,1,11,01,23,310,38,04,29,049,34,05,61,134,36,06,33,229,51*7D
$GPGSV,3,2,11,09,07,167,31,14,13,253,41,17,34,137,44,20,04,345,00*72
$GPGSV,3,3,11,24,45,094,38,25,25,312,37,30,75,241,49,,,,*47
$PGRME,4.3,M,5.8,M,7.2,M*21
$GPGLL,6012.089,N,02440.461,E,142932,A*20
$PGRMZ,94,f,3*26
$PGRMM,WGS 84*06
$GPBOD,,T,,M,,*47
$GPRTE,1,1,c,0*07
$GPRMC,142934,A,6012.089,N,02440.461,E,000.0,360.0,271004,006.0,E*79
$GPRMB,A,,,,,,,,,,,,V*71
$GPGGA,142934,6012.089,N,02440.461,E,1,09,1.2,29.4,M,19.7,M,,*74
$GPGSA,A,3,01,,05,06,09,14,17,,24,25,30,,2.2,1.2,1.8*32
$GPGSV,3,1,11,01,23,310,38,04,29,049,34,05,61,134,35,06,33,229,51*7E
$GPGSV,3,2,11,09,07,167,31,14,13,253,41,17,34,137,44,20,04,345,00*72
$GPGSV,3,3,11,24,45,094,39,25,25,312,36,30,75,241,49,,,,*47
$PGRME,4.3,M,5.8,M,7.2,M*21
$GPGLL,6012.089,N,02440.461,E,142934,A*26
$PGRMZ,98,f,3*2A
$PGRMM,WGS 84*06
$GPBOD,,T,,M,,*47
$GPRTE,1,1,c,0*07
$GPRMC,142936,A,6012.089,N,02440.460,E,000.0,360.0,271004,006.0,E*7A
$GPRMB,A,,,,,,,,,,,,V*71
$GPGGA,142936,6012.089,N,02440.460,E,1,09,1.2,30.9,M,19.7,M,,*72
$GPGSA,A,3,01,,05,06,09,14,17,,24,25,30,,2.2,1.2,1.9*33
$GPGSV,3,1,11,01,23,310,39,04,29,049,35,05,61,134,35,06,33,229,50*7F
$GPGSV,3,2,11,09,07,167,31,14,13,253,42,17,34,137,44,20,04,345,00*71
$GPGSV,3,3,11,24,45,094,39,25,25,312,36,30,75,241,49,,,,*47
$PGRME,4.3,M,5.8,M,7.2,M*21
$GPGLL,6012.089,N,02440.460,E,142936,A*25
$PGRMZ,101,f,3*1B
$PGRMM,WGS 84*06
$GPBOD,,T,,M,,*47
$GPRTE,1,1,c,0*07
$GPRMC,142938,A,6012.089,N,02440.460,E,000.0,360.0,271004,006.0,E*74
$GPRMB,A,,,,,,,,,,,,V*71
$GPGGA,142938,6012.089,N,02440.460,E,1,09,1.2,31.2,M,19.7,M,,*76
$GPGSA,A,3,01,,05,06,09,14,17,,24,25,30,,2.0,1.2,1.6*3E
$GPGSV,3,1,11,01,23,310,39,04,29,049,35,05,61,134,35,06,33,229,50*7F
$GPGSV,3,2,11,09,07,167,31,14,13,253,42,17,34,137,44,20,04,345,00*71
$GPGSV,3,3,11,24,45,094,40,25,25,312,36,30,75,241,49,,,,*49
$PGRME,4.3,M,5.8,M,7.2,M*21
$GPGLL,6012.089,N,02440.460,E,142938,A*2B
$PGRMZ,104,f,3*1E
$PGRMM,WGS 84*06
$GPBOD,,T,,M,,*47
$GPRTE,1,1,c,0*07
$GPRMC,142940,A,6012.089,N,02440.460,E,000.0,360.0,271004,006.0,E*7B
$GPRMB,A,,,,,,,,,,,,V*71
$GPGGA,142940,6012.089,N,02440.460,E,1,09,1.2,31.9,M,19.7,M,,*72
$GPGSA,A,3,01,,05,06,09,14,17,,24,25,30,,2.0,1.2,1.6*3E
$GPGSV,3,1,11,01,23,310,40,04,29,049,36,05,61,134,35,06,33,229,50*72
$GPGSV,3,2,11,09,07,167,31,14,13,253,42,17,34,137,43,20,04,345,00*76
$GPGSV,3,3,11,24,45,094,40,25,25,312,36,30,75,241,49,,,,*49
$PGRME,4.3,M,5.8,M,7.2,M*21
$GPGLL,6012.089,N,02440.459,E,142940,A*2E
$PGRMZ,106,f,3*1C
$PGRMM,WGS 84*06
$GPBOD,,T,,M,,*47
$GPRTE,1,1,c,0*07
$GPRMC,142942,A,6012.089,N,02440.459,E,000.0,360.0,271004,006.0,E*73
$GPRMB,A,,,,,,,,,,,,V*71
$GPGGA,142942,6012.089,N,02440.459,E,1,09,1.2,32.5,M,19.7,M,,*75
$GPGSA,A,3,01,,05,06,09,14,17,,24,25,30,,2.1,1.2,1.7*3E
$GPGSV,3,1,11,01,23,310,40,04,29,049,35,05,61,134,34,06,33,229,50*70
$GPGSV,3,2,11,09,07,167,32,14,12,253,43,17,34,137,43,20,04,345,00*75
$GPGSV,3,3,11,24,45,094,40,25,25,312,36,30,75,241,49,,,,*49
$PGRME,4.3,M,5.8,M,7.2,M*21
$GPGLL,6012.089,N,02440.459,E,142942,A*2C
$PGRMZ,108,f,3*12
$PGRMM,WGS 84*06
$GPBOD,,T,,M,,*47
$GPRTE,1,1,c,0*07
$GPRMC,142944,A,6012.089,N,02440.459,E,000.0,360.0,271004,006.0,E*75
$GPRMB,A,,,,,,,,,,,,V*71
$GPGGA,142944,6012.089,N,02440.459,E,1,09,1.2,33.3,M,19.7,M,,*74
$GPGSA,A,3,01,,05,06,09,14,17,,24,25,30,,2.1,1.2,1.7*3E
$GPGSV,3,1,11,01,23,310,40,04,29,049,35,05,61,134,34,06,33,229,50*70
$GPGSV,3,2,11,09,07,167,33,14,12,253,43,17,34,137,43,20,04,345,00*74
$GPGSV,3,3,11,24,45,094,41,25,25,312,36,30,75,241,49,,,,*48
$PGRME,4.3,M,5.8,M,7.2,M*21
$GPGLL,6012.089,N,02440.458,E,142944,A*2B
$PGRMZ,111,f,3*1A
$PGRMM,WGS 84*06
$GPBOD,,T,,M,,*47
$GPRTE,1,1,c,0*07
$GPRMC,142946,A,6012.089,N,02440.458,E,000.0,360.0,271004,006.0,E*76
$GPRMB,A,,,,,,,,,,,,V*71
$GPGGA,142946,6012.089,N,02440.458,E,1,09,1.2,34.6,M,19.7,M,,*75
$GPGSA,A,3,01,,05,06,09,14,17,,24,25,30,,2.1,1.2,1.7*3E
$GPGSV,3,1,11,01,23,310,40,04,29,049,35,05,61,134,35,06,33,229,50*71
$GPGSV,3,2,11,09,07,167,32,14,12,253,43,17,34,137,43,20,04,345,00*75
$GPGSV,3,3,11,24,45,094,41,25,25,312,37,30,75,241,49,,,,*49
$PGRME,4.3,M,5.8,M,7.2,M*21
$GPGLL,6012.089,N,02440.458,E,142946,A*29
$PGRMZ,113,f,3*18
$PGRMM,WGS 84*06
$GPBOD,,T,,M,,*47
$GPRTE,1,1,c,0*07
$GPRMC,142948,A,6012.089,N,02440.458,E,000.0,360.0,271004,006.0,E*78
$GPRMB,A,,,,,,,,,,,,V*71
$GPGGA,142948,6012.089,N,02440.458,E,1,09,1.2,35.3,M,19.7,M,,*7F
$GPGSA,A,3,01,,05,06,09,14,17,,24,25,30,,2.1,1.2,1.7*3E
$GPGSV,3,1,11,01,23,310,40,04,29,049,35,05,61,134,35,06,33,229,50*71
$GPGSV,3,2,11,09,07,167,33,14,12,253,43,17,34,137,43,20,04,345,00*74
$GPGSV,3,3,11,24,45,094,41,25,25,312,37,30,75,241,49,,,,*49
$PGRME,4.3,M,5.8,M,7.2,M*21
$GPGLL,6012.089,N,02440.458,E,142948,A*27
$PGRMZ,116,f,3*1D
$PGRMM,WGS 84*06
$GPBOD,,T,,M,,*47
$GPRTE,1,1,c,0*07
$GPRMC,142950,A,6012.089,N,02440.457,E,000.0,360.0,271004,006.0,E*7E
$GPRMB,A,,,,,,,,,,,,V*71
$GPGGA,142950,6012.089,N,02440.457,E,1,09,1.2,35.9,M,19.7,M,,*73
$GPGSA,A,3,01,,05,06,09,14,17,,24,25,30,,2.1,1.2,1.7*3E
$GPGSV,3,1,11,01,23,310,40,04,29,049,35,05,61,134,36,06,33,229,50*72
$GPGSV,3,2,11,09,07,167,33,14,12,253,43,17,34,137,43,20,04,345,00*74
$GPGSV,3,3,11,24,45,094,40,25,25,312,37,30,75,241,49,,,,*48
$PGRME,4.3,M,5.8,M,7.2,M*21
$GPGLL,6012.089,N,02440.457,E,142950,A*21
$PGRMZ,118,f,3*13
$PGRMM,WGS 84*06
$GPBOD,,T,,M,,*47
$GPRTE,1,1,c,0*07
$GPRMC,142952,A,6012.089,N,02440.457,E,000.0,360.0,271004,006.0,E*7C
$GPRMB,A,,,,,,,,,,,,V*71
$GPGGA,142952,6012.089,N,02440.457,E,1,09,1.2,36.3,M,19.7,M,,*78
$GPGSA,A,3,01,,05,06,09,14,17,,24,25,30,,2.1,1.2,1.7*3E
$GPGSV,3,1,11,01,23,310,40,04,29,049,36,05,61,134,36,06,33,229,50*71
$GPGSV,3,2,11,09,07,167,33,14,12,253,44,17,34,137,43,20,04,345,00*73
$GPGSV,3,3,11,24,45,094,40,25,25,312,38,30,75,241,50,,,,*4F
$PGRME,4.3,M,5.8,M,7.2,M*21
$GPGLL,6012.089,N,02440.457,E,142952,A*23
$PGRMZ,119,f,3*12
$PGRMM,WGS 84*06
$GPBOD,,T,,M,,*47
$GPRTE,1,1,c,0*07
$GPRMC,142954,A,6012.089,N,02440.457,E,000.0,360.0,271004,006.0,E*7A
$GPRMB,A,,,,,,,,,,,,V*71
$GPGGA,142954,6012.089,N,02440.457,E,1,09,1.2,36.4,M,19.7,M,,*79
$GPGSA,A,3,01,,05,06,09,14,17,,24,25,30,,1.8,1.1,1.5*35
$GPGSV,3,1,11,01,23,310,40,04,29,049,36,05,61,134,36,06,33,229,50*71
$GPGSV,3,2,11,09,07,167,33,14,12,253,44,17,35,136,42,20,04,345,00*72
$GPGSV,3,3,11,24,45,094,39,25,25,312,38,30,75,241,50,,,,*41
$PGRME,4.3,M,5.8,M,7.2,M*21
$GPGLL,6012.089,N,02440.457,E,142954,A*25
$PGRMZ,120,f,3*18
$PGRMM,WGS 84*06
$GPBOD,,T,,M,,*47
$GPRTE,1,1,c,0*07
$GPRMC,142956,A,6012.089,N,02440.457,E,000.0,360.0,271004,006.0,E*78
$GPRMB,A,,,,,,,,,,,,V*71
$GPGGA,142956,6012.090,N,02440.457,E,1,09,1.1,36.7,M,19.7,M,,*73
$GPGSA,A,3,01,,05,06,09,14,17,,24,25,30,,1.9,1.1,1.5*34
$GPGSV,3,1,11,01,23,310,40,04,29,049,36,05,61,134,37,06,33,229,50*70
$GPGSV,3,2,11,09,07,167,33,14,12,253,44,17,35,136,42,20,04,345,00*72
$GPGSV,3,3,11,24,45,094,39,25,25,312,38,30,75,241,50,,,,*41
$PGRME,4.3,M,5.8,M,7.2,M*21
$GPGLL,6012.090,N,02440.457,E,142956,A*2F
$PGRMZ,121,f,3*19
$PGRMM,WGS 84*06
$GPBOD,,T,,M,,*47
$GPRTE,1,1,c,0*07
$GPRMC,142958,A,6012.090,N,02440.457,E,000.0,360.0,271004,006.0,E*7E
$GPRMB,A,,,,,,,,,,,,V*71
$GPGGA,142958,6012.090,N,02440.457,E,1,09,1.1,36.7,M,19.7,M,,*7D
$GPGSA,A,3,01,,05,06,09,14,17,,24,25,30,,1.9,1.1,1.5*34
$GPGSV,3,1,11,01,23,310,40,04,29,049,36,05,61,134,37,06,33,229,50*70
$GPGSV,3,2,11,09,07,167,32,14,12,253,44,17,35,136,42,20,04,345,00*73
$GPGSV,3,3,11,24,45,094,39,25,25,312,38,30,75,241,50,,,,*41
$PGRME,4.3,M,5.8,M,7.2,M*21
$GPGLL,6012.090,N,02440.457,E,142958,A*21
$PGRMZ,120,f,3*18
$PGRMM,WGS 84*06
$GPBOD,,T,,M,,*47
$GPRTE,1,1,c,0*07
$GPRMC,143000,A,6012.090,N,02440.457,E,000.0,360.0,271004,006.0,E*7B
$GPRMB,A,,,,,,,,,,,,V*71
$GPGGA,143000,6012.090,N,02440.457,E,1,09,1.1,36.5,M,19.7,M,,*7A
$GPGSA,A,3,01,,05,06,09,14,17,,24,25,30,,1.9,1.1,1.5*34
$GPGSV,3,1,11,01,23,310,39,04,29,049,36,05,61,134,37,06,33,229,50*7E
$GPGSV,3,2,11,09,07,167,32,14,12,253,44,17,35,136,42,20,04,345,00*73
$GPGSV,3,3,11,24,45,094,38,25,25,312,38,30,75,241,50,,,,*40
$PGRME,4.3,M,5.8,M,7.2,M*21
$GPGLL,6012.090,N,02440.457,E,143000,A*24
$PGRMZ,120,f,3*18
$PGRMM,WGS 84*06
$GPBOD,,T,,M,,*47
$GPRTE,1,1,c,0*07
$GPRMC,143002,A,6012.090,N,02440.457,E,000.0,360.0,271004,006.0,E*79
$GPRMB,A,,,,,,,,,,,,V*71
$GPGGA,143002,6012.090,N,02440.457,E,1,09,1.1,36.1,M,19.7,M,,*7C
$GPGSA,A,3,01,,05,06,09,14,17,,24,25,30,,1.9,1.1,1.5*34
$GPGSV,3,1,11,01,23,310,39,04,29,049,36,05,61,134,38,06,33,229,50*71
$GPGSV,3,2,11,09,07,167,33,14,12,253,44,17,35,136,42,20,04,345,00*72
$GPGSV,3,3,11,24,45,094,39,25,25,312,38,30,75,241,50,,,,*41
$PGRME,4.3,M,5.8,M,7.2,M*21
$GPGLL,6012.090,N,02440.457,E,143002,A*26
$PGRMZ,119,f,3*12
$PGRMM,WGS 84*06
$GPBOD,,T,,M,,*47
$GPRTE,1,1,c,0*07
$GPRMC,143004,A,6012.090,N,02440.458,E,000.0,360.0,271004,006.0,E*70
$GPRMB,A,,,,,,,,,,,,V*71
$GPGGA,143004,6012.090,N,02440.458,E,1,09,1.1,35.7,M,19.7,M,,*70
$GPGSA,A,3,01,,05,06,09,14,17,,24,25,30,,1.9,1.1,1.5*34
$GPGSV,3,1,11,01,23,310,38,04,29,049,36,05,61,134,38,06,33,229,50*70
$GPGSV,3,2,11,09,07,167,33,14,12,253,44,17,35,136,41,20,04,345,00*71
$GPGSV,3,3,11,24,45,094,39,25,25,312,39,30,75,241,50,,,,*40
$PGRME,4.3,M,5.8,M,7.2,M*21
$GPGLL,6012.090,N,02440.458,E,143004,A*2F
$PGRMZ,117,f,3*1C
$PGRMM,WGS 84*06
$GPBOD,,T,,M,,*47
$GPRTE,1,1,c,0*07
$GPRMC,143006,A,6012.090,N,02440.458,E,000.0,360.0,271004,006.0,E*72
$GPRMB,A,,,,,,,,,,,,V*71
$GPGGA,143006,6012.090,N,02440.458,E,1,09,1.1,35.4,M,19.7,M,,*71
$GPGSA,A,3,01,,05,06,09,14,17,,24,25,30,,1.8,1.1,1.5*35
$GPGSV,3,1,11,01,23,310,38,04,29,049,36,05,61,134,38,06,33,229,50*70
$GPGSV,3,2,11,09,07,167,33,14,12,253,44,17,35,136,41,20,03,344,00*77
$GPGSV,3,3,11,24,45,094,39,25,25,312,39,30,75,241,50,,,,*40
$PGRME,4.3,M,5.8,M,7.2,M*21
$GPGLL,6012.090,N,02440.458,E,143006,A*2D
$PGRMZ,115,f,3*1E
$PGRMM,WGS 84*06
$GPBOD,,T,,M,,*47
$GPRTE,1,1,c,0*07
$GPRMC,143008,A,6012.090,N,02440.458,E,000.0,360.0,271004,006.0,E*7C
$GPRMB,A,,,,,,,,,,,,V*71
$GPGGA,143008,6012.090,N,02440.458,E,1,09,1.1,34.5,M,19.7,M,,*7F
$GPGSA,A,3,01,,05,06,09,14,17,,24,25,30,,1.8,1.1,1.5*35
$GPGSV,3,1,11,01,23,310,37,04,29,049,36,05,61,134,38,06,33,229,50*7F
$GPGSV,3,2,11,09,07,167,33,14,12,253,44,17,35,136,41,20,03,344,00*77
$GPGSV,3,3,11,24,45,094,38,25,25,312,38,30,75,241,50,,,,*40
$PGRME,4.3,M,5.8,M,7.2,M*21
$GPGLL,6012.090,N,02440.458,E,143008,A*23
$PGRMZ,113,f,3*18
$PGRMM,WGS 84*06
$GPBOD,,T,,M,,*47
$GPRTE,1,1,c,0*07
$GPRMC,143010,A,6012.091,N,02440.458,E,000.0,360.0,271004,006.0,E*74
$GPRMB,A,,,,,,,,,,,,V*71
$GPGGA,143010,6012.091,N,02440.458,E,1,09,1.1,34.1,M,19.7,M,,*73
$GPGSA,A,3,01,,05,06,09,14,17,,24,25,30,,1.9,1.1,1.6*37
$GPGSV,3,1,11,01,23,310,36,04,29,049,36,05,61,134,38,06,33,229,50*7E
$GPGSV,3,2,11,09,07,167,33,14,12,253,44,17,35,136,41,20,03,344,00*77
$GPGSV,3,3,11,24,45,094,38,25,25,312,38,30,75,241,50,,,,*40
$PGRME,4.3,M,5.8,M,7.2,M*21
$GPGLL,6012.091,N,02440.458,E,143010,A*2B
$PGRMZ,111,f,3*1A
$PGRMM,WGS 84*06
$GPBOD,,T,,M,,*47
$GPRTE,1,1,c,0*07
$GPRMC,143012,A,6012.091,N,02440.459,E,000.0,360.0,271004,006.0,E*77
$GPRMB,A,,,,,,,,,,,,V*71
$GPGGA,143012,6012.091,N,02440.459,E,1,09,1.1,33.0,M,19.7,M,,*76
$GPGSA,A,3,01,,05,06,09,14,17,,24,25,30,,1.8,1.1,1.5*35
$GPGSV,3,1,11,01,23,310,35,04,29,049,35,05,61,134,37,06,33,229,50*71
$GPGSV,3,2,11,09,07,167,33,14,12,253,44,17,35,136,40,20,03,344,00*76
$GPGSV,3,3,11,24,45,094,37,25,25,312,38,30,75,241,50,,,,*4F
$PGRME,4.3,M,5.8,M,7.2,M*21
$GPGLL,6012.091,N,02440.459,E,143012,A*28
$PGRMZ,108,f,3*12
$PGRMM,WGS 84*06
$GPBOD,,T,,M,,*47
$GPRTE,1,1,c,0*07
$GPRMC,143014,A,6012.091,N,02440.459,E,000.0,360.0,271004,006.0,E*71
$GPRMB,A,,,,,,,,,,,,V*71
$GPGGA,143014,6012.091,N,02440.460,E,1,09,1.1,32.6,M,19.7,M,,*7D
$GPGSA,A,3,01,,05,06,09,14,17,,24,25,30,,1.9,1.1,1.5*34
$GPGSV,3,1,11,01,23,310,34,04,29,049,35,05,61,134,37,06,33,229,50*70
$GPGSV,3,2,11,09,07,167,33,14,12,253,44,17,35,136,41,20,03,344,00*77
$GPGSV,3,3,11,24,45,094,36,25,25,312,38,30,75,241,50,,,,*4E
$PGRME,4.3,M,5.8,M,7.2,M*21
$GPGLL,6012.091,N,02440.460,E,143014,A*24
$PGRMZ,107,f,3*1D
$PGRMM,WGS 84*06
$GPBOD,,T,,M,,*47
$GPRTE,1,1,c,0*07
$GPRMC,143016,A,6012.091,N,02440.460,E,000.0,360.0,271004,006.0,E*79
$GPRMB,A,,,,,,,,,,,,V*71
$GPGGA,143016,6012.091,N,02440.460,E,1,09,1.1,32.4,M,19.7,M,,*7D
$GPGSA,A,3,01,,05,06,09,14,17,,24,25,30,,1.9,1.1,1.5*34
$GPGSV,3,1,11,01,23,310,33,04,29,049,34,05,61,134,37,06,33,229,50*76
