$IIHDG,176.,,,,*79
$IIVWR,155.,L,03.6,N,01.9,M,006.7,K*6A
$IIVTG,180.,T,,M,05.8,N,10.8,K,A*27
$IIHDG,178.,,,,*77
$IIVHW,,,177.,M,05.46,N,10.12,K*1B
$IIVWR,155.,L,03.6,N,01.9,M,006.7,K*6A
$IIHDM,178.,M*1C
$IIVTG,180.,T,,M,05.8,N,10.8,K,A*27
$IIHDG,178.,,,,*77
$IIVHW,,,178.,M,05.46,N,10.12,K*14
$IIVWR,154.,L,03.6,N,01.9,M,006.7,K*6B
$IIHDM,178.,M*1C
$IIVTG,180.,T,,M,05.8,N,10.8,K,A*27
$IIHDG,318.,,,,*73
$IIVHW,,,319.,M,05.35,N,09.91,K*16
$IIVWR,022.,R,17.0,N,08.7,M,031.5,K*77
$IIHDM,178.,M*1C
$IIVTG,309.,T,,M,05.7,N,10.6,K,A*25
$IIHDG,316.,,,,*7D
$IIVHW,,,320.,M,05.34,N,09.89,K*14
$IIGLL,4740.190,N,00324.460,W,083958,A,A*45
$IIVWR,023.,R,17.2,N,08.8,M,031.9,K*77
$IIHDM,316.,M*16
$IIVTG,311.,T,,M,05.6,N,10.4,K,A*2F
$IIHDG,316.,,,,*7D
$IIVHW,,,317.,M,05.32,N,09.86,K*19
$IIGLL,4740.192,N,00324.464,W,084000,A,A*40
$IIVWR,023.,R,17.2,N,08.8,M,031.9,K*77
$IIHDM,316.,M*16
$IIVTG,311.,T,,M,05.6,N,10.4,K,A*2F
$IIHDG,320.,,,,*78
$IIVHW,,,317.,M,05.31,N,09.83,K*1F
$IIGLL,4740.192,N,00324.464,W,084000,A,A*40
$IIVWR,023.,R,17.2,N,08.8,M,031.9,K*77
$IIHDM,318.,M*18
$IIVTG,311.,T,,M,05.6,N,10.4,K,A*2F
$IIHDG,320.,,,,*78
$IIVHW,,,317.,M,05.31,N,09.83,K*1F
$IIGLL,4740.194,N,00324.468,W,084002,A,A*48
$IIVWR,023.,R,17.4,N,09.0,M,032.2,K*70
$IIHDM,320.,M*13
$IIVTG,311.,T,,M,05.6,N,10.4,K,A*2F
$IIHDG,319.,,,,*72
$IIVHW,,,325.,M,05.30,N,09.81,K*1D
$IIGLL,4740.194,N,00324.468,W,084002,A,A*48
$IIVWR,022.,R,17.5,N,09.0,M,032.4,K*76
$IIHDM,320.,M*13
$IIVTG,310.,T,,M,05.8,N,10.8,K,A*2C
$IIHDG,325.,,,,*7D
$IIVHW,,,325.,M,05.30,N,09.81,K*1D
$IIGLL,4740.196,N,00324.471,W,084004,A,A*44
$IIVWR,022.,R,17.7,N,09.1,M,032.8,K*79
$IIHDM,325.,M*16
$IIVTG,310.,T,,M,05.8,N,10.8,K,A*2C
$IIHDG,325.,,,,*7D
$IIVHW,,,326.,M,05.31,N,09.83,K*1D
$IIGLL,4740.196,N,00324.471,W,084006,A,A*46
$IIVWR,021.,R,17.9,N,09.2,M,033.2,K*7C
$IIHDM,325.,M*16
$IIVTG,315.,T,,M,05.8,N,10.8,K,A*29
$IIHDG,328.,,,,*70
$IIVHW,,,331.,M,05.31,N,09.84,K*1C
$IIGLL,4740.198,N,00324.475,W,084006,A,A*4C
$IIVWR,020.,R,18.1,N,09.3,M,033.5,K*7C
$IIHDM,328.,M*1B
$IIVTG,315.,T,,M,05.8,N,10.8,K,A*29
$IIHDG,333.,,,,*7A
$IIVHW,,,333.,M,05.32,N,09.86,K*1F
$IIGLL,4740.198,N,00324.475,W,084006,A,A*4C
$IIVWR,020.,R,18.2,N,09.4,M,033.7,K*7A
$IIHDM,333.,M*11
$IIVTG,324.,T,,M,05.6,N,10.4,K,A*29
$IIHDG,334.,,,,*7D
$IIVHW,,,336.,M,05.34,N,09.88,K*12
$IIGLL,4740.198,N,00324.475,W,084006,A,A*4C
$IIVWR,020.,R,18.2,N,09.4,M,033.7,K*7A
$IIHDM,334.,M*16
$IIVTG,324.,T,,M,05.6,N,10.4,K,A*29
$IIHDG,337.,,,,*7E
$IIVHW,,,337.,M,05.34,N,09.89,K*12
$IIGLL,4740.200,N,00324.478,W,084010,A,A*44
$IIVWR,019.,R,18.4,N,09.5,M,034.1,K*76
$IIHDM,337.,M*15
$IIVTG,329.,T,,M,05.6,N,10.4,K,A*24
$IIHDG,337.,,,,*7E
$IIVHW,,,334.,M,05.35,N,09.91,K*19
$IIGLL,4740.203,N,00324.481,W,084010,A,A*41
$IIVWR,019.,R,18.4,N,09.5,M,034.1,K*76
$IIHDM,337.,M*15
$IIVTG,329.,T,,M,05.6,N,10.4,K,A*24
$IIHDG,333.,,,,*7A
$IIVHW,,,332.,M,05.37,N,09.94,K*18
$IIGLL,4740.203,N,00324.481,W,084012,A,A*43
$IIVWR,019.,R,18.4,N,09.5,M,034.1,K*76
$IIHDM,333.,M*11
$IIVTG,326.,T,,M,05.8,N,10.8,K,A*29
$IIHDG,329.,,,,*71
$IIVHW,,,332.,M,05.37,N,09.94,K*18
$IIGLL,4740.205,N,00324.484,W,084012,A,A*40
$IIVWR,019.,R,18.2,N,09.4,M,033.7,K*70
$IIHDM,333.,M*11
$IIVTG,326.,T,,M,05.8,N,10.8,K,A*29
$IIHDG,327.,,,,*7F
$IIVHW,,,328.,M,05.38,N,09.97,K*1F
$IIGLL,4740.205,N,00324.484,W,084012,A,A*40
$IIVWR,019.,R,18.3,N,09.4,M,033.9,K*7F
$IIHDM,333.,M*11
$IIVTG,326.,T,,M,05.8,N,10.8,K,A*29
$IIHDG,322.,,,,*7A
$IIVHW,,,328.,M,05.38,N,09.97,K*1F
$IIGLL,4740.208,N,00324.487,W,084014,A,A*48
$IIVWR,019.,R,18.3,N,09.4,M,033.9,K*7F
$IIHDM,322.,M*11
$IIVTG,317.,T,,M,05.8,N,10.8,K,A*2B
$IIHDG,322.,,,,*7A
$IIVHW,,,318.,M,05.41,N,10.02,K*16
$IIGLL,4740.209,N,00324.491,W,084016,A,A*4C
$IIVWR,019.,R,18.3,N,09.4,M,033.9,K*7F
$IIHDM,317.,M*17
$IIVTG,303.,T,,M,05.8,N,10.8,K,A*2E
$IIHDG,316.,,,,*7D
$IIVHW,,,317.,M,05.43,N,10.05,K*1C
$IIGLL,4740.209,N,00324.491,W,084016,A,A*4C
$IIVWR,018.,R,18.2,N,09.4,M,033.7,K*71
$IIHDM,316.,M*16
$IIVTG,303.,T,,M,05.8,N,10.8,K,A*2E
$IIHDG,319.,,,,*72
$IIVHW,,,318.,M,05.43,N,10.06,K*10
$IIGLL,4740.209,N,00324.491,W,084016,A,A*4C
$IIVWR,019.,R,18.4,N,09.5,M,034.1,K*76
$IIHDM,319.,M*19
$IIVTG,303.,T,,M,05.8,N,10.8,K,A*2E
$IIHDG,319.,,,,*72
$IIVHW,,,319.,M,05.44,N,10.07,K*17
$IIGLL,4740.209,N,00324.491,W,084016,A,A*4C
$IIVWR,019.,R,18.7,N,09.6,M,034.6,K*71
$IIHDM,320.,M*13
$IIVTG,305.,T,,M,05.8,N,10.8,K,A*28
$IIHDG,319.,,,,*72
$IIVHW,,,319.,M,05.44,N,10.08,K*18
$IIGLL,4740.211,N,00324.495,W,084020,A,A*44
$IIVWR,019.,R,18.7,N,09.6,M,034.6,K*71
$IIHDM,319.,M*19
$IIVTG,311.,T,,M,05.6,N,10.4,K,A*2F
$IIHDG,321.,,,,*79
$IIVHW,,,319.,M,05.44,N,10.08,K*18
$IIGLL,4740.213,N,00324.499,W,084020,A,A*4A
$IIVWR,020.,R,18.9,N,09.7,M,035.0,K*73
$IIHDM,319.,M*19
$IIVTG,311.,T,,M,05.6,N,10.4,K,A*2F
$IIHDG,318.,,,,*73
$IIVHW,,,318.,M,05.45,N,10.10,K*11
$IIGLL,4740.213,N,00324.503,W,084022,A,A*4A
$IIVWR,022.,R,18.9,N,09.7,M,035.0,K*71
$IIHDM,318.,M*18
$IIVTG,306.,T,,M,05.6,N,10.4,K,A*29
$IIHDG,316.,,,,*7D
$IIVHW,,,316.,M,05.46,N,10.11,K*1D
$IIGLL,4740.215,N,00324.503,W,084022,A,A*4C
$IIVWR,022.,R,18.9,N,09.7,M,035.0,K*71
$IIHDM,316.,M*16
$IIVTG,306.,T,,M,05.6,N,10.4,K,A*29
$IIHDG,316.,,,,*7D
$IIVHW,,,315.,M,05.47,N,10.13,K*1D
$IIGLL,4740.216,N,00324.507,W,084024,A,A*4D
$IIVWR,022.,R,18.9,N,09.7,M,035.0,K*71
$IIHDM,316.,M*16
$IIVTG,300.,T,,M,06.1,N,11.3,K,A*2D
$IIHDG,319.,,,,*72
$IIVHW,,,318.,M,05.48,N,10.15,K*19
$IIGLL,4740.216,N,00324.507,W,084024,A,A*4D
$IIVWR,022.,R,19.1,N,09.8,M,035.4,K*73
$IIHDM,319.,M*19
$IIVTG,300.,T,,M,06.1,N,11.3,K,A*2D
$IIHDG,326.,,,,*7E
$IIVHW,,,323.,M,05.49,N,10.17,K*12
$IIGLL,4740.216,N,00324.507,W,084024,A,A*4D
$IIVWR,022.,R,19.2,N,09.9,M,035.6,K*73
$IIHDM,326.,M*15
$IIVTG,311.,T,,M,05.7,N,10.6,K,A*2C
$IIHDG,330.,,,,*79
$IIVHW,,,328.,M,05.50,N,10.18,K*1E
$IIGLL,4740.218,N,00324.511,W,084026,A,A*46
$IIVWR,022.,R,19.3,N,09.9,M,035.7,K*73
$IIHDM,330.,M*12
$IIVTG,311.,T,,M,05.7,N,10.6,K,A*2C
$IIHDG,333.,,,,*7A
$IIVHW,,,332.,M,05.50,N,10.19,K*14
$IIGLL,4740.218,N,00324.511,W,084026,A,A*46
$IIVWR,022.,R,19.5,N,10.0,M,036.1,K*71
$IIHDM,333.,M*11
$IIVTG,311.,T,,M,05.6,N,10.4,K,A*2F
$IIHDG,328.,,,,*70
$IIVHW,,,330.,M,05.51,N,10.20,K*1D
$IIGLL,4740.220,N,00324.514,W,084028,A,A*46
$IIVWR,022.,R,19.5,N,10.0,M,036.1,K*71
$IIHDM,333.,M*11
$IIVTG,321.,T,,M,05.6,N,10.4,K,A*2C
$IIHDG,327.,,,,*7F
$IIVHW,,,330.,M,05.51,N,10.20,K*1D
$IIGLL,4740.220,N,00324.514,W,084028,A,A*46
$IIVWR,022.,R,19.5,N,10.0,M,036.1,K*71
$IIHDM,328.,M*1B
$IIVTG,321.,T,,M,05.6,N,10.4,K,A*2C
$IIHDG,329.,,,,*71
$IIVHW,,,328.,M,05.52,N,10.23,K*14
$IIGLL,4740.222,N,00324.518,W,084030,A,A*41
$IIVWR,022.,R,19.7,N,10.1,M,036.5,K*76
$IIHDM,329.,M*1A
$IIVTG,313.,T,,M,05.8,N,10.8,K,A*2F
$IIHDG,329.,,,,*71
$IIVHW,,,332.,M,05.53,N,10.24,K*19
$IIGLL,4740.222,N,00324.518,W,084030,A,A*41
$IIVWR,022.,R,19.9,N,10.2,M,036.9,K*77
$IIHDM,329.,M*1A
$IIVTG,323.,T,,M,05.6,N,10.4,K,A*2E
$IIHDG,333.,,,,*7A
$IIVHW,,,332.,M,05.53,N,10.24,K*19
$IIGLL,4740.225,N,00324.521,W,084032,A,A*4E
$IIVWR,022.,R,20.0,N,10.3,M,037.0,K*7D
$IIHDM,333.,M*11
$IIVTG,323.,T,,M,05.6,N,10.4,K,A*2E
$IIHDG,333.,,,,*7A
$IIVHW,,,332.,M,05.53,N,10.24,K*19
$IIGLL,4740.225,N,00324.521,W,084032,A,A*4E
$IIVWR,022.,R,20.0,N,10.3,M,037.0,K*7D
$IIHDM,333.,M*11
$IIVTG,324.,T,,M,05.7,N,10.6,K,A*2A
$IIHDG,332.,,,,*7B
$IIVHW,,,330.,M,05.54,N,10.26,K*1E
$IIGLL,4740.227,N,00324.524,W,084034,A,A*4F
$IIVWR,022.,R,20.1,N,10.3,M,037.2,K*7E
$IIHDM,332.,M*10
$IIVTG,324.,T,,M,05.7,N,10.6,K,A*2A
$IIHDG,331.,,,,*78
$IIVHW,,,329.,M,05.54,N,10.26,K*16
$IIGLL,4740.227,N,00324.524,W,084036,A,A*4D
$IIVWR,022.,R,20.2,N,10.4,M,037.4,K*7C
$IIHDM,331.,M*13
$IIVTG,324.,T,,M,05.7,N,10.6,K,A*2A
$IIHDG,328.,,,,*70
$IIVHW,,,326.,M,05.54,N,10.26,K*19
$IIGLL,4740.229,N,00324.527,W,084036,A,A*40
$IIVWR,022.,R,20.2,N,10.4,M,037.4,K*7C
$IIHDM,328.,M*1B
$IIVTG,320.,T,,M,05.8,N,10.8,K,A*2F
$IIHDG,325.,,,,*7D
$IIVHW,,,325.,M,05.54,N,10.26,K*1A
$IIGLL,4740.229,N,00324.527,W,084038,A,A*4E
$IIVWR,021.,R,20.2,N,10.4,M,037.4,K*7F
$IIHDM,328.,M*1B
$IIVTG,320.,T,,M,05.8,N,10.8,K,A*2F
$IIHDG,325.,,,,*7D
$IIVHW,,,325.,M,05.54,N,10.26,K*1A
$IIGLL,4740.232,N,00324.531,W,084038,A,A*43
$IIVWR,021.,R,20.2,N,10.4,M,037.4,K*7F
$IIHDM,325.,M*16
$IIVTG,316.,T,,M,05.8,N,10.8,K,A*2A
$IIHDG,325.,,,,*7D
$IIVHW,,,327.,M,05.56,N,10.29,K*15
$IIGLL,4740.232,N,00324.531,W,084038,A,A*43
$IIVWR,021.,R,20.3,N,10.4,M,037.6,K*7C
$IIHDM,325.,M*16
$IIVTG,316.,T,,M,06.0,N,11.1,K,A*29
$IIHDG,325.,,,,*7D
$IIVHW,,,326.,M,05.56,N,10.29,K*14
$IIGLL,4740.234,N,00324.534,W,084040,A,A*4F
$IIVWR,021.,R,20.3,N,10.4,M,037.6,K*7C
$IIHDM,327.,M*14
$IIVTG,316.,T,,M,06.0,N,11.1,K,A*29
$IIHDG,327.,,,,*7F
$IIVHW,,,328.,M,05.57,N,10.31,K*12
$IIGLL,4740.234,N,00324.534,W,084042,A,A*4D
$IIVWR,021.,R,20.2,N,10.4,M,037.4,K*7F
$IIHDM,327.,M*14
$IIVTG,314.,T,,M,06.1,N,11.3,K,A*28
$IIHDG,327.,,,,*7F
$IIVHW,,,328.,M,05.58,N,10.34,K*18
$IIGLL,4740.236,N,00324.538,W,084042,A,A*43
$IIVWR,020.,R,20.3,N,10.4,M,037.6,K*7D
$IIHDM,327.,M*14
$IIVTG,314.,T,,M,06.1,N,11.3,K,A*28
$IIHDG,327.,,,,*7F
$IIVHW,,,328.,M,05.58,N,10.34,K*18
$IIGLL,4740.236,N,00324.538,W,084044,A,A*45
$IIVWR,020.,R,20.2,N,10.4,M,037.4,K*7E
$IIHDM,327.,M*14
$IIVTG,318.,T,,M,06.0,N,11.1,K,A*27
$IIHDG,330.,,,,*79
$IIVHW,,,328.,M,05.58,N,10.34,K*18
$IIGLL,4740.238,N,00324.542,W,084044,A,A*46
$IIVWR,019.,R,20.3,N,10.4,M,037.6,K*77
$IIHDM,330.,M*12
$IIVTG,318.,T,,M,06.0,N,11.1,K,A*27
$IIHDG,332.,,,,*7B
$IIVHW,,,331.,M,05.61,N,10.39,K*17
$IIGLL,4740.238,N,00324.545,W,084046,A,A*43
$IIVWR,019.,R,20.3,N,10.4,M,037.6,K*77
$IIHDM,332.,M*10
$IIVTG,325.,T,,M,06.1,N,11.3,K,A*2A
$IIHDG,336.,,,,*7F
$IIVHW,,,331.,M,05.61,N,10.39,K*17
$IIGLL,4740.241,N,00324.545,W,084046,A,A*4D
$IIVWR,019.,R,20.3,N,10.4,M,037.6,K*77
$IIHDM,336.,M*14
$IIVTG,325.,T,,M,06.1,N,11.3,K,A*2A
$IIHDG,336.,,,,*7F
$IIVHW,,,333.,M,05.65,N,10.46,K*19
$IIGLL,4740.244,N,00324.548,W,084048,A,A*4B
$IIVWR,019.,R,20.5,N,10.5,M,038.0,K*79
$IIHDM,336.,M*14
$IIVTG,326.,T,,M,05.9,N,10.9,K,A*29
$IIHDG,331.,,,,*78
$IIVHW,,,332.,M,05.66,N,10.48,K*15
$IIGLL,4740.244,N,00324.548,W,084048,A,A*4B
$IIVWR,019.,R,20.3,N,10.4,M,037.6,K*77
$IIHDM,331.,M*13
$IIVTG,326.,T,,M,05.9,N,10.9,K,A*29
$IIHDG,331.,,,,*78
$IIVHW,,,331.,M,05.68,N,10.51,K*10
$IIGLL,4740.246,N,00324.551,W,084050,A,A*48
$IIVWR,019.,R,20.3,N,10.4,M,037.6,K*77
$IIHDM,331.,M*13
$IIVTG,322.,T,,M,06.0,N,11.1,K,A*2E
$IIHDG,328.,,,,*70
$IIVHW,,,330.,M,05.69,N,10.54,K*15
$IIGLL,4740.246,N,00324.551,W,084050,A,A*48
$IIVWR,020.,R,20.0,N,10.3,M,037.0,K*7F
$IIHDM,328.,M*1B
$IIVTG,322.,T,,M,06.0,N,11.1,K,A*2E
$IIHDG,329.,,,,*71
$IIVHW,,,331.,M,05.70,N,10.56,K*1E
$IIGLL,4740.248,N,00324.554,W,084052,A,A*41
$IIVWR,020.,R,19.9,N,10.2,M,036.9,K*75
$IIHDM,329.,M*1A
$IIVTG,322.,T,,M,06.0,N,11.1,K,A*2E
$IIHDG,329.,,,,*71
$IIVHW,,,331.,M,05.70,N,10.56,K*1E
$IIGLL,4740.248,N,00324.554,W,084052,A,A*41
$IIVWR,020.,R,19.9,N,10.2,M,036.9,K*75
$IIHDM,333.,M*11
$IIVTG,318.,T,,M,06.1,N,11.3,K,A*24
$IIHDG,329.,,,,*71
$IIVHW,,,332.,M,05.73,N,10.61,K*1A
$IIGLL,4740.248,N,00324.554,W,084052,A,A*41
$IIVWR,020.,R,19.6,N,10.1,M,036.3,K*73
$IIHDM,331.,M*13
$IIVTG,318.,T,,M,06.1,N,11.3,K,A*24
$IIHDG,329.,,,,*71
$IIVHW,,,332.,M,05.73,N,10.62,K*19
$IIGLL,4740.251,N,00324.558,W,084054,A,A*43
$IIVWR,020.,R,19.4,N,10.0,M,035.9,K*79
$IIHDM,329.,M*1A
$IIVTG,323.,T,,M,06.0,N,11.1,K,A*2F
$IIHDG,329.,,,,*71
$IIVHW,,,329.,M,05.75,N,10.64,K*13
$IIGLL,4740.251,N,00324.558,W,084054,A,A*43
$IIVWR,020.,R,19.4,N,10.0,M,035.9,K*79
$IIHDM,329.,M*1A
$IIVTG,320.,T,,M,06.0,N,11.1,K,A*2C
$IIHDG,329.,,,,*71
$IIVHW,,,327.,M,05.76,N,10.66,K*1C
$IIGLL,4740.251,N,00324.558,W,084054,A,A*43
$IIVWR,020.,R,19.1,N,09.8,M,035.4,K*71
$IIHDM,328.,M*1B
$IIVTG,320.,T,,M,06.0,N,11.1,K,A*2C
$IIHDG,327.,,,,*7F
$IIVHW,,,328.,M,05.76,N,10.66,K*13
$IIGLL,4740.256,N,00324.565,W,084058,A,A*46
$IIVWR,020.,R,19.1,N,09.8,M,035.4,K*71
$IIHDM,327.,M*14
$IIVTG,316.,T,,M,06.0,N,11.1,K,A*29
$IIHDG,326.,,,,*7E
$IIVHW,,,326.,M,05.76,N,10.66,K*1D
$IIGLL,4740.256,N,00324.565,W,084058,A,A*46
$IIVWR,020.,R,18.7,N,09.6,M,034.6,K*7B
$IIHDM,327.,M*14
$IIVTG,316.,T,,M,06.0,N,11.1,K,A*29
$IIHDG,326.,,,,*7E
$IIVHW,,,326.,M,05.76,N,10.67,K*1C
$IIGLL,4740.256,N,00324.565,W,084058,A,A*46
$IIVWR,020.,R,18.7,N,09.6,M,034.6,K*7B
$IIHDM,326.,M*15
$IIVTG,316.,T,,M,06.0,N,11.1,K,A*29
$IIHDG,330.,,,,*79
$IIVHW,,,327.,M,05.76,N,10.67,K*1D
$IIGLL,4740.258,N,00324.568,W,084100,A,A*49
$IIVWR,020.,R,18.7,N,09.6,M,034.6,K*7B
$IIHDM,326.,M*15
$IIVTG,318.,T,,M,06.1,N,11.3,K,A*24
$IIHDG,329.,,,,*71
$IIVHW,,,330.,M,05.77,N,10.68,K*15
$IIGLL,4740.258,N,00324.568,W,084100,A,A*49
$IIVWR,020.,R,18.7,N,09.6,M,034.6,K*7B
$IIHDM,326.,M*15
$IIVTG,318.,T,,M,06.1,N,11.3,K,A*24
$IIHDG,329.,,,,*71
$IIVHW,,,329.,M,05.77,N,10.69,K*1C
$IIGLL,4740.261,N,00324.572,W,084102,A,A*4A
$IIVWR,021.,R,18.7,N,09.6,M,034.6,K*7A
$IIHDM,329.,M*1A
$IIVTG,318.,T,,M,06.1,N,11.3,K,A*24
$IIHDG,327.,,,,*7F
$IIVHW,,,326.,M,05.77,N,10.69,K*13
$IIGLL,4740.261,N,00324.572,W,084104,A,A*4C
$IIVWR,021.,R,18.9,N,09.7,M,035.0,K*72
$IIHDM,327.,M*14
$IIVTG,314.,T,,M,06.1,N,11.3,K,A*28
$IIHDG,326.,,,,*7E
$IIVHW,,,326.,M,05.77,N,10.69,K*13
$IIGLL,4740.261,N,00324.572,W,084104,A,A*4C
$IIVWR,021.,R,19.0,N,09.8,M,035.2,K*77
$IIHDM,326.,M*15
$IIVTG,314.,T,,M,06.1,N,11.3,K,A*28
$IIHDG,328.,,,,*70
$IIVHW,,,329.,M,05.78,N,10.71,K*1A
$IIGLL,4740.263,N,00324.575,W,084106,A,A*4B
$IIVWR,021.,R,19.1,N,09.8,M,035.4,K*70
$IIHDM,326.,M*15
$IIVTG,321.,T,,M,06.0,N,11.1,K,A*2D
$IIHDG,330.,,,,*79
$IIVHW,,,330.,M,05.79,N,10.72,K*10
$IIGLL,4740.265,N,00324.579,W,084106,A,A*41
$IIVWR,021.,R,19.1,N,09.8,M,035.4,K*70
$IIHDM,330.,M*12
$IIVTG,321.,T,,M,06.0,N,11.1,K,A*2D
$IIHDG,329.,,,,*71
$IIVHW,,,329.,M,05.73,N,10.62,K*13
$IIGLL,4740.265,N,00324.579,W,084108,A,A*4F
$IIVWR,021.,R,19.1,N,09.8,M,035.4,K*70
$IIHDM,329.,M*1A
$IIVTG,321.,T,,M,06.0,N,11.1,K,A*2D
$IIHDG,331.,,,,*78
$IIVHW,,,330.,M,05.65,N,10.46,K*1A
$IIGLL,4740.268,N,00324.582,W,084108,A,A*46
$IIVWR,021.,R,19.7,N,10.1,M,036.5,K*75
$IIHDM,331.,M*13
$IIVTG,321.,T,,M,06.1,N,11.3,K,A*2E
$IIHDG,331.,,,,*78
$IIVHW,,,330.,M,05.64,N,10.45,K*18
$IIGLL,4740.268,N,00324.582,W,084108,A,A*46
$IIVWR,021.,R,19.8,N,10.2,M,036.7,K*7B
$IIHDM,331.,M*13
$IIVTG,321.,T,,M,06.1,N,11.3,K,A*2E
$IIHDG,330.,,,,*79
$IIVHW,,,330.,M,05.67,N,10.50,K*1F
$IIGLL,4740.270,N,00324.586,W,084110,A,A*42
$IIVWR,021.,R,19.8,N,10.2,M,036.7,K*7B
$IIHDM,330.,M*12
$IIVTG,321.,T,,M,06.1,N,11.3,K,A*2E
$IIHDG,328.,,,,*70
$IIVHW,,,328.,M,05.67,N,10.50,K*16
$IIGLL,4740.273,N,00324.589,W,084112,A,A*4C
$IIVWR,021.,R,19.8,N,10.2,M,036.7,K*7B
$IIHDM,328.,M*1B
$IIVTG,320.,T,,M,06.1,N,11.3,K,A*2F
$IIHDG,328.,,,,*70
$IIVHW,,,327.,M,05.59,N,10.35,K*17
$IIGLL,4740.273,N,00324.589,W,084112,A,A*4C
$IIVWR,020.,R,20.0,N,10.3,M,037.0,K*7F
$IIHDM,328.,M*1B
$IIVTG,320.,T,,M,06.1,N,11.3,K,A*2F
$IIHDG,327.,,,,*7F
$IIVHW,,,327.,M,05.59,N,10.35,K*17
$IIGLL,4740.273,N,00324.589,W,084114,A,A*4A
$IIVWR,020.,R,20.1,N,10.3,M,037.2,K*7C
$IIHDM,326.,M*15
$IIVTG,317.,T,,M,06.1,N,11.3,K,A*2B
$IIHDG,327.,,,,*7F
$IIVHW,,,326.,M,05.57,N,10.31,K*1C
$IIGLL,4740.275,N,00324.593,W,084114,A,A*47
$IIVWR,020.,R,20.1,N,10.3,M,037.2,K*7C
$IIHDM,326.,M*15
$IIVTG,317.,T,,M,06.1,N,11.3,K,A*2B
$IIHDG,326.,,,,*7E
$IIVHW,,,325.,M,05.61,N,10.38,K*13
$IIGLL,4740.275,N,00324.593,W,084114,A,A*47
$IIVWR,020.,R,20.2,N,10.4,M,037.4,K*7E
$IIHDM,326.,M*15
$IIVTG,318.,T,,M,06.0,N,11.1,K,A*27
$IIHDG,327.,,,,*7F
$IIVHW,,,325.,M,05.61,N,10.38,K*13
$IIGLL,4740.275,N,00324.593,W,084114,A,A*47
$IIVWR,020.,R,20.2,N,10.4,M,037.4,K*7E
$IIHDM,326.,M*15
$IIVTG,318.,T,,M,06.0,N,11.1,K,A*27
$IIHDG,327.,,,,*7F
$IIVHW,,,326.,M,05.65,N,10.47,K*1C
$IIGLL,4740.277,N,00324.600,W,084118,A,A*40
$IIVWR,020.,R,20.1,N,10.3,M,037.2,K*7C
$IIHDM,327.,M*14
$IIVTG,316.,T,,M,06.1,N,11.3,K,A*2A
$IIHDG,325.,,,,*7D
$IIVHW,,,325.,M,05.68,N,10.51,K*15
$IIGLL,4740.280,N,00324.600,W,084118,A,A*48
$IIVWR,020.,R,20.1,N,10.3,M,037.2,K*7C
$IIHDM,325.,M*16
$IIVTG,312.,T,,M,06.1,N,11.3,K,A*2E
$IIHDG,323.,,,,*7B
$IIVHW,,,324.,M,05.69,N,10.54,K*10
$IIGLL,4740.282,N,00324.604,W,084120,A,A*45
$IIVWR,020.,R,20.1,N,10.3,M,037.2,K*7C
$IIHDM,323.,M*10
$IIVTG,312.,T,,M,06.3,N,11.7,K,A*28
$IIHDG,324.,,,,*7C
$IIVHW,,,324.,M,05.71,N,10.57,K*1A
$IIGLL,4740.282,N,00324.604,W,084120,A,A*45
$IIVWR,021.,R,20.1,N,10.3,M,037.2,K*7D
$IIHDM,324.,M*17
$IIVTG,312.,T,,M,06.3,N,11.7,K,A*28
$IIHDG,325.,,,,*7D
$IIVHW,,,325.,M,05.73,N,10.61,K*1C
$IIGLL,4740.284,N,00324.608,W,084122,A,A*4D
$IIVWR,021.,R,20.1,N,10.3,M,037.2,K*7D
$IIHDM,325.,M*16
$IIVTG,312.,T,,M,06.3,N,11.7,K,A*28
$IIHDG,324.,,,,*7C
$IIVHW,,,323.,M,05.75,N,10.64,K*19
$IIGLL,4740.284,N,00324.608,W,084122,A,A*4D
$IIVWR,021.,R,20.1,N,10.3,M,037.2,K*7D
$IIHDM,324.,M*17
$IIVTG,316.,T,,M,06.1,N,11.3,K,A*2A
$IIHDG,323.,,,,*7B
$IIVHW,,,323.,M,05.66,N,10.49,K*14
$IIGLL,4740.286,N,00324.611,W,084124,A,A*41
$IIVWR,022.,R,19.9,N,10.2,M,036.9,K*77
$IIHDM,323.,M*10
$IIVTG,316.,T,,M,06.1,N,11.3,K,A*2A
$IIHDG,326.,,,,*7E
$IIVHW,,,327.,M,05.61,N,10.38,K*11
$IIGLL,4740.286,N,00324.611,W,084124,A,A*41
$IIVWR,023.,R,19.9,N,10.2,M,036.9,K*76
$IIHDM,326.,M*15
$IIVTG,312.,T,,M,06.2,N,11.5,K,A*2B
$IIHDG,328.,,,,*70
$IIVHW,,,327.,M,05.64,N,10.44,K*1F
$IIGLL,4740.286,N,00324.611,W,084124,A,A*41
$IIVWR,022.,R,20.0,N,10.3,M,037.0,K*7D
$IIHDM,326.,M*15
$IIVTG,312.,T,,M,06.2,N,11.5,K,A*2B
$IIHDG,333.,,,,*7A
$IIVHW,,,329.,M,05.66,N,10.48,K*1F
$IIGLL,4740.286,N,00324.611,W,084124,A,A*41
$IIVWR,022.,R,20.0,N,10.3,M,037.0,K*7D
$IIHDM,333.,M*11
$IIVTG,314.,T,,M,06.1,N,11.3,K,A*28
$IIHDG,337.,,,,*7E
$IIVHW,,,332.,M,05.64,N,10.45,K*1A
$IIGLL,4740.288,N,00324.615,W,084126,A,A*49
$IIVWR,022.,R,20.1,N,10.3,M,037.2,K*7E
$IIHDM,337.,M*15
$IIVTG,314.,T,,M,06.1,N,11.3,K,A*28
$IIHDG,336.,,,,*7F
$IIVHW,,,335.,M,05.66,N,10.48,K*12
$IIGLL,4740.288,N,00324.615,W,084126,A,A*49
$IIVWR,022.,R,20.2,N,10.4,M,037.4,K*7C
$IIHDM,336.,M*14
$IIVTG,323.,T,,M,06.0,N,11.1,K,A*2F
$IIHDG,336.,,,,*7F
$IIVHW,,,335.,M,05.66,N,10.48,K*12
$IIGLL,4740.291,N,00324.618,W,084128,A,A*42
$IIVWR,022.,R,20.2,N,10.4,M,037.4,K*7C
$IIHDM,336.,M*14
$IIVTG,323.,T,,M,06.0,N,11.1,K,A*2F
$IIHDG,336.,,,,*7F
$IIVHW,,,336.,M,05.70,N,10.55,K*1A
$IIGLL,4740.291,N,00324.618,W,084130,A,A*4B
$IIVWR,024.,R,20.1,N,10.3,M,037.2,K*78
$IIHDM,336.,M*14
$IIVTG,327.,T,,M,05.9,N,10.9,K,A*28
$IIHDG,333.,,,,*7A
$IIVHW,,,333.,M,05.71,N,10.57,K*1C
$IIGLL,4740.294,N,00324.621,W,084130,A,A*44
$IIVWR,024.,R,20.1,N,10.3,M,037.2,K*78
$IIHDM,334.,M*16
$IIVTG,322.,T,,M,06.0,N,11.1,K,A*2E
$IIHDG,333.,,,,*7A
$IIVHW,,,333.,M,05.72,N,10.59,K*11
$IIGLL,4740.296,N,00324.624,W,084132,A,A*41
$IIVWR,023.,R,20.1,N,10.3,M,037.2,K*7F
$IIHDM,333.,M*11
$IIVTG,322.,T,,M,06.0,N,11.1,K,A*2E
$IIHDG,333.,,,,*7A
$IIVHW,,,334.,M,05.73,N,10.61,K*1C
$IIGLL,4740.296,N,00324.624,W,084132,A,A*41
$IIVWR,023.,R,20.2,N,10.4,M,037.4,K*7D
$IIHDM,334.,M*16
$IIVTG,323.,T,,M,06.1,N,11.3,K,A*2C
$IIHDG,336.,,,,*7F
$IIVHW,,,334.,M,05.73,N,10.61,K*1C
$IIGLL,4740.299,N,00324.628,W,084134,A,A*44
$IIVWR,023.,R,20.2,N,10.4,M,037.4,K*7D
$IIHDM,336.,M*14
$IIVTG,323.,T,,M,06.1,N,11.3,K,A*2C
$IIHDG,339.,,,,*70
$IIVHW,,,340.,M,05.73,N,10.62,K*1C
$IIGLL,4740.299,N,00324.628,W,084136,A,A*46
$IIVWR,023.,R,20.5,N,10.5,M,038.0,K*70
$IIHDM,339.,M*1B
$IIVTG,331.,T,,M,06.1,N,11.3,K,A*2F
$IIHDG,343.,,,,*7D
$IIVHW,,,340.,M,05.73,N,10.62,K*1C
$IIGLL,4740.301,N,00324.630,W,084136,A,A*4F
$IIVWR,023.,R,20.5,N,10.5,M,038.0,K*70
$IIHDM,343.,M*16
$IIVTG,331.,T,,M,06.1,N,11.3,K,A*2F
$IIHDG,342.,,,,*7C
$IIVHW,,,341.,M,05.76,N,10.66,K*1C
$IIGLL,4740.301,N,00324.630,W,084138,A,A*41
$IIVWR,023.,R,20.7,N,10.6,M,038.3,K*72
$IIHDM,342.,M*17
$IIVTG,334.,T,,M,05.8,N,10.8,K,A*2A
$IIHDG,342.,,,,*7C
$IIVHW,,,337.,M,05.77,N,10.69,K*13
$IIGLL,4740.304,N,00324.633,W,084138,A,A*47
$IIVWR,023.,R,20.7,N,10.6,M,038.3,K*72
$IIHDM,340.,M*15
$IIVTG,334.,T,,M,05.8,N,10.8,K,A*2A
$IIHDG,337.,,,,*7E
$IIVHW,,,337.,M,05.77,N,10.69,K*13
$IIGLL,4740.304,N,00324.633,W,084140,A,A*48
$IIVWR,022.,R,20.6,N,10.6,M,038.2,K*73
$IIHDM,340.,M*15
$IIVTG,324.,T,,M,06.1,N,11.3,K,A*2B
$IIHDG,335.,,,,*7C
$IIVHW,,,337.,M,05.77,N,10.69,K*13
$IIGLL,4740.307,N,00324.636,W,084140,A,A*4E
$IIVWR,022.,R,20.6,N,10.6,M,038.2,K*73
$IIHDM,335.,M*17
$IIVTG,324.,T,,M,06.1,N,11.3,K,A*2B
$IIHDG,335.,,,,*7C
$IIVHW,,,335.,M,05.79,N,10.72,K*15
$IIGLL,4740.307,N,00324.636,W,084142,A,A*4C
$IIVWR,022.,R,20.6,N,10.6,M,038.2,K*73
$IIHDM,335.,M*17
$IIVTG,324.,T,,M,06.0,N,11.1,K,A*28
$IIHDG,335.,,,,*7C
$IIVHW,,,337.,M,05.79,N,10.72,K*17
$IIGLL,4740.310,N,00324.639,W,084142,A,A*45
$IIVWR,021.,R,20.6,N,10.6,M,038.2,K*70
$IIHDM,335.,M*17
$IIVTG,324.,T,,M,06.0,N,11.1,K,A*28
$IIHDG,338.,,,,*71
$IIVHW,,,337.,M,05.79,N,10.72,K*17
$IIGLL,4740.312,N,00324.642,W,084144,A,A*4D
$IIVWR,021.,R,20.6,N,10.6,M,038.2,K*70
$IIHDM,338.,M*1A
$IIVTG,327.,T,,M,05.9,N,10.9,K,A*28
$IIHDG,336.,,,,*7F
$IIVHW,,,334.,M,05.79,N,10.73,K*15
$IIGLL,4740.312,N,00324.642,W,084144,A,A*4D
$IIVWR,022.,R,20.4,N,10.5,M,037.8,K*77
$IIHDM,336.,M*14
$IIVTG,327.,T,,M,05.9,N,10.9,K,A*28
$IIHDG,336.,,,,*7F
$IIVHW,,,334.,M,05.79,N,10.73,K*15
$IIGLL,4740.315,N,00324.645,W,084146,A,A*4F
$IIVWR,022.,R,20.4,N,10.5,M,037.8,K*77
$IIHDM,334.,M*16
$IIVTG,322.,T,,M,06.0,N,11.1,K,A*2E
$IIHDG,335.,,,,*7C
$IIVHW,,,333.,M,05.79,N,10.73,K*12
$IIGLL,4740.315,N,00324.645,W,084146,A,A*4F
$IIVWR,022.,R,20.3,N,10.4,M,037.6,K*7F
$IIHDM,335.,M*17
$IIVTG,322.,T,,M,06.0,N,11.1,K,A*2E
$IIHDG,335.,,,,*7C
$IIVHW,,,336.,M,05.79,N,10.73,K*17
$IIGLL,4740.317,N,00324.645,W,084148,A,A*43
$IIVWR,022.,R,20.3,N,10.4,M,037.6,K*7F
$IIHDM,335.,M*17
$IIVTG,324.,T,,M,06.0,N,11.1,K,A*28
$IIHDG,337.,,,,*7E
$IIVHW,,,336.,M,05.79,N,10.73,K*17
$IIGLL,4740.317,N,00324.645,W,084148,A,A*43
$IIVWR,022.,R,20.3,N,10.4,M,037.6,K*7F
$IIHDM,337.,M*15
$IIVTG,324.,T,,M,06.0,N,11.1,K,A*28
$IIHDG,336.,,,,*7F
$IIVHW,,,336.,M,05.78,N,10.71,K*14
$IIGLL,4740.317,N,00324.645,W,084148,A,A*43
$IIVWR,022.,R,20.3,N,10.4,M,037.6,K*7F
$IIHDM,335.,M*17
$IIVTG,324.,T,,M,05.9,N,10.9,K,A*2B
$IIHDG,335.,,,,*7C
$IIVHW,,,335.,M,05.78,N,10.71,K*17
$IIGLL,4740.320,N,00324.651,W,084150,A,A*4B
$IIVWR,023.,R,20.3,N,10.4,M,037.6,K*7E
$IIHDM,335.,M*17
$IIVTG,324.,T,,M,05.9,N,10.9,K,A*2B
$IIHDG,336.,,,,*7F
$IIVHW,,,335.,M,05.78,N,10.71,K*17
$IIGLL,4740.322,N,00324.654,W,084152,A,A*4E
$IIVWR,023.,R,20.3,N,10.4,M,037.6,K*7E
$IIHDM,338.,M*1A
$IIVTG,324.,T,,M,05.9,N,10.9,K,A*2B
$IIHDG,336.,,,,*7F
$IIVHW,,,338.,M,05.78,N,10.71,K*1A
$IIGLL,4740.322,N,00324.654,W,084152,A,A*4E
$IIVWR,023.,R,20.3,N,10.4,M,037.6,K*7E
$IIHDM,339.,M*1B
$IIVTG,324.,T,,M,05.9,N,10.9,K,A*2B
$IIHDG,342.,,,,*7C
$IIVHW,,,340.,M,05.83,N,10.80,K*1F
$IIGLL,4740.325,N,00324.657,W,084154,A,A*4C
$IIVWR,024.,R,20.2,N,10.4,M,037.4,K*7A
$IIHDM,342.,M*17
$IIVTG,331.,T,,M,05.9,N,10.9,K,A*2F
$IIHDG,338.,,,,*71
$IIVHW,,,340.,M,05.83,N,10.80,K*1F
$IIGLL,4740.325,N,00324.657,W,084154,A,A*4C
$IIVWR,024.,R,20.2,N,10.4,M,037.4,K*7A
$IIHDM,338.,M*1A
$IIVTG,331.,T,,M,05.9,N,10.9,K,A*2F
$IIHDG,339.,,,,*70
$IIVHW,,,338.,M,05.83,N,10.80,K*10
$IIGLL,4740.325,N,00324.657,W,084154,A,A*4C
$IIVWR,024.,R,20.1,N,10.3,M,037.2,K*78
$IIHDM,339.,M*1B
$IIVTG,329.,T,,M,06.0,N,11.1,K,A*25
$IIHDG,341.,,,,*7F
$IIVHW,,,338.,M,05.83,N,10.80,K*10
$IIGLL,4740.328,N,00324.660,W,084156,A,A*47
$IIVWR,023.,R,20.1,N,10.3,M,037.2,K*7F
$IIHDM,339.,M*1B
$IIVTG,329.,T,,M,06.0,N,11.1,K,A*25
$IIHDG,340.,,,,*7E
$IIVHW,,,342.,M,05.83,N,10.79,K*1B
$IIGLL,4740.328,N,00324.660,W,084156,A,A*47
$IIVWR,023.,R,20.1,N,10.3,M,037.2,K*7F
$IIHDM,340.,M*15
$IIVTG,329.,T,,M,06.0,N,11.1,K,A*25
$IIHDG,337.,,,,*7E
$IIVHW,,,338.,M,05.82,N,10.78,K*16
$IIGLL,4740.331,N,00324.663,W,084158,A,A*42
$IIVWR,023.,R,20.1,N,10.3,M,037.2,K*7F
$IIHDM,337.,M*15
$IIVTG,330.,T,,M,05.9,N,10.9,K,A*2E
$IIHDG,336.,,,,*7F
$IIVHW,,,335.,M,05.82,N,10.78,K*1B
$IIGLL,4740.331,N,00324.663,W,084158,A,A*42
$IIVWR,023.,R,20.1,N,10.3,M,037.2,K*7F
$IIHDM,337.,M*15
$IIVTG,330.,T,,M,05.9,N,10.9,K,A*2E
$IIHDG,336.,,,,*7F
$IIVHW,,,335.,M,05.82,N,10.77,K*14
$IIGLL,4740.331,N,00324.663,W,084158,A,A*42
$IIVWR,023.,R,20.1,N,10.3,M,037.2,K*7F
$IIHDM,336.,M*14
$IIVTG,324.,T,,M,06.1,N,11.3,K,A*2B
$IIHDG,336.,,,,*7F
$IIVHW,,,336.,M,05.82,N,10.77,K*17
$IIGLL,4740.333,N,00324.666,W,084200,A,A*4B
$IIVWR,022.,R,20.0,N,10.3,M,037.0,K*7D
$IIHDM,336.,M*14
$IIVTG,327.,T,,M,06.1,N,11.3,K,A*28
$IIHDG,336.,,,,*7F
$IIVHW,,,336.,M,05.82,N,10.77,K*17
$IIGLL,4740.336,N,00324.668,W,084202,A,A*42
$IIVWR,022.,R,19.9,N,10.2,M,036.9,K*77
$IIHDM,336.,M*14
$IIVTG,327.,T,,M,06.1,N,11.3,K,A*28
$IIHDG,336.,,,,*7F
$IIVHW,,,335.,M,05.82,N,10.78,K*1B
$IIGLL,4740.336,N,00324.668,W,084204,A,A*44
$IIVWR,022.,R,19.7,N,10.1,M,036.5,K*76
$IIHDM,336.,M*14
$IIVTG,327.,T,,M,06.1,N,11.3,K,A*28
$IIHDG,335.,,,,*7C
$IIVHW,,,333.,M,05.82,N,10.77,K*12
$IIGLL,4740.339,N,00324.671,W,084204,A,A*43
$IIVWR,022.,R,19.7,N,10.1,M,036.5,K*76
$IIHDM,335.,M*17
$IIVTG,327.,T,,M,06.0,N,11.1,K,A*2B
$IIHDG,335.,,,,*7C
$IIVHW,,,333.,M,05.82,N,10.77,K*12
$IIGLL,4740.339,N,00324.671,W,084204,A,A*43
$IIVWR,022.,R,19.7,N,10.1,M,036.5,K*76
$IIHDM,335.,M*17
$IIVTG,325.,T,,M,06.0,N,11.1,K,A*29
$IIHDG,332.,,,,*7B
$IIVHW,,,333.,M,05.82,N,10.77,K*12
$IIGLL,4740.341,N,00324.674,W,084206,A,A*4B
$IIVWR,021.,R,19.7,N,10.1,M,036.5,K*75
$IIHDM,332.,M*10
$IIVTG,325.,T,,M,06.0,N,11.1,K,A*29
$IIHDG,332.,,,,*7B
$IIVHW,,,333.,M,05.82,N,10.77,K*12
$IIGLL,4740.341,N,00324.674,W,084206,A,A*4B
$IIVWR,021.,R,19.7,N,10.1,M,036.5,K*75
$IIHDM,332.,M*10
$IIVTG,323.,T,,M,06.2,N,11.5,K,A*29
$IIHDG,333.,,,,*7A
$IIVHW,,,334.,M,05.82,N,10.77,K*15
$IIGLL,4740.344,N,00324.678,W,084208,A,A*4C
$IIVWR,020.,R,19.7,N,10.1,M,036.5,K*74
$IIHDM,333.,M*11
$IIVTG,323.,T,,M,06.2,N,11.5,K,A*29
$IIHDG,333.,,,,*7A
$IIVHW,,,334.,M,05.82,N,10.77,K*15
$IIGLL,4740.344,N,00324.678,W,084210,A,A*45
$IIVWR,020.,R,19.7,N,10.1,M,036.5,K*74
$IIHDM,333.,M*11
$IIVTG,326.,T,,M,06.2,N,11.5,K,A*2C
$IIHDG,333.,,,,*7A
$IIVHW,,,336.,M,05.82,N,10.77,K*17
$IIGLL,4740.344,N,00324.678,W,084210,A,A*45
$IIVWR,019.,R,19.6,N,10.1,M,036.3,K*79
$IIHDM,333.,M*11
$IIVTG,326.,T,,M,06.2,N,11.5,K,A*2C
$IIHDG,336.,,,,*7F
$IIVHW,,,334.,M,05.82,N,10.78,K*1A
$IIGLL,4740.347,N,00324.681,W,084212,A,A*42
$IIVWR,019.,R,19.6,N,10.1,M,036.3,K*79
$IIHDM,336.,M*14
$IIVTG,326.,T,,M,06.1,N,11.3,K,A*29
$IIHDG,332.,,,,*7B
$IIVHW,,,328.,M,05.82,N,10.78,K*17
$IIGLL,4740.349,N,00324.684,W,084212,A,A*49
$IIVWR,020.,R,19.6,N,10.1,M,036.3,K*73
$IIHDM,332.,M*10
$IIVTG,326.,T,,M,06.1,N,11.3,K,A*29
$IIHDG,331.,,,,*78
$IIVHW,,,328.,M,05.82,N,10.78,K*17
$IIGLL,4740.349,N,00324.684,W,084214,A,A*4F
$IIVWR,020.,R,19.6,N,10.1,M,036.3,K*73
$IIHDM,331.,M*13
$IIVTG,322.,T,,M,06.0,N,11.1,K,A*2E
$IIHDG,329.,,,,*71
$IIVHW,,,328.,M,05.82,N,10.78,K*17
$IIGLL,4740.352,N,00324.687,W,084214,A,A*46
$IIVWR,020.,R,19.6,N,10.1,M,036.3,K*73
$IIHDM,329.,M*1A
$IIVTG,322.,T,,M,06.0,N,11.1,K,A*2E
$IIHDG,329.,,,,*71
$IIVHW,,,328.,M,05.82,N,10.78,K*17
$IIGLL,4740.352,N,00324.687,W,084216,A,A*44
$IIVWR,020.,R,19.8,N,10.2,M,036.7,K*7A
$IIHDM,329.,M*1A
$IIVTG,318.,T,,M,06.0,N,11.1,K,A*27
$IIHDG,329.,,,,*71
$IIVHW,,,329.,M,05.82,N,10.77,K*19
$IIGLL,4740.352,N,00324.687,W,084216,A,A*44
$IIVWR,020.,R,20.0,N,10.3,M,037.0,K*7F
$IIHDM,329.,M*1A
$IIVTG,318.,T,,M,06.0,N,11.1,K,A*27
$IIHDG,330.,,,,*79
$IIVHW,,,329.,M,05.81,N,10.76,K*1B
$IIGLL,4740.356,N,00324.694,W,084218,A,A*4C
$IIVWR,019.,R,20.1,N,10.3,M,037.2,K*76
$IIHDM,330.,M*12
$IIVTG,320.,T,,M,05.9,N,10.9,K,A*2F
$IIHDG,330.,,,,*79
$IIVHW,,,329.,M,05.79,N,10.73,K*19
$IIGLL,4740.356,N,00324.694,W,084218,A,A*4C
$IIVWR,019.,R,20.1,N,10.3,M,037.2,K*76
$IIHDM,330.,M*12
$IIVTG,320.,T,,M,05.9,N,10.9,K,A*2F
$IIHDG,325.,,,,*7D
$IIVHW,,,326.,M,05.79,N,10.72,K*17
$IIGLL,4740.359,N,00324.697,W,084220,A,A*4B
$IIVWR,020.,R,20.1,N,10.3,M,037.2,K*7C
$IIHDM,325.,M*16
$IIVTG,314.,T,,M,05.9,N,10.9,K,A*28
$IIHDG,325.,,,,*7D
$IIVHW,,,324.,M,05.78,N,10.70,K*16
$IIGLL,4740.359,N,00324.697,W,084220,A,A*4B
$IIVWR,020.,R,20.2,N,10.4,M,037.4,K*7E
$IIHDM,325.,M*16
$IIVTG,314.,T,,M,05.9,N,10.9,K,A*28
$IIHDG,325.,,,,*7D
$IIVHW,,,326.,M,05.77,N,10.69,K*13
$IIGLL,4740.361,N,00324.701,W,084222,A,A*4C
$IIVWR,020.,R,20.2,N,10.4,M,037.4,K*7E
$IIHDM,327.,M*14
$IIVTG,314.,T,,M,05.9,N,10.9,K,A*28
$IIHDG,328.,,,,*70
$IIVHW,,,329.,M,05.77,N,10.68,K*1D
$IIGLL,4740.361,N,00324.701,W,084222,A,A*4C
$IIVWR,020.,R,20.3,N,10.4,M,037.6,K*7D
$IIHDM,328.,M*1B
$IIVTG,315.,T,,M,06.1,N,11.3,K,A*29
$IIHDG,329.,,,,*71
$IIVHW,,,330.,M,05.76,N,10.67,K*1B
$IIGLL,4740.363,N,00324.705,W,084224,A,A*4C
$IIVWR,020.,R,20.4,N,10.5,M,037.8,K*75
$IIHDM,329.,M*1A
$IIVTG,315.,T,,M,06.1,N,11.3,K,A*29
$IIHDG,329.,,,,*71
$IIVHW,,,328.,M,05.76,N,10.66,K*13
$IIGLL,4740.363,N,00324.705,W,084224,A,A*4C
$IIVWR,020.,R,20.4,N,10.5,M,037.8,K*75
$IIHDM,328.,M*1B
$IIVTG,319.,T,,M,06.0,N,11.1,K,A*26
$IIHDG,329.,,,,*71
$IIVHW,,,329.,M,05.76,N,10.66,K*12
$IIGLL,4740.366,N,00324.708,W,084226,A,A*46
$IIVWR,020.,R,20.4,N,10.5,M,037.8,K*75
$IIHDM,329.,M*1A
$IIVTG,319.,T,,M,06.0,N,11.1,K,A*26
$IIHDG,330.,,,,*79
$IIVHW,,,330.,M,05.75,N,10.65,K*1A
$IIGLL,4740.366,N,00324.708,W,084226,A,A*46
$IIVWR,021.,R,20.2,N,10.4,M,037.4,K*7F
$IIHDM,331.,M*13
$IIVTG,319.,T,,M,06.0,N,11.1,K,A*26
$IIHDG,334.,,,,*7D
$IIVHW,,,330.,M,05.75,N,10.65,K*1A
$IIGLL,4740.366,N,00324.708,W,084226,A,A*46
$IIVWR,021.,R,20.1,N,10.3,M,037.2,K*7D
$IIHDM,334.,M*16
$IIVTG,323.,T,,M,05.8,N,10.8,K,A*2C
$IIHDG,327.,,,,*7F
$IIVHW,,,327.,M,05.75,N,10.64,K*1D
$IIGLL,4740.368,N,00324.712,W,084228,A,A*4D
$IIVWR,021.,R,19.8,N,10.2,M,036.7,K*7B
$IIHDM,326.,M*15
$IIVTG,323.,T,,M,05.8,N,10.8,K,A*2C
$IIHDG,326.,,,,*7E
$IIVHW,,,326.,M,05.75,N,10.64,K*1C
$IIGLL,4740.368,N,00324.712,W,084228,A,A*4D
$IIVWR,021.,R,19.7,N,10.1,M,036.5,K*75
$IIHDM,326.,M*15
$IIVTG,323.,T,,M,05.8,N,10.8,K,A*2C
$IIHDG,327.,,,,*7F
$IIVHW,,,326.,M,05.75,N,10.64,K*1C
$IIGLL,4740.370,N,00324.715,W,084230,A,A*4A
$IIVWR,021.,R,19.7,N,10.1,M,036.5,K*75
$IIHDM,326.,M*15
$IIVTG,318.,T,,M,06.1,N,11.3,K,A*24
$IIHDG,323.,,,,*7B
$IIVHW,,,325.,M,05.75,N,10.65,K*1E
$IIGLL,4740.370,N,00324.715,W,084230,A,A*4A
$IIVWR,021.,R,19.6,N,10.1,M,036.3,K*72
$IIHDM,327.,M*14
$IIVTG,318.,T,,M,06.1,N,11.3,K,A*24
$IIHDG,323.,,,,*7B
$IIVHW,,,324.,M,05.76,N,10.66,K*1F
$IIGLL,4740.370,N,00324.715,W,084230,A,A*4A
$IIVWR,022.,R,19.5,N,10.0,M,036.1,K*71
$IIHDM,327.,M*14
$IIVTG,318.,T,,M,06.1,N,11.3,K,A*24
$IIHDG,324.,,,,*7C
$IIVHW,,,324.,M,05.76,N,10.66,K*1F
$IIGLL,4740.373,N,00324.719,W,084234,A,A*41
$IIVWR,021.,R,19.6,N,10.1,M,036.3,K*72
$IIHDM,324.,M*17
$IIVTG,313.,T,,M,06.1,N,11.3,K,A*2F
$IIHDG,324.,,,,*7C
$IIVHW,,,323.,M,05.76,N,10.66,K*18
$IIGLL,4740.375,N,00324.723,W,084234,A,A*4E
$IIVWR,021.,R,19.9,N,10.2,M,036.9,K*74
$IIHDM,324.,M*17
$IIVTG,313.,T,,M,06.1,N,11.3,K,A*2F
$IIHDG,324.,,,,*7C
$IIVHW,,,323.,M,05.76,N,10.66,K*18
$IIGLL,4740.375,N,00324.723,W,084236,A,A*4C
$IIVWR,021.,R,19.9,N,10.2,M,036.9,K*74
$IIHDM,324.,M*17
$IIVTG,317.,T,,M,06.1,N,11.3,K,A*2B
$IIHDG,328.,,,,*70
$IIVHW,,,328.,M,05.75,N,10.65,K*13
$IIGLL,4740.377,N,00324.726,W,084236,A,A*4B
$IIVWR,021.,R,20.5,N,10.5,M,038.0,K*72
$IIHDM,328.,M*1B
$IIVTG,317.,T,,M,06.1,N,11.3,K,A*2B
$IIHDG,328.,,,,*70
$IIVHW,,,330.,M,05.75,N,10.64,K*1B
$IIGLL,4740.377,N,00324.726,W,084238,A,A*45
$IIVWR,021.,R,20.5,N,10.5,M,038.0,K*72
$IIHDM,327.,M*14
$IIVTG,317.,T,,M,06.1,N,11.3,K,A*2B
$IIHDG,328.,,,,*70
$IIVHW,,,328.,M,05.75,N,10.65,K*13
$IIGLL,4740.379,N,00324.730,W,084238,A,A*4C
$IIVWR,022.,R,20.6,N,10.6,M,038.2,K*73
$IIHDM,328.,M*1B
$IIVTG,317.,T,,M,06.1,N,11.3,K,A*2B
$IIHDG,328.,,,,*70
$IIVHW,,,327.,M,05.75,N,10.65,K*1C
$IIGLL,4740.379,N,00324.730,W,084238,A,A*4C
$IIVWR,022.,R,20.6,N,10.6,M,038.2,K*73
$IIHDM,328.,M*1B
$IIVTG,317.,T,,M,06.1,N,11.3,K,A*2B
$IIHDG,326.,,,,*7E
$IIVHW,,,325.,M,05.75,N,10.64,K*1F
$IIGLL,4740.382,N,00324.733,W,084240,A,A*44
$IIVWR,022.,R,20.6,N,10.6,M,038.2,K*73
$IIHDM,326.,M*15
$IIVTG,318.,T,,M,05.7,N,10.6,K,A*25
$IIHDG,324.,,,,*7C
$IIVHW,,,325.,M,05.74,N,10.63,K*19
$IIGLL,4740.382,N,00324.733,W,084240,A,A*44
$IIVWR,022.,R,20.6,N,10.6,M,038.2,K*73
$IIHDM,324.,M*17
$IIVTG,312.,T,,M,06.0,N,11.1,K,A*2D
$IIHDG,326.,,,,*7E
$IIVHW,,,329.,M,05.73,N,10.62,K*13
$IIGLL,4740.384,N,00324.737,W,084242,A,A*44
$IIVWR,023.,R,20.8,N,10.7,M,038.5,K*7A
$IIHDM,326.,M*15
$IIVTG,312.,T,,M,06.0,N,11.1,K,A*2D
$IIHDG,330.,,,,*79
$IIVHW,,,329.,M,05.73,N,10.62,K*13
$IIGLL,4740.384,N,00324.737,W,084244,A,A*42
$IIVWR,023.,R,21.0,N,10.8,M,038.9,K*70
$IIHDM,330.,M*12
$IIVTG,321.,T,,M,05.7,N,10.6,K,A*2F
$IIHDG,332.,,,,*7B
$IIVHW,,,332.,M,05.73,N,10.61,K*1A
$IIGLL,4740.386,N,00324.741,W,084244,A,A*41
$IIVWR,023.,R,21.2,N,10.9,M,039.3,K*78
$IIHDM,332.,M*10
$IIVTG,321.,T,,M,05.7,N,10.6,K,A*2F
$IIHDG,334.,,,,*7D
$IIVHW,,,332.,M,05.73,N,10.61,K*1A
$IIGLL,4740.386,N,00324.741,W,084246,A,A*43
$IIVWR,023.,R,21.2,N,10.9,M,039.3,K*78
$IIHDM,334.,M*16
$IIVTG,318.,T,,M,05.9,N,10.9,K,A*24
$IIHDG,334.,,,,*7D
$IIVHW,,,337.,M,05.72,N,10.60,K*1F
$IIGLL,4740.388,N,00324.744,W,084246,A,A*48
$IIVWR,022.,R,21.6,N,11.1,M,040.0,K*79
$IIHDM,337.,M*15
$IIVTG,318.,T,,M,05.9,N,10.9,K,A*24
$IIHDG,342.,,,,*7C
$IIVHW,,,338.,M,05.72,N,10.60,K*10
$IIGLL,4740.388,N,00324.744,W,084248,A,A*46
$IIVWR,022.,R,21.6,N,11.1,M,040.0,K*79
$IIHDM,342.,M*17
$IIVTG,331.,T,,M,05.8,N,10.8,K,A*2F
$IIHDG,341.,,,,*7F
$IIVHW,,,343.,M,05.72,N,10.60,K*1C
$IIGLL,4740.391,N,00324.747,W,084248,A,A*4D
$IIVWR,022.,R,21.8,N,11.2,M,040.4,K*70
$IIHDM,341.,M*14
$IIVTG,331.,T,,M,05.8,N,10.8,K,A*2F
$IIHDG,341.,,,,*7F
$IIVHW,,,339.,M,05.72,N,10.59,K*1B
$IIGLL,4740.394,N,00324.749,W,084250,A,A*4F
$IIVWR,023.,R,21.9,N,11.3,M,040.6,K*73
$IIHDM,341.,M*14
$IIVTG,331.,T,,M,05.8,N,10.8,K,A*2F
$IIHDG,338.,,,,*71
$IIVHW,,,338.,M,05.71,N,10.58,K*18
$IIGLL,4740.394,N,00324.749,W,084250,A,A*4F
$IIVWR,023.,R,21.9,N,11.3,M,040.6,K*73
$IIHDM,338.,M*1A
$IIVTG,331.,T,,M,05.8,N,10.8,K,A*2F
$IIHDG,333.,,,,*7A
$IIVHW,,,333.,M,05.71,N,10.57,K*1C
$IIGLL,4740.396,N,00324.752,W,084252,A,A*45
$IIVWR,023.,R,21.8,N,11.2,M,040.4,K*71
$IIHDM,333.,M*11
$IIVTG,321.,T,,M,05.7,N,10.6,K,A*2F
$IIHDG,332.,,,,*7B
$IIVHW,,,332.,M,05.70,N,10.55,K*1E
$IIGLL,4740.396,N,00324.752,W,084252,A,A*45
$IIVWR,023.,R,21.8,N,11.2,M,040.4,K*71
$IIHDM,332.,M*10
$IIVTG,321.,T,,M,05.7,N,10.6,K,A*2F
$IIHDG,331.,,,,*78
$IIVHW,,,331.,M,05.68,N,10.52,K*13
$IIGLL,4740.399,N,00324.755,W,084254,A,A*4B
$IIVWR,023.,R,21.7,N,11.2,M,040.2,K*78
$IIHDM,331.,M*13
$IIVTG,321.,T,,M,05.7,N,10.6,K,A*2F
$IIHDG,334.,,,,*7D
$IIVHW,,,334.,M,05.67,N,10.50,K*1B
$IIGLL,4740.399,N,00324.755,W,084254,A,A*4B
$IIVWR,023.,R,21.5,N,11.1,M,039.8,K*7D
$IIHDM,334.,M*16
$IIVTG,319.,T,,M,05.9,N,10.9,K,A*25
$IIHDG,338.,,,,*71
$IIVHW,,,336.,M,05.66,N,10.49,K*10
$IIGLL,4740.401,N,00324.758,W,084256,A,A*42
$IIVWR,023.,R,21.5,N,11.1,M,039.8,K*7D
$IIHDM,338.,M*1A
$IIVTG,319.,T,,M,05.9,N,10.9,K,A*25
$IIHDG,340.,,,,*7E
$IIVHW,,,340.,M,05.66,N,10.48,K*10
$IIGLL,4740.401,N,00324.758,W,084256,A,A*42
$IIVWR,023.,R,21.4,N,11.0,M,039.6,K*73
$IIHDM,340.,M*15
$IIVTG,319.,T,,M,05.9,N,10.9,K,A*25
$IIHDG,337.,,,,*7E
$IIVHW,,,339.,M,05.64,N,10.45,K*11
$IIGLL,4740.401,N,00324.758,W,084256,A,A*42
$IIVWR,023.,R,21.2,N,10.9,M,039.3,K*78
$IIHDM,340.,M*15
$IIVTG,319.,T,,M,05.9,N,10.9,K,A*25
$IIHDG,334.,,,,*7D
$IIVHW,,,337.,M,05.64,N,10.44,K*1E
$IIGLL,4740.404,N,00324.761,W,084258,A,A*43
$IIVWR,023.,R,20.9,N,10.8,M,038.7,K*76
$IIHDM,334.,M*16
$IIVTG,329.,T,,M,05.6,N,10.4,K,A*24
$IIHDG,334.,,,,*7D
$IIVHW,,,335.,M,05.63,N,10.42,K*1D
$IIGLL,4740.404,N,00324.761,W,084258,A,A*43
$IIVWR,023.,R,20.8,N,10.7,M,038.5,K*7A
$IIHDM,334.,M*16
$IIVTG,324.,T,,M,05.9,N,10.9,K,A*2B
$IIHDG,331.,,,,*78
$IIVHW,,,333.,M,05.63,N,10.42,K*1B
$IIGLL,4740.406,N,00324.764,W,084300,A,A*48
$IIVWR,024.,R,20.5,N,10.5,M,038.0,K*77
$IIHDM,332.,M*10
$IIVTG,324.,T,,M,05.9,N,10.9,K,A*2B
$IIHDG,331.,,,,*78
$IIVHW,,,334.,M,05.63,N,10.43,K*1D
$IIGLL,4740.406,N,00324.764,W,084300,A,A*48
$IIVWR,024.,R,20.5,N,10.5,M,038.0,K*77
$IIHDM,331.,M*13
$IIVTG,322.,T,,M,06.1,N,11.3,K,A*2D
$IIHDG,333.,,,,*7A
$IIVHW,,,333.,M,05.64,N,10.44,K*1A
$IIGLL,4740.406,N,00324.764,W,084302,A,A*4A
$IIVWR,024.,R,20.2,N,10.4,M,037.4,K*7A
$IIHDM,333.,M*11
$IIVTG,322.,T,,M,06.1,N,11.3,K,A*2D
$IIHDG,333.,,,,*7A
$IIVHW,,,333.,M,05.64,N,10.45,K*1B
$IIGLL,4740.409,N,00324.767,W,084304,A,A*40
$IIVWR,024.,R,20.1,N,10.3,M,037.2,K*78
$IIHDM,332.,M*10
$IIVTG,322.,T,,M,06.0,N,11.1,K,A*2E
$IIHDG,333.,,,,*7A
$IIVHW,,,332.,M,05.65,N,10.46,K*18
$IIGLL,4740.411,N,00324.770,W,084304,A,A*4F
$IIVWR,023.,R,20.0,N,10.3,M,037.0,K*7C
$IIHDM,332.,M*10
$IIVTG,322.,T,,M,06.0,N,11.1,K,A*2E
$IIHDG,333.,,,,*7A
$IIVHW,,,334.,M,05.66,N,10.48,K*13
$IIGLL,4740.411,N,00324.770,W,084306,A,A*4D
$IIVWR,023.,R,20.0,N,10.3,M,037.0,K*7C
$IIHDM,332.,M*10
$IIVTG,324.,T,,M,06.0,N,11.1,K,A*28
$IIHDG,333.,,,,*7A
$IIVHW,,,333.,M,05.66,N,10.49,K*15
$IIGLL,4740.414,N,00324.774,W,084306,A,A*4C
$IIVWR,022.,R,19.6,N,10.1,M,036.3,K*71
$IIHDM,332.,M*10
$IIVTG,324.,T,,M,06.0,N,11.1,K,A*28
$IIHDG,335.,,,,*7C
$IIVHW,,,334.,M,05.68,N,10.51,K*15
$IIGLL,4740.414,N,00324.774,W,084308,A,A*42
$IIVWR,022.,R,19.5,N,10.0,M,036.1,K*71
$IIHDM,335.,M*17
$IIVTG,326.,T,,M,06.0,N,11.1,K,A*2A
$IIHDG,334.,,,,*7D
$IIVHW,,,334.,M,05.68,N,10.52,K*16
$IIGLL,4740.416,N,00324.777,W,084308,A,A*43
$IIVWR,022.,R,19.5,N,10.0,M,036.1,K*71
$IIHDM,334.,M*16
$IIVTG,326.,T,,M,06.0,N,11.1,K,A*2A
$IIHDG,337.,,,,*7E
$IIVHW,,,334.,M,05.68,N,10.52,K*16
$IIGLL,4740.416,N,00324.777,W,084310,A,A*4A
$IIVWR,022.,R,19.5,N,10.0,M,036.1,K*71
$IIHDM,337.,M*15
$IIVTG,343.,T,,M,05.3,N,09.8,K,A*29
$IIHDG,347.,,,,*79
$IIVHW,,,355.,M,05.68,N,10.51,K*12
$IIGLL,4740.419,N,00324.779,W,084310,A,A*4B
$IIVWR,022.,R,19.5,N,10.0,M,036.1,K*71
$IIHDM,347.,M*12
$IIVTG,343.,T,,M,05.3,N,09.8,K,A*29
$IIHDG,347.,,,,*79
$IIVHW,,,012.,M,05.62,N,10.41,K*19
$IIGLL,4740.419,N,00324.779,W,084312,A,A*49
$IIVWR,022.,R,19.5,N,10.0,M,036.1,K*71
$IIHDM,004.,M*16
$IIVTG,009.,T,,M,04.5,N,08.3,K,A*29
$IIHDG,021.,,,,*7A
$IIVHW,,,012.,M,05.62,N,10.41,K*19
$IIGLL,4740.422,N,00324.779,W,084312,A,A*41
$IIVWR,016.,R,19.6,N,10.1,M,036.3,K*76
$IIHDM,021.,M*11
$IIVTG,009.,T,,M,04.5,N,08.3,K,A*29
$IIHDG,030.,,,,*7A
$IIVHW,,,036.,M,05.51,N,10.21,K*19
$IIGLL,4740.424,N,00324.777,W,084314,A,A*4F
$IIVWR,011.,R,19.1,N,09.8,M,035.4,K*73
$IIHDM,030.,M*11
$IIVTG,043.,T,,M,03.6,N,06.7,K,A*29
$IIHDG,030.,,,,*7A
$IIVHW,,,036.,M,05.51,N,10.21,K*19
$IIGLL,4740.424,N,00324.777,W,084314,A,A*4F
$IIVWR,008.,R,18.7,N,09.6,M,034.6,K*71
$IIHDM,038.,M*19
$IIVTG,043.,T,,M,03.6,N,06.7,K,A*29
$IIHDG,043.,,,,*7E
$IIVHW,,,042.,M,05.44,N,10.07,K*1A
$IIGLL,4740.425,N,00324.775,W,084316,A,A*4E
$IIVWR,008.,R,18.7,N,09.6,M,034.6,K*71
$IIHDM,043.,M*15
$IIVTG,053.,T,,M,04.1,N,07.6,K,A*28
$IIHDG,042.,,,,*7F
$IIVHW,,,042.,M,05.44,N,10.07,K*1A
$IIGLL,4740.425,N,00324.775,W,084316,A,A*4E
$IIVWR,008.,R,18.7,N,09.6,M,034.6,K*71
$IIHDM,042.,M*14
$IIVTG,053.,T,,M,04.1,N,07.6,K,A*28
$IIHDG,041.,,,,*7C
$IIVHW,,,041.,M,05.27,N,09.76,K*12
$IIGLL,4740.425,N,00324.775,W,084316,A,A*4E
$IIVWR,008.,R,18.7,N,09.6,M,034.6,K*71
$IIHDM,041.,M*17
$IIVTG,048.,T,,M,04.6,N,08.5,K,A*29
$IIHDG,039.,,,,*73
$IIVHW,,,040.,M,05.19,N,09.62,K*1B
$IIGLL,4740.427,N,00324.772,W,084318,A,A*45
$IIVWR,007.,L,17.8,N,09.2,M,033.0,K*65
$IIHDM,041.,M*17
$IIVTG,048.,T,,M,04.6,N,08.5,K,A*29
$IIHDG,038.,,,,*72
$IIVHW,,,038.,M,05.13,N,09.50,K*1F
$IIGLL,4740.429,N,00324.772,W,084320,A,A*40
$IIVWR,011.,L,18.0,N,09.3,M,033.3,K*67
$IIHDM,038.,M*19
$IIVTG,039.,T,,M,04.6,N,08.5,K,A*2F
$IIHDG,038.,,,,*72
$IIVHW,,,037.,M,05.08,N,09.41,K*1A
$IIGLL,4740.429,N,00324.772,W,084320,A,A*40
$IIVWR,012.,L,18.1,N,09.3,M,033.5,K*63
$IIHDM,038.,M*19
$IIVTG,039.,T,,M,04.6,N,08.5,K,A*2F
$IIHDG,035.,,,,*7F
$IIVHW,,,035.,M,05.03,N,09.31,K*14
$IIGLL,4740.431,N,00324.767,W,084322,A,A*4F
$IIVWR,014.,L,18.2,N,09.4,M,033.7,K*63
$IIHDM,036.,M*17
$IIVTG,039.,T,,M,04.6,N,08.5,K,A*2F
$IIHDG,037.,,,,*7D
$IIVHW,,,037.,M,05.03,N,09.32,K*15
$IIGLL,4740.431,N,00324.767,W,084322,A,A*4F
$IIVWR,015.,L,18.3,N,09.4,M,033.9,K*6D
$IIHDM,037.,M*16
$IIVTG,036.,T,,M,05.3,N,09.8,K,A*28
$IIHDG,037.,,,,*7D
$IIVHW,,,036.,M,05.06,N,09.37,K*14
$IIGLL,4740.433,N,00324.765,W,084324,A,A*49
$IIVWR,017.,L,18.4,N,09.5,M,034.1,K*66
$IIHDM,037.,M*16
$IIVTG,036.,T,,M,05.3,N,09.8,K,A*28
$IIHDG,038.,,,,*72
$IIVHW,,,035.,M,05.09,N,09.42,K*1A
$IIGLL,4740.433,N,00324.765,W,084324,A,A*49
$IIVWR,019.,L,18.4,N,09.5,M,034.1,K*68
$IIHDM,038.,M*19
$IIVTG,036.,T,,M,05.3,N,09.8,K,A*28
$IIHDG,038.,,,,*72
$IIVHW,,,041.,M,05.09,N,09.42,K*19
$IIGLL,4740.433,N,00324.765,W,084324,A,A*49
$IIVWR,020.,L,18.4,N,09.5,M,034.1,K*62
$IIHDM,042.,M*14
$IIVTG,049.,T,,M,05.4,N,10.0,K,A*27
$IIHDG,040.,,,,*7D
$IIVHW,,,040.,M,05.16,N,09.56,K*13
$IIGLL,4740.435,N,00324.762,W,084326,A,A*4A
$IIVWR,020.,L,18.4,N,09.5,M,034.1,K*62
$IIHDM,040.,M*16
$IIVTG,049.,T,,M,05.4,N,10.0,K,A*27
$IIHDG,038.,,,,*72
$IIVHW,,,038.,M,05.21,N,09.64,K*19
$IIGLL,4740.435,N,00324.762,W,084326,A,A*4A
$IIVWR,021.,L,18.7,N,09.6,M,034.6,K*64
$IIHDM,038.,M*19
$IIVTG,044.,T,,M,05.5,N,10.2,K,A*29
$IIHDG,038.,,,,*72
$IIVHW,,,037.,M,05.29,N,09.79,K*12
$IIGLL,4740.438,N,00324.758,W,084328,A,A*40
$IIVWR,021.,L,18.7,N,09.6,M,034.6,K*64
$IIHDM,033.,M*12
$IIVTG,044.,T,,M,05.5,N,10.2,K,A*29
$IIHDG,033.,,,,*79
$IIVHW,,,031.,M,05.32,N,09.86,K*1E
$IIGLL,4740.438,N,00324.758,W,084328,A,A*40
$IIVWR,021.,L,18.7,N,09.6,M,034.6,K*64
$IIHDM,033.,M*12
$IIVTG,044.,T,,M,05.5,N,10.2,K,A*29
$IIHDG,035.,,,,*7F
$IIVHW,,,034.,M,05.36,N,09.93,K*1B
$IIGLL,4740.440,N,00324.756,W,084330,A,A*48
$IIVWR,021.,L,18.7,N,09.6,M,034.6,K*64
$IIHDM,033.,M*12
$IIVTG,037.,T,,M,05.5,N,10.2,K,A*2D
$IIHDG,035.,,,,*7F
$IIVHW,,,034.,M,05.36,N,09.93,K*1B
$IIGLL,4740.440,N,00324.756,W,084330,A,A*48
$IIVWR,021.,L,18.7,N,09.6,M,034.6,K*64
$IIHDM,035.,M*14
$IIVTG,042.,T,,M,05.5,N,10.2,K,A*2F
$IIHDG,037.,,,,*7D
$IIVHW,,,038.,M,05.44,N,10.07,K*17
$IIGLL,4740.440,N,00324.756,W,084330,A,A*48
$IIVWR,021.,L,18.7,N,09.6,M,034.6,K*64
$IIHDM,037.,M*16
$IIVTG,042.,T,,M,05.5,N,10.2,K,A*2F
$IIHDG,039.,,,,*73
$IIVHW,,,038.,M,05.48,N,10.14,K*19
$IIGLL,4740.443,N,00324.753,W,084334,A,A*4A
$IIVWR,024.,L,19.3,N,09.9,M,035.7,K*6B
$IIHDM,039.,M*18
$IIVTG,042.,T,,M,05.6,N,10.4,K,A*2A
$IIHDG,037.,,,,*7D
$IIVHW,,,036.,M,05.51,N,10.20,K*18
$IIGLL,4740.445,N,00324.750,W,084334,A,A*4F
$IIVWR,024.,L,19.5,N,10.0,M,036.1,K*69
$IIHDM,037.,M*16
$IIVTG,042.,T,,M,05.6,N,10.4,K,A*2A
$IIHDG,035.,,,,*7F
$IIVHW,,,035.,M,05.54,N,10.25,K*1B
$IIGLL,4740.445,N,00324.750,W,084334,A,A*4F
$IIVWR,024.,L,19.5,N,10.0,M,036.1,K*69
$IIHDM,035.,M*14
$IIVTG,041.,T,,M,05.7,N,10.6,K,A*2A
$IIHDG,034.,,,,*7E
$IIVHW,,,035.,M,05.54,N,10.25,K*1B
$IIGLL,4740.448,N,00324.747,W,084336,A,A*46
$IIVWR,024.,L,19.7,N,10.1,M,036.5,K*6E
$IIHDM,034.,M*15
$IIVTG,041.,T,,M,05.7,N,10.6,K,A*2A
$IIHDG,033.,,,,*79
$IIVHW,,,032.,M,05.59,N,10.36,K*13
$IIGLL,4740.448,N,00324.747,W,084338,A,A*48
$IIVWR,024.,L,19.9,N,10.2,M,036.9,K*6F
$IIHDM,033.,M*12
$IIVTG,037.,T,,M,05.8,N,10.8,K,A*2A
$IIHDG,036.,,,,*7C
$IIVHW,,,038.,M,05.63,N,10.43,K*12
$IIGLL,4740.450,N,00324.745,W,084338,A,A*43
$IIVWR,025.,L,20.0,N,10.3,M,037.0,K*64
$IIHDM,036.,M*17
$IIVTG,037.,T,,M,05.8,N,10.8,K,A*2A
$IIHDG,036.,,,,*7C
$IIVHW,,,040.,M,05.66,N,10.48,K*13
$IIGLL,4740.450,N,00324.745,W,084340,A,A*4C
$IIVWR,025.,L,20.0,N,10.3,M,037.0,K*64
$IIHDM,036.,M*17
$IIVTG,041.,T,,M,05.5,N,10.2,K,A*2C
$IIHDG,040.,,,,*7D
$IIVHW,,,041.,M,05.67,N,10.50,K*1A
$IIGLL,4740.453,N,00324.742,W,084340,A,A*48
$IIVWR,025.,L,20.0,N,10.3,M,037.0,K*64
$IIHDM,041.,M*17
$IIVTG,041.,T,,M,05.5,N,10.2,K,A*2C
$IIHDG,040.,,,,*7D
$IIVHW,,,041.,M,05.65,N,10.47,K*1E
$IIGLL,4740.453,N,00324.742,W,084342,A,A*4A
$IIVWR,025.,L,20.0,N,10.3,M,037.0,K*64
$IIHDM,042.,M*14
$IIVTG,048.,T,,M,05.5,N,10.2,K,A*25
$IIHDG,041.,,,,*7C
$IIVHW,,,040.,M,05.68,N,10.51,K*15
$IIGLL,4740.455,N,00324.739,W,084342,A,A*40
$IIVWR,025.,L,20.0,N,10.3,M,037.0,K*64
$IIHDM,041.,M*17
$IIVTG,048.,T,,M,05.5,N,10.2,K,A*25
$IIHDG,038.,,,,*72
$IIVHW,,,040.,M,05.68,N,10.51,K*15
$IIGLL,4740.455,N,00324.739,W,084344,A,A*46
$IIVWR,025.,L,20.0,N,10.3,M,037.0,K*64
$IIHDM,038.,M*19
$IIVTG,041.,T,,M,05.6,N,10.4,K,A*29
$IIHDG,037.,,,,*7D
$IIVHW,,,038.,M,05.70,N,10.55,K*17
$IIGLL,4740.457,N,00324.736,W,084344,A,A*4B
$IIVWR,026.,L,20.3,N,10.4,M,037.6,K*65
$IIHDM,037.,M*16
$IIVTG,041.,T,,M,05.6,N,10.4,K,A*29
$IIHDG,040.,,,,*7D
$IIVHW,,,038.,M,05.70,N,10.55,K*17
$IIGLL,4740.457,N,00324.736,W,084346,A,A*49
$IIVWR,027.,L,20.2,N,10.4,M,037.4,K*67
$IIHDM,040.,M*16
$IIVTG,041.,T,,M,05.6,N,10.4,K,A*29
$IIHDG,039.,,,,*73
$IIVHW,,,040.,M,05.71,N,10.58,K*14
$IIGLL,4740.460,N,00324.733,W,084346,A,A*48
$IIVWR,027.,L,20.2,N,10.4,M,037.4,K*67
$IIHDM,039.,M*18
$IIVTG,041.,T,,M,05.6,N,10.4,K,A*29
$IIHDG,040.,,,,*7D
$IIVHW,,,040.,M,05.71,N,10.58,K*14
$IIGLL,4740.462,N,00324.730,W,084348,A,A*47
$IIVWR,027.,L,20.2,N,10.4,M,037.4,K*67
$IIHDM,040.,M*16
$IIVTG,044.,T,,M,05.3,N,09.8,K,A*2D
$IIHDG,038.,,,,*72
$IIVHW,,,037.,M,05.72,N,10.60,K*1C
$IIGLL,4740.462,N,00324.730,W,084348,A,A*47
$IIVWR,027.,L,20.4,N,10.5,M,037.8,K*6C
$IIHDM,038.,M*19
$IIVTG,044.,T,,M,05.3,N,09.8,K,A*2D
$IIHDG,039.,,,,*73
$IIVHW,,,039.,M,05.72,N,10.59,K*18
$IIGLL,4740.464,N,00324.727,W,084350,A,A*4E
$IIVWR,027.,L,20.3,N,10.4,M,037.6,K*64
$IIHDM,039.,M*18
$IIVTG,043.,T,,M,05.6,N,10.4,K,A*2B
$IIHDG,039.,,,,*73
$IIVHW,,,037.,M,05.72,N,10.59,K*16
$IIGLL,4740.464,N,00324.727,W,084350,A,A*4E
$IIVWR,028.,L,20.4,N,10.5,M,037.8,K*63
$IIHDM,039.,M*18
$IIVTG,043.,T,,M,05.6,N,10.4,K,A*2B
$IIHDG,037.,,,,*7D
$IIVHW,,,037.,M,05.72,N,10.59,K*16
$IIGLL,4740.464,N,00324.727,W,084350,A,A*4E
$IIVWR,028.,L,20.6,N,10.6,M,038.2,K*67
$IIHDM,039.,M*18
$IIVTG,043.,T,,M,05.6,N,10.4,K,A*2B
$IIHDG,038.,,,,*72
$IIVHW,,,040.,M,05.71,N,10.57,K*1B
$IIGLL,4740.466,N,00324.724,W,084352,A,A*4D
$IIVWR,028.,L,20.5,N,10.5,M,038.0,K*65
$IIHDM,038.,M*19
$IIVTG,042.,T,,M,05.3,N,09.8,K,A*2B
$IIHDG,036.,,,,*7C
$IIVHW,,,038.,M,05.70,N,10.56,K*14
$IIGLL,4740.469,N,00324.722,W,084354,A,A*42
$IIVWR,028.,L,20.5,N,10.5,M,038.0,K*65
$IIHDM,036.,M*17
$IIVTG,042.,T,,M,05.3,N,09.8,K,A*2B
$IIHDG,035.,,,,*7F
$IIVHW,,,036.,M,05.70,N,10.55,K*19
$IIGLL,4740.469,N,00324.722,W,084354,A,A*42
$IIVWR,028.,L,20.5,N,10.5,M,038.0,K*65
$IIHDM,036.,M*17
$IIVTG,046.,T,,M,05.3,N,09.8,K,A*2F
$IIHDG,032.,,,,*78
$IIVHW,,,033.,M,05.69,N,10.54,K*15
$IIGLL,4740.471,N,00324.719,W,084356,A,A*41
$IIVWR,028.,L,20.5,N,10.5,M,038.0,K*65
$IIHDM,032.,M*13
$IIVTG,046.,T,,M,05.3,N,09.8,K,A*2F
$IIHDG,028.,,,,*73
$IIVHW,,,033.,M,05.69,N,10.54,K*15
$IIGLL,4740.471,N,00324.719,W,084356,A,A*41
$IIVWR,028.,L,20.5,N,10.5,M,038.0,K*65
$IIHDM,028.,M*18
$IIVTG,043.,T,,M,05.7,N,10.6,K,A*28
$IIHDG,029.,,,,*72
$IIVHW,,,029.,M,05.70,N,10.55,K*17
$IIGLL,4740.474,N,00324.716,W,084358,A,A*45
$IIVWR,028.,L,20.5,N,10.5,M,038.0,K*65
$IIHDM,029.,M*19
$IIVTG,033.,T,,M,05.4,N,10.0,K,A*2A
$IIHDG,029.,,,,*72
$IIVHW,,,029.,M,05.70,N,10.55,K*17
$IIGLL,4740.474,N,00324.716,W,084358,A,A*45
$IIVWR,029.,L,20.4,N,10.5,M,037.8,K*62
$IIHDM,028.,M*18
$IIVTG,033.,T,,M,05.4,N,10.0,K,A*2A
$IIHDG,029.,,,,*72
$IIVHW,,,025.,M,05.69,N,10.54,K*12
$IIGLL,4740.474,N,00324.716,W,084358,A,A*45
$IIVWR,029.,L,20.4,N,10.5,M,037.8,K*62
$IIHDM,025.,M*15
$IIVTG,032.,T,,M,05.5,N,10.2,K,A*28
$IIHDG,026.,,,,*7D
$IIVHW,,,026.,M,05.69,N,10.54,K*11
$IIGLL,4740.476,N,00324.714,W,084400,A,A*4F
$IIVWR,029.,L,20.3,N,10.4,M,037.6,K*6A
$IIHDM,025.,M*15
$IIVTG,032.,T,,M,05.5,N,10.2,K,A*28
$IIHDG,026.,,,,*7D
$IIVHW,,,026.,M,05.69,N,10.54,K*11
$IIGLL,4740.476,N,00324.714,W,084400,A,A*4F
$IIVWR,029.,L,20.1,N,10.3,M,037.2,K*6B
$IIHDM,025.,M*15
$IIVTG,031.,T,,M,05.6,N,10.4,K,A*2E
$IIHDG,026.,,,,*7D
$IIVHW,,,027.,M,05.69,N,10.53,K*17
$IIGLL,4740.476,N,00324.714,W,084400,A,A*4F
$IIVWR,029.,L,20.0,N,10.3,M,037.0,K*68
$IIHDM,025.,M*15
$IIVTG,031.,T,,M,05.6,N,10.4,K,A*2E
$IIHDG,027.,,,,*7C
$IIVHW,,,027.,M,05.69,N,10.53,K*17
$IIGLL,4740.479,N,00324.712,W,084404,A,A*42
$IIVWR,029.,L,20.0,N,10.3,M,037.0,K*68
$IIHDM,027.,M*17
$IIVTG,031.,T,,M,05.5,N,10.2,K,A*2B
$IIHDG,029.,,,,*72
$IIVHW,,,029.,M,05.69,N,10.53,K*19
$IIGLL,4740.482,N,00324.710,W,084404,A,A*44
$IIVWR,030.,L,19.7,N,10.1,M,036.5,K*6B
$IIHDM,029.,M*19
$IIVTG,031.,T,,M,05.5,N,10.2,K,A*2B
$IIHDG,029.,,,,*72
$IIVHW,,,026.,M,05.69,N,10.54,K*11
$IIGLL,4740.482,N,00324.710,W,084406,A,A*46
$IIVWR,029.,L,19.6,N,10.1,M,036.3,K*64
$IIHDM,029.,M*19
$IIVTG,032.,T,,M,05.7,N,10.6,K,A*2E
$IIHDG,026.,,,,*7D
$IIVHW,,,026.,M,05.69,N,10.54,K*11
$IIGLL,4740.484,N,00324.708,W,084406,A,A*49
$IIVWR,029.,L,19.6,N,10.1,M,036.3,K*64
$IIHDM,026.,M*16
$IIVTG,032.,T,,M,05.7,N,10.6,K,A*2E
$IIHDG,026.,,,,*7D
$IIVHW,,,023.,M,05.70,N,10.56,K*1E
$IIGLL,4740.484,N,00324.708,W,084408,A,A*47
$IIVWR,029.,L,19.6,N,10.1,M,036.3,K*64
$IIHDM,023.,M*13
$IIVTG,025.,T,,M,05.7,N,10.6,K,A*28
$IIHDG,026.,,,,*7D
$IIVHW,,,021.,M,05.70,N,10.56,K*1C
$IIGLL,4740.487,N,00324.706,W,084408,A,A*4A
$IIVWR,029.,L,19.5,N,10.0,M,036.1,K*64
$IIHDM,023.,M*13
$IIVTG,025.,T,,M,05.7,N,10.6,K,A*28
$IIHDG,021.,,,,*7A
$IIVHW,,,021.,M,05.71,N,10.57,K*1C
$IIGLL,4740.487,N,00324.706,W,084410,A,A*43
$IIVWR,030.,L,19.3,N,09.9,M,035.7,K*6E
$IIHDM,021.,M*11
$IIVTG,023.,T,,M,05.6,N,10.4,K,A*2D
$IIHDG,024.,,,,*7F
$IIVHW,,,026.,M,05.71,N,10.58,K*14
$IIGLL,4740.487,N,00324.706,W,084410,A,A*43
$IIVWR,030.,L,19.3,N,09.9,M,035.7,K*6E
$IIHDM,024.,M*14
$IIVTG,023.,T,,M,05.6,N,10.4,K,A*2D
$IIHDG,026.,,,,*7D
$IIVHW,,,026.,M,05.71,N,10.58,K*14
$IIGLL,4740.493,N,00324.702,W,084412,A,A*40
$IIVWR,030.,L,19.2,N,09.9,M,035.6,K*6E
$IIHDM,026.,M*16
$IIVTG,028.,T,,M,05.7,N,10.6,K,A*25
$IIHDG,028.,,,,*73
$IIVHW,,,027.,M,05.72,N,10.60,K*1D
$IIGLL,4740.493,N,00324.702,W,084412,A,A*40
$IIVWR,030.,L,19.2,N,09.9,M,035.6,K*6E
$IIHDM,028.,M*18
$IIVTG,028.,T,,M,05.7,N,10.6,K,A*25
$IIHDG,028.,,,,*73
$IIVHW,,,027.,M,05.72,N,10.60,K*1D
$IIGLL,4740.493,N,00324.702,W,084414,A,A*46
$IIVWR,029.,L,18.9,N,09.7,M,035.0,K*64
$IIHDM,028.,M*18
$IIVTG,031.,T,,M,05.8,N,10.8,K,A*2C
$IIHDG,026.,,,,*7D
$IIVHW,,,032.,M,05.75,N,10.65,K*1B
$IIGLL,4740.493,N,00324.702,W,084414,A,A*46
$IIVWR,029.,L,18.6,N,09.6,M,034.4,K*6F
$IIHDM,029.,M*19
$IIVTG,031.,T,,M,05.8,N,10.8,K,A*2C
$IIHDG,026.,,,,*7D
$IIVHW,,,032.,M,05.75,N,10.65,K*1B
$IIGLL,4740.496,N,00324.700,W,084416,A,A*43
$IIVWR,029.,L,18.4,N,09.5,M,034.1,K*6B
$IIHDM,034.,M*15
$IIVTG,036.,T,,M,05.4,N,10.0,K,A*2F
$IIHDG,034.,,,,*7E
$IIVHW,,,034.,M,05.75,N,10.65,K*1D
$IIGLL,4740.499,N,00324.698,W,084416,A,A*4C
$IIVWR,029.,L,18.3,N,09.4,M,033.9,K*62
$IIHDM,035.,M*14
$IIVTG,036.,T,,M,05.4,N,10.0,K,A*2F
$IIHDG,035.,,,,*7F
$IIVHW,,,035.,M,05.75,N,10.64,K*1D
$IIGLL,4740.499,N,00324.698,W,084418,A,A*42
$IIVWR,029.,L,18.2,N,09.4,M,033.7,K*6D
$IIHDM,035.,M*14
$IIVTG,040.,T,,M,05.6,N,10.4,K,A*28
$IIHDG,037.,,,,*7D
$IIVHW,,,036.,M,05.75,N,10.64,K*1E
$IIGLL,4740.499,N,00324.698,W,084418,A,A*42
$IIVWR,029.,L,18.0,N,09.3,M,033.3,K*6C
$IIHDM,037.,M*16
$IIVTG,040.,T,,M,05.6,N,10.4,K,A*28
$IIHDG,037.,,,,*7D
$IIVHW,,,039.,M,05.75,N,10.64,K*11
$IIGLL,4740.504,N,00324.692,W,084420,A,A*46
$IIVWR,029.,L,18.0,N,09.3,M,033.3,K*6C
$IIHDM,037.,M*16
$IIVTG,040.,T,,M,05.6,N,10.4,K,A*28
$IIHDG,035.,,,,*7F
$IIVHW,,,034.,M,05.75,N,10.64,K*1C
$IIGLL,4740.504,N,00324.692,W,084420,A,A*46
$IIVWR,029.,L,17.9,N,09.2,M,033.2,K*6A
$IIHDM,035.,M*14
$IIVTG,040.,T,,M,05.7,N,10.6,K,A*2B
$IIHDG,036.,,,,*7C
$IIVHW,,,037.,M,05.75,N,10.65,K*1E
$IIGLL,4740.506,N,00324.690,W,084422,A,A*44
$IIVWR,029.,L,17.8,N,09.2,M,033.0,K*69
$IIHDM,036.,M*17
$IIVTG,040.,T,,M,05.7,N,10.6,K,A*2B
$IIHDG,036.,,,,*7C
$IIVHW,,,036.,M,05.76,N,10.66,K*1F
$IIGLL,4740.506,N,00324.690,W,084422,A,A*44
$IIVWR,029.,L,17.8,N,09.2,M,033.0,K*69
$IIHDM,037.,M*16
$IIVTG,040.,T,,M,05.7,N,10.6,K,A*2B
$IIHDG,036.,,,,*7C
$IIVHW,,,040.,M,05.76,N,10.66,K*1E
$IIGLL,4740.509,N,00324.686,W,084424,A,A*4A
$IIVWR,029.,L,17.5,N,09.0,M,032.4,K*63
$IIHDM,042.,M*14
$IIVTG,040.,T,,M,05.7,N,10.6,K,A*2B
$IIHDG,040.,,,,*7D
$IIVHW,,,041.,M,05.76,N,10.67,K*1E
$IIGLL,4740.509,N,00324.686,W,084424,A,A*4A
$IIVWR,030.,L,17.3,N,08.9,M,032.0,K*61
$IIHDM,040.,M*16
$IIVTG,049.,T,,M,05.6,N,10.4,K,A*21
$IIHDG,040.,,,,*7D
$IIVHW,,,039.,M,05.76,N,10.67,K*11
$IIGLL,4740.509,N,00324.686,W,084424,A,A*4A
$IIVWR,030.,L,17.3,N,08.9,M,032.0,K*61
$IIHDM,040.,M*16
$IIVTG,049.,T,,M,05.6,N,10.4,K,A*21
$IIHDG,039.,,,,*73
$IIVHW,,,040.,M,05.77,N,10.68,K*11
$IIGLL,4740.511,N,00324.683,W,084426,A,A*44
$IIVWR,030.,L,17.3,N,08.9,M,032.0,K*61
$IIHDM,039.,M*18
$IIVTG,046.,T,,M,05.6,N,10.4,K,A*2E
$IIHDG,035.,,,,*7F
$IIVHW,,,040.,M,05.77,N,10.68,K*11
$IIGLL,4740.511,N,00324.683,W,084426,A,A*44
$IIVWR,030.,L,17.3,N,08.9,M,032.0,K*61
$IIHDM,035.,M*14
$IIVTG,046.,T,,M,05.6,N,10.4,K,A*2E
$IIHDG,040.,,,,*7D
$IIVHW,,,037.,M,05.79,N,10.73,K*15
$IIGLL,4740.513,N,00324.680,W,084428,A,A*4B
$IIVWR,031.,L,17.2,N,08.8,M,031.9,K*6A
$IIHDM,035.,M*14
$IIVTG,042.,T,,M,06.1,N,11.3,K,A*28
$IIHDG,043.,,,,*7E
$IIVHW,,,042.,M,05.83,N,10.79,K*18
$IIGLL,4740.513,N,00324.680,W,084428,A,A*4B
$IIVWR,032.,L,17.2,N,08.8,M,031.9,K*69
$IIHDM,043.,M*15
$IIVTG,044.,T,,M,05.5,N,10.2,K,A*29
$IIHDG,043.,,,,*7E
$IIVHW,,,042.,M,05.83,N,10.79,K*18
$IIGLL,4740.516,N,00324.677,W,084430,A,A*4F
$IIVWR,032.,L,17.2,N,08.8,M,031.9,K*69
$IIHDM,043.,M*15
$IIVTG,044.,T,,M,05.5,N,10.2,K,A*29
$IIHDG,042.,,,,*7F
$IIVHW,,,042.,M,05.90,N,10.92,K*1F
$IIGLL,4740.516,N,00324.677,W,084430,A,A*4F
$IIVWR,033.,L,17.0,N,08.7,M,031.5,K*69
$IIHDM,043.,M*15
$IIVTG,049.,T,,M,05.9,N,10.9,K,A*23
$IIHDG,042.,,,,*7F
$IIVHW,,,042.,M,05.90,N,10.92,K*1F
$IIGLL,4740.518,N,00324.674,W,084432,A,A*40
$IIVWR,033.,L,17.1,N,08.8,M,031.7,K*65
$IIHDM,042.,M*14
$IIVTG,049.,T,,M,05.9,N,10.9,K,A*23
$IIHDG,041.,,,,*7C
$IIVHW,,,042.,M,05.92,N,10.96,K*19
$IIGLL,4740.518,N,00324.674,W,084432,A,A*40
$IIVWR,033.,L,17.1,N,08.8,M,031.7,K*65
$IIHDM,042.,M*14
$IIVTG,046.,T,,M,05.9,N,10.9,K,A*2C
$IIHDG,042.,,,,*7F
$IIVHW,,,046.,M,05.93,N,10.98,K*12
$IIGLL,4740.520,N,00324.670,W,084434,A,A*49
$IIVWR,033.,L,16.8,N,08.6,M,031.1,K*65
$IIHDM,044.,M*12
$IIVTG,046.,T,,M,05.9,N,10.9,K,A*2C
$IIHDG,046.,,,,*7B
$IIVHW,,,046.,M,05.93,N,10.98,K*12
$IIGLL,4740.520,N,00324.670,W,084434,A,A*49
$IIVWR,033.,L,16.7,N,08.6,M,030.9,K*63
$IIHDM,044.,M*12
$IIVTG,053.,T,,M,05.9,N,10.9,K,A*28
$IIHDG,048.,,,,*75
$IIVHW,,,047.,M,05.95,N,11.01,K*14
$IIGLL,4740.523,N,00324.667,W,084436,A,A*4E
$IIVWR,031.,L,16.6,N,08.5,M,030.7,K*6D
$IIHDM,048.,M*1E
$IIVTG,053.,T,,M,05.9,N,10.9,K,A*28
$IIHDG,048.,,,,*75
$IIVHW,,,045.,M,05.95,N,11.02,K*15
$IIGLL,4740.523,N,00324.667,W,084438,A,A*40
$IIVWR,031.,L,16.5,N,08.5,M,030.6,K*6F
$IIHDM,047.,M*11
$IIVTG,048.,T,,M,05.8,N,10.8,K,A*22
$IIHDG,045.,,,,*78
$IIVHW,,,044.,M,05.95,N,11.02,K*14
$IIGLL,4740.525,N,00324.663,W,084438,A,A*42
$IIVWR,031.,L,16.5,N,08.5,M,030.6,K*6F
$IIHDM,045.,M*13
$IIVTG,048.,T,,M,05.8,N,10.8,K,A*22
$IIHDG,044.,,,,*79
$IIVHW,,,043.,M,05.95,N,11.01,K*10
$IIGLL,4740.525,N,00324.663,W,084440,A,A*4D
$IIVWR,031.,L,16.5,N,08.5,M,030.6,K*6F
$IIHDM,044.,M*12
$IIVTG,047.,T,,M,05.7,N,10.6,K,A*2C
$IIHDG,042.,,,,*7F
$IIVHW,,,041.,M,05.95,N,11.01,K*12
$IIGLL,4740.527,N,00324.660,W,084440,A,A*4C
$IIVWR,031.,L,16.5,N,08.5,M,030.6,K*6F
$IIHDM,042.,M*14
$IIVTG,047.,T,,M,05.7,N,10.6,K,A*2C
$IIHDG,039.,,,,*73
$IIVHW,,,041.,M,05.95,N,11.01,K*12
$IIGLL,4740.527,N,00324.660,W,084442,A,A*4E
$IIVWR,031.,L,16.5,N,08.5,M,030.6,K*6F
$IIHDM,039.,M*18
$IIVTG,047.,T,,M,05.7,N,10.6,K,A*2C
$IIHDG,039.,,,,*73
$IIVHW,,,040.,M,05.95,N,11.01,K*13
$IIGLL,4740.530,N,00324.657,W,084442,A,A*4C
$IIVWR,031.,L,16.5,N,08.5,M,030.6,K*6F
$IIHDM,039.,M*18
$IIVTG,041.,T,,M,05.9,N,10.9,K,A*2B
$IIHDG,039.,,,,*73
$IIVHW,,,039.,M,05.96,N,11.03,K*1C
$IIGLL,4740.530,N,00324.654,W,084444,A,A*49
$IIVWR,031.,L,16.4,N,08.4,M,030.4,K*6D
$IIHDM,039.,M*18
$IIVTG,043.,T,,M,06.0,N,11.1,K,A*2A
$IIHDG,040.,,,,*7D
$IIVHW,,,039.,M,05.96,N,11.03,K*1C
$IIGLL,4740.530,N,00324.654,W,084444,A,A*49
$IIVWR,031.,L,16.4,N,08.4,M,030.4,K*6D
$IIHDM,040.,M*16
$IIVTG,043.,T,,M,06.0,N,11.1,K,A*2A
$IIHDG,042.,,,,*7F
$IIVHW,,,041.,M,05.97,N,11.05,K*14
$IIGLL,4740.535,N,00324.651,W,084446,A,A*4B
$IIVWR,031.,L,16.4,N,08.4,M,030.4,K*6D
$IIHDM,040.,M*16
$IIVTG,044.,T,,M,06.0,N,11.1,K,A*2D
$IIHDG,042.,,,,*7F
$IIVHW,,,042.,M,06.00,N,11.11,K*1F
$IIGLL,4740.535,N,00324.651,W,084446,A,A*4B
$IIVWR,032.,L,16.4,N,08.4,M,030.4,K*6E
$IIHDM,042.,M*14
$IIVTG,044.,T,,M,06.0,N,11.1,K,A*2D
$IIHDG,045.,,,,*78
$IIVHW,,,043.,M,06.00,N,11.12,K*1D
$IIGLL,4740.537,N,00324.648,W,084448,A,A*4F
$IIVWR,032.,L,16.3,N,08.4,M,030.2,K*6F
$IIHDM,045.,M*13
$IIVTG,047.,T,,M,05.7,N,10.6,K,A*2C
$IIHDG,046.,,,,*7B
$IIVHW,,,045.,M,06.00,N,11.12,K*1B
$IIGLL,4740.537,N,00324.648,W,084448,A,A*4F
$IIVWR,032.,L,16.3,N,08.4,M,030.2,K*6F
$IIHDM,046.,M*10
$IIVTG,047.,T,,M,05.7,N,10.6,K,A*2C
$IIHDG,047.,,,,*7A
$IIVHW,,,046.,M,05.99,N,11.10,K*19
$IIGLL,4740.537,N,00324.648,W,084450,A,A*46
$IIVWR,032.,L,16.2,N,08.3,M,030.0,K*6B
$IIHDM,047.,M*11
$IIVTG,052.,T,,M,05.5,N,10.2,K,A*2E
$IIHDG,047.,,,,*7A
$IIVHW,,,047.,M,05.98,N,11.08,K*10
$IIGLL,4740.539,N,00324.644,W,084450,A,A*44
$IIVWR,032.,L,16.2,N,08.3,M,030.0,K*6B
$IIHDM,046.,M*10
$IIVTG,052.,T,,M,05.5,N,10.2,K,A*2E
$IIHDG,045.,,,,*78
$IIVHW,,,045.,M,05.97,N,11.05,K*10
$IIGLL,4740.539,N,00324.644,W,084452,A,A*46
$IIVWR,032.,L,16.2,N,08.3,M,030.0,K*6B
$IIHDM,044.,M*12
$IIVTG,050.,T,,M,05.8,N,10.8,K,A*2B
$IIHDG,043.,,,,*7E
$IIVHW,,,043.,M,05.96,N,11.03,K*11
$IIGLL,4740.542,N,00324.641,W,084452,A,A*4F
$IIVWR,032.,L,16.1,N,08.3,M,029.8,K*68
$IIHDM,042.,M*14
$IIVTG,050.,T,,M,05.8,N,10.8,K,A*2B
$IIHDG,040.,,,,*7D
$IIVHW,,,042.,M,05.95,N,11.01,K*11
$IIGLL,4740.544,N,00324.638,W,084454,A,A*41
$IIVWR,032.,L,16.2,N,08.3,M,030.0,K*6B
$IIHDM,040.,M*16
$IIVTG,043.,T,,M,05.7,N,10.6,K,A*28
$IIHDG,040.,,,,*7D
$IIVHW,,,040.,M,05.81,N,10.76,K*17
$IIGLL,4740.544,N,00324.638,W,084454,A,A*41
$IIVWR,032.,L,16.2,N,08.3,M,030.0,K*6B
$IIHDM,040.,M*16
$IIVTG,043.,T,,M,05.7,N,10.6,K,A*28
$IIHDG,042.,,,,*7F
$IIVHW,,,042.,M,05.81,N,10.76,K*15
$IIGLL,4740.546,N,00324.635,W,084456,A,A*4C
$IIVWR,032.,L,16.2,N,08.3,M,030.0,K*6B
$IIHDM,042.,M*14
$IIVTG,046.,T,,M,05.6,N,10.4,K,A*2E
$IIHDG,040.,,,,*7D
$IIVHW,,,041.,M,05.82,N,10.77,K*14
$IIGLL,4740.546,N,00324.635,W,084456,A,A*4C
$IIVWR,032.,L,16.5,N,08.5,M,030.6,K*6C
$IIHDM,040.,M*16
$IIVTG,046.,T,,M,05.6,N,10.4,K,A*2E
$IIHDG,040.,,,,*7D
$IIVHW,,,038.,M,05.78,N,10.71,K*19
$IIGLL,4740.546,N,00324.635,W,084456,A,A*4C
$IIVWR,031.,L,16.6,N,08.5,M,030.7,K*6D
$IIHDM,040.,M*16
$IIVTG,043.,T,,M,05.9,N,10.9,K,A*29
$IIHDG,037.,,,,*7D
$IIVHW,,,038.,M,05.79,N,10.73,K*1A
$IIGLL,4740.546,N,00324.635,W,084456,A,A*4C
$IIVWR,031.,L,16.6,N,08.5,M,030.7,K*6D
$IIHDM,037.,M*16
$IIVTG,043.,T,,M,05.9,N,10.9,K,A*29
$IIHDG,035.,,,,*7F
$IIVHW,,,037.,M,05.83,N,10.79,K*1A
$IIGLL,4740.549,N,00324.632,W,084458,A,A*4A
$IIVWR,030.,L,17.1,N,08.8,M,031.7,K*66
$IIHDM,035.,M*14
$IIVTG,043.,T,,M,05.9,N,10.9,K,A*29
$IIHDG,035.,,,,*7F
$IIVHW,,,037.,M,05.84,N,10.81,K*1A
$IIGLL,4740.552,N,00324.629,W,084500,A,A*46
$IIVWR,030.,L,17.2,N,08.8,M,031.9,K*6B
$IIHDM,035.,M*14
$IIVTG,037.,T,,M,05.9,N,10.9,K,A*2A
$IIHDG,041.,,,,*7C
$IIVHW,,,039.,M,05.84,N,10.82,K*17
$IIGLL,4740.552,N,00324.629,W,084500,A,A*46
$IIVWR,030.,L,17.3,N,08.9,M,032.0,K*61
$IIHDM,039.,M*18
$IIVTG,037.,T,,M,05.9,N,10.9,K,A*2A
$IIHDG,041.,,,,*7C
$IIVHW,,,039.,M,05.84,N,10.82,K*17
$IIGLL,4740.552,N,00324.629,W,084500,A,A*46
$IIVWR,029.,L,17.4,N,09.0,M,032.2,K*64
$IIHDM,039.,M*18
$IIVTG,044.,T,,M,05.4,N,10.0,K,A*2A
$IIHDG,037.,,,,*7D
$IIVHW,,,039.,M,05.84,N,10.82,K*17
$IIGLL,4740.554,N,00324.626,W,084504,A,A*4B
$IIVWR,029.,L,17.4,N,09.0,M,032.2,K*64
$IIHDM,039.,M*18
$IIVTG,043.,T,,M,05.6,N,10.4,K,A*2B
$IIHDG,037.,,,,*7D
$IIVHW,,,039.,M,05.84,N,10.82,K*17
$IIGLL,4740.556,N,00324.623,W,084504,A,A*4C
$IIVWR,027.,L,17.5,N,09.0,M,032.4,K*6D
$IIHDM,037.,M*16
$IIVTG,043.,T,,M,05.6,N,10.4,K,A*2B
$IIHDG,036.,,,,*7C
$IIVHW,,,036.,M,05.82,N,10.77,K*14
$IIGLL,4740.556,N,00324.623,W,084506,A,A*4E
$IIVWR,027.,L,17.4,N,09.0,M,032.2,K*6A
$IIHDM,036.,M*17
$IIVTG,038.,T,,M,05.8,N,10.8,K,A*25
$IIHDG,037.,,,,*7D
$IIVHW,,,037.,M,05.82,N,10.77,K*15
$IIGLL,4740.559,N,00324.620,W,084506,A,A*42
$IIVWR,027.,L,17.5,N,09.0,M,032.4,K*6D
$IIHDM,037.,M*16
$IIVTG,038.,T,,M,05.8,N,10.8,K,A*25
$IIHDG,037.,,,,*7D
$IIVHW,,,037.,M,05.82,N,10.77,K*15
$IIGLL,4740.559,N,00324.620,W,084506,A,A*42
$IIVWR,027.,L,17.4,N,09.0,M,032.2,K*6A
$IIHDM,037.,M*16
$IIVTG,041.,T,,M,05.6,N,10.4,K,A*29
$IIHDG,038.,,,,*72
$IIVHW,,,039.,M,05.80,N,10.74,K*1A
$IIGLL,4740.559,N,00324.620,W,084506,A,A*42
$IIVWR,026.,L,17.3,N,08.9,M,032.0,K*66
$IIHDM,037.,M*16
$IIVTG,041.,T,,M,05.6,N,10.4,K,A*29
$IIHDG,040.,,,,*7D
$IIVHW,,,039.,M,05.79,N,10.73,K*1B
$IIGLL,4740.561,N,00324.617,W,084510,A,A*4A
$IIVWR,026.,L,17.3,N,08.9,M,032.0,K*66
$IIHDM,040.,M*16
$IIVTG,043.,T,,M,05.6,N,10.4,K,A*2B
$IIHDG,039.,,,,*73
$IIVHW,,,038.,M,05.79,N,10.72,K*1B
$IIGLL,4740.564,N,00324.615,W,084510,A,A*4D
$IIVWR,026.,L,17.3,N,08.9,M,032.0,K*66
$IIHDM,039.,M*18
$IIVTG,043.,T,,M,05.6,N,10.4,K,A*2B
$IIHDG,038.,,,,*72
$IIVHW,,,039.,M,05.79,N,10.72,K*1A
$IIGLL,4740.564,N,00324.615,W,084512,A,A*4F
$IIVWR,026.,L,17.4,N,09.0,M,032.2,K*6B
$IIHDM,039.,M*18
