$SDDBT,,f,,M,,F*28
$SDDPT,,*57
$IIMWV,296,R,7.43,N,A*1E
$PTTKW,067,P,007,B,00.0*6A
$GPRTE,1,1,c,*37
$PGRME,4.2,M,6.5,M,7.8,M*24
$PGRMZ,450,f,3*1A
$GPGLL,3843.7296,N,08915.7110,W,155328,A,A*59
$IIVPW,0.0,N,0.0,M*52
$SDMTW,,C*1A
$GPGSV,3,3,12,25,75,358,47,28,08,250,46,36,00,000,00,51,00,000,47*77
$GPBOD,,T,,M,,*47
$SDVHW,,,,,,N,,K*5B
$GPRMC,155330,A,3843.7298,N,08915.7138,W,3.9,274.9,270909,1.1,W,A*1D
$GPRMB,A,,,,,,,,,,,,A,A*0B
$SDDBT,,f,,M,,F*28
$SDDPT,,*57
$IIMWV,295,R,7.11,N,A*1A
$PTTKW,065,P,007,B,00.0*68
$GPRTE,1,1,c,*37
$PGRME,4.2,M,6.5,M,7.8,M*24
$PGRMZ,450,f,3*1A
$GPGLL,3843.7296,N,08915.7110,W,155328,A,A*59
$GPGSA,A,3,03,06,07,08,13,,19,23,25,28,,,2.0,1.1,1.6*3B
$IIVPW,0.0,N,0.0,M*52
$SDMTW,,C*1A
$GPGSV,3,3,12,25,75,358,47,28,08,250,46,36,00,000,00,51,00,000,47*77
$GPGGA,155330,3843.7298,N,08915.7138,W,1,09,1.1,137.3,M,-33.0,M,,*73
$GPBOD,,T,,M,,*47
$SDVHW,,,,,,N,,K*5B
$GPRMC,155330,A,3843.7298,N,08915.7138,W,3.9,274.9,270909,1.1,W,A*1D
$GPRMB,A,,,,,,,,,,,,A,A*0B
$SDDBT,,f,,M,,F*28
$SDDPT,,*57
$IIMWV,298,R,7.17,N,A*11
$PTTKW,062,P,007,B,00.0*6F
$GPRTE,1,1,c,*37
$PGRME,4.2,M,6.5,M,7.8,M*24
$PGRMZ,451,f,3*1B
$GPGLL,3843.7298,N,08915.7138,W,155330,A,A*54
$GPGSA,A,3,03,06,07,08,13,,19,23,25,28,,,2.0,1.1,1.6*3B
$IIVPW,0.0,N,0.0,M*52
$SDMTW,,C*1A
$GPGSV,3,3,12,25,75,358,46,28,08,250,46,36,00,000,00,51,00,000,47*76
$GPGGA,155330,3843.7298,N,08915.7138,W,1,09,1.1,137.3,M,-33.0,M,,*73
$GPBOD,,T,,M,,*47
$SDVHW,,,,,,N,,K*5B
$GPRMC,155332,A,3843.7301,N,08915.7166,W,3.9,275.7,270909,1.1,W,A*1A
$GPRMB,A,,,,,,,,,,,,A,A*0B
$SDDBT,,f,,M,,F*28
$SDDPT,,*57
$IIMWV,297,R,6.96,N,A*16
$PTTKW,063,P,007,B,00.0*6E
$GPRTE,1,1,c,*37
$PGRME,4.2,M,6.5,M,7.8,M*24
$PGRMZ,451,f,3*1B
$GPGLL,3843.7298,N,08915.7138,W,155330,A,A*54
$GPGSA,A,3,03,06,07,08,13,,19,23,25,28,,,2.0,1.1,1.6*3B
$IIVPW,0.0,N,0.0,M*52
$SDMTW,,C*1A
$GPGSV,3,3,12,25,75,358,46,28,08,250,46,36,00,000,00,51,00,000,47*76
$GPGGA,155332,3843.7301,N,08915.7166,W,1,09,1.2,137.4,M,-33.0,M,,*7F
$GPBOD,,T,,M,,*47
$SDVHW,,,,,,N,,K*5B
$GPRMC,155332,A,3843.7301,N,08915.7166,W,3.9,275.7,270909,1.1,W,A*1A
$GPRMB,A,,,,,,,,,,,,A,A*0B
$SDDBT,,f,,M,,F*28
$SDDPT,,*57
$IIMWV,299,R,7.32,N,A*17
$PTTKW,061,P,007,B,00.0*6C
$GPRTE,1,1,c,*37
$PGRME,4.2,M,6.6,M,7.9,M*26
$PGRMZ,451,f,3*1B
$GPGLL,3843.7301,N,08915.7166,W,155332,A,A*5C
$GPGSA,A,3,03,06,07,08,13,,19,23,25,28,,,2.1,1.2,1.6*39
$IIVPW,0.0,N,0.0,M*52
$SDMTW,,C*1A
$GPGSV,3,3,12,25,75,358,46,28,08,250,46,36,00,000,00,51,00,000,47*76
$GPGGA,155332,3843.7301,N,08915.7166,W,1,09,1.2,137.4,M,-33.0,M,,*7F
$GPBOD,,T,,M,,*47
$SDVHW,,,,,,N,,K*5B
$GPRMC,155334,A,3843.7302,N,08915.7194,W,3.9,275.5,270909,1.1,W,A*10
$GPRMB,A,,,,,,,,,,,,A,A*0B
$SDDBT,,f,,M,,F*28
$SDDPT,,*57
$IIMWV,303,R,6.78,N,A*1A
$PTTKW,057,P,007,B,00.0*69
$GPRTE,1,1,c,*37
$PGRME,4.2,M,6.6,M,7.9,M*26
$PGRMZ,451,f,3*1B
$GPGLL,3843.7301,N,08915.7166,W,155332,A,A*5C
$GPGSA,A,3,03,06,07,08,13,,19,23,25,28,,,2.1,1.2,1.6*39
$IIVPW,0.0,N,0.0,M*52
$SDMTW,,C*1A
$GPGSV,3,3,12,25,75,358,46,28,08,250,46,36,00,000,00,51,00,000,47*76
$GPGGA,155334,3843.7302,N,08915.7194,W,1,09,1.1,137.5,M,-33.0,M,,*75
$GPBOD,,T,,M,,*47
$SDVHW,,,,,,N,,K*5B
$GPRMC,155334,A,3843.7302,N,08915.7194,W,3.9,275.5,270909,1.1,W,A*10
$GPRMB,A,,,,,,,,,,,,A,A*0B
$SDDBT,,f,,M,,F*28
$SDDPT,,*57
$IIMWV,295,R,6.78,N,A*14
$PTTKW,061,P,007,B,00.0*6C
$GPRTE,1,1,c,*37
$PGRME,4.2,M,6.6,M,7.9,M*26
$PGRMZ,451,f,3*1B
$GPGLL,3843.7302,N,08915.7194,W,155334,A,A*54
$GPGSA,A,3,03,06,07,08,13,,19,23,25,28,,,2.0,1.1,1.6*3B
$IIVPW,0.0,N,0.0,M*52
$SDMTW,,C*1A
$GPGSV,3,3,12,25,75,358,46,28,08,250,46,36,00,000,00,51,00,000,47*76
$GPGGA,155334,3843.7302,N,08915.7194,W,1,09,1.1,137.5,M,-33.0,M,,*75
$GPBOD,,T,,M,,*47
$SDVHW,,,,,,N,,K*5B
$GPRMC,155336,A,3843.7304,N,08915.7222,W,4.0,275.5,270909,1.1,W,A*14
$GPRMB,A,,,,,,,,,,,,A,A*0B
$SDDBT,,f,,M,,F*28
$SDDPT,,*57
$IIMWV,298,R,7.25,N,A*10
$PTTKW,062,P,007,B,00.0*6F
$GPRTE,1,1,c,*37
$PGRME,4.2,M,6.6,M,7.9,M*26
$PGRMZ,451,f,3*1B
$GPGLL,3843.7302,N,08915.7194,W,155334,A,A*54
$GPGSA,A,3,03,06,07,08,13,,19,23,25,28,,,2.0,1.1,1.6*3B
$IIVPW,0.0,N,0.0,M*52
$SDMTW,,C*1A
$GPGSV,3,3,12,25,75,358,46,28,08,250,46,36,00,000,00,51,00,000,47*76
$GPGGA,155336,3843.7304,N,08915.7222,W,1,09,1.1,137.5,M,-33.0,M,,*7F
$GPBOD,,T,,M,,*47
$SDVHW,,,,,,N,,K*5B
$GPRMC,155336,A,3843.7304,N,08915.7222,W,4.0,275.5,270909,1.1,W,A*14
$GPRMB,A,,,,,,,,,,,,A,A*0B
$SDDBT,,f,,M,,F*28
$SDDPT,,*57
$IIMWV,306,R,6.82,N,A*1A
$PTTKW,051,P,007,B,00.0*6F
$GPRTE,1,1,c,*37
$PGRME,4.2,M,6.6,M,7.9,M*26
$PGRMZ,451,f,3*1B
$GPGLL,3843.7304,N,08915.7222,W,155336,A,A*5E
$GPGSA,A,3,03,06,07,08,13,,19,23,25,28,,,2.0,1.1,1.6*3B
$IIVPW,0.0,N,0.0,M*52
$SDMTW,,C*1A
$GPGSV,3,3,12,25,75,358,46,28,08,250,46,36,00,000,00,51,00,000,47*76
$GPGGA,155336,3843.7304,N,08915.7222,W,1,09,1.1,137.5,M,-33.0,M,,*7F
$GPBOD,,T,,M,,*47
$SDVHW,,,,,,N,,K*5B
$GPRMC,155338,A,3843.7305,N,08915.7250,W,4.0,273.5,270909,1.1,W,A*18
$GPRMB,A,,,,,,,,,,,,A,A*0B
$SDDBT,,f,,M,,F*28
$SDDPT,,*57
$IIMWV,294,R,6.65,N,A*19
$PTTKW,066,P,007,B,00.0*6B
$GPRTE,1,1,c,*37
$PGRME,4.2,M,6.6,M,7.9,M*26
$PGRMZ,451,f,3*1B
$GPGLL,3843.7304,N,08915.7222,W,155336,A,A*5E
$GPGSA,A,3,03,06,07,08,13,,19,23,25,28,,,2.1,1.2,1.7*38
$IIVPW,0.0,N,0.0,M*52
$SDMTW,,C*1A
$GPGSV,3,3,12,25,75,358,46,28,08,250,46,36,00,000,00,51,00,000,47*76
$GPGGA,155338,3843.7305,N,08915.7250,W,1,09,1.2,137.5,M,-33.0,M,,*76
$GPBOD,,T,,M,,*47
$SDVHW,,,,,,N,,K*5B
$GPRMC,155338,A,3843.7305,N,08915.7250,W,4.0,273.5,270909,1.1,W,A*18
$GPRMB,A,,,,,,,,,,,,A,A*0B
$SDDBT,,f,,M,,F*28
$SDDPT,,*57
$IIMWV,304,R,6.63,N,A*17
$PTTKW,059,P,007,B,00.0*67
$GPRTE,1,1,c,*37
$PGRME,4.2,M,6.7,M,8.1,M*20
$PGRMZ,451,f,3*1B
$GPGLL,3843.7305,N,08915.7250,W,155338,A,A*54
$GPGSA,A,3,03,06,07,08,13,,19,23,25,28,,,2.1,1.2,1.7*38
$IIVPW,0.0,N,0.0,M*52
$SDMTW,,C*1A
$GPGSV,3,3,12,25,75,358,46,28,08,250,46,36,00,000,00,51,00,000,46*77
$GPGGA,155338,3843.7305,N,08915.7250,W,1,09,1.2,137.5,M,-33.0,M,,*76
$GPBOD,,T,,M,,*47
$SDVHW,,,,,,N,,K*5B
$GPRMC,155340,A,3843.7306,N,08915.7279,W,4.0,273.8,270909,1.1,W,A*12
$GPRMB,A,,,,,,,,,,,,A,A*0B
$SDDBT,,f,,M,,F*28
$SDDPT,,*57
$IIMWV,300,R,5.85,N,A*18
$PTTKW,062,P,006,B,00.0*6E
$GPRTE,1,1,c,*37
$PGRME,4.2,M,6.7,M,8.1,M*20
$PGRMZ,451,f,3*1B
$GPGLL,3843.7305,N,08915.7250,W,155338,A,A*54
$GPGSA,A,3,03,06,07,08,13,,19,23,25,28,,,2.1,1.2,1.7*38
$IIVPW,0.0,N,0.0,M*52
$SDMTW,,C*1A
$GPGSV,3,3,12,25,75,358,46,28,08,250,46,36,00,000,00,51,00,000,46*77
$GPGGA,155340,3843.7306,N,08915.7279,W,1,09,1.2,137.6,M,-33.0,M,,*72
$GPBOD,,T,,M,,*47
$SDVHW,,,,,,N,,K*5B
$GPRMC,155340,A,3843.7306,N,08915.7279,W,4.0,273.8,270909,1.1,W,A*12
$GPRMB,A,,,,,,,,,,,,A,A*0B
$SDDBT,,f,,M,,F*28
$SDDPT,,*57
$IIMWV,298,R,6.52,N,A*11
$PTTKW,062,P,007,B,00.0*6F
$GPRTE,1,1,c,*37
$PGRME,4.3,M,7.0,M,8.3,M*25
$PGRMZ,451,f,3*1B
$GPGLL,3843.7306,N,08915.7279,W,155340,A,A*53
$GPGSA,A,3,03,06,07,08,13,,19,23,25,28,,,2.1,1.2,1.7*38
$IIVPW,0.0,N,0.0,M*52
$SDMTW,,C*1A
$GPGSV,3,3,12,25,75,358,46,28,08,250,46,36,00,000,00,51,00,000,46*77
$GPGGA,155340,3843.7306,N,08915.7279,W,1,09,1.2,137.6,M,-33.0,M,,*72
$GPBOD,,T,,M,,*47
$SDVHW,,,,,,N,,K*5B
$GPRMC,155342,A,3843.7307,N,08915.7308,W,4.0,272.8,270909,1.1,W,A*17
$GPRMB,A,,,,,,,,,,,,A,A*0B
$SDDBT,,f,,M,,F*28
$SDDPT,,*57
$IIMWV,300,R,6.34,N,A*11
$PTTKW,060,P,006,B,00.0*6C
$GPRTE,1,1,c,*37
$PGRME,4.3,M,7.0,M,8.3,M*25
$PGRMZ,451,f,3*1B
$GPGLL,3843.7306,N,08915.7279,W,155340,A,A*53
$GPGSA,A,3,03,06,07,08,13,,19,23,25,28,,,2.1,1.2,1.7*38
$IIVPW,0.0,N,0.0,M*52
$SDMTW,,C*1A
$GPGSV,3,3,12,25,75,358,46,28,08,250,46,36,00,000,00,51,00,000,46*77
$GPGGA,155342,3843.7307,N,08915.7308,W,1,09,1.2,137.7,M,-33.0,M,,*77
$GPBOD,,T,,M,,*47
$SDVHW,,,,,,N,,K*5B
$GPRMC,155342,A,3843.7307,N,08915.7308,W,4.0,272.8,270909,1.1,W,A*17
$GPRMB,A,,,,,,,,,,,,A,A*0B
$SDDBT,,f,,M,,F*28
$SDDPT,,*57
$IIMWV,300,R,6.48,N,A*1A
$PTTKW,060,P,006,B,00.0*6C
$GPRTE,1,1,c,*37
$PGRME,4.5,M,7.4,M,8.7,M*23
$PGRMZ,452,f,3*18
$GPGLL,3843.7307,N,08915.7308,W,155342,A,A*57
$GPGSA,A,3,03,06,07,08,13,,19,23,25,28,,,2.1,1.2,1.7*38
$IIVPW,0.0,N,0.0,M*52
$SDMTW,,C*1A
$GPGSV,3,3,12,25,75,358,47,28,08,250,46,36,00,000,00,51,00,000,46*76
$GPGGA,155342,3843.7307,N,08915.7308,W,1,09,1.2,137.7,M,-33.0,M,,*77
$GPBOD,,T,,M,,*47
$SDVHW,,,,,,N,,K*5B
$GPRMC,155344,A,3843.7308,N,08915.7336,W,4.0,272.4,270909,1.1,W,A*1F
$GPRMB,A,,,,,,,,,,,,A,A*0B
$SDDBT,,f,,M,,F*28
$SDDPT,,*57
$IIMWV,291,R,6.48,N,A*13
$PTTKW,068,P,006,B,00.0*64
$GPRTE,1,1,c,*37
$PGRME,4.5,M,7.4,M,8.7,M*23
$PGRMZ,452,f,3*18
$GPGLL,3843.7307,N,08915.7308,W,155342,A,A*57
$GPGSA,A,3,03,06,07,08,13,,19,23,25,28,,,2.1,1.2,1.7*38
$IIVPW,0.0,N,0.0,M*52
$SDMTW,,C*1A
$GPGSV,3,3,12,25,75,358,47,28,08,250,46,36,00,000,00,51,00,000,46*76
$GPGGA,155344,3843.7308,N,08915.7336,W,1,09,1.2,137.7,M,-33.0,M,,*73
$GPBOD,,T,,M,,*47
$SDVHW,,,,,,N,,K*5B
$GPRMC,155344,A,3843.7308,N,08915.7336,W,4.0,272.4,270909,1.1,W,A*1F
$GPRMB,A,,,,,,,,,,,,A,A*0B
$SDDBT,,f,,M,,F*28
$SDDPT,,*57
$IIMWV,299,R,6.48,N,A*1B
$PTTKW,061,P,006,B,00.0*6D
$GPRTE,1,1,c,*37
$PGRME,4.5,M,7.4,M,8.7,M*23
$PGRMZ,452,f,3*18
$GPGLL,3843.7308,N,08915.7336,W,155344,A,A*53
$GPGSA,A,3,03,06,07,08,13,,19,23,25,28,,,2.1,1.2,1.7*38
$IIVPW,0.0,N,0.0,M*52
$SDMTW,,C*1A
$GPGSV,3,3,12,25,75,358,47,28,08,250,45,36,00,000,00,51,00,000,46*75
$GPGGA,155344,3843.7308,N,08915.7336,W,1,09,1.2,137.7,M,-33.0,M,,*73
$GPBOD,,T,,M,,*47
$SDVHW,,,,,,N,,K*5B
$GPRMC,155346,A,3843.7310,N,08915.7364,W,3.9,276.3,270909,1.1,W,A*1E
$GPRMB,A,,,,,,,,,,,,A,A*0B
$SDDBT,,f,,M,,F*28
$SDDPT,,*57
$IIMWV,308,R,6.21,N,A*1D
$PTTKW,049,P,006,B,00.0*67
$GPRTE,1,1,c,*37
$PGRME,4.5,M,7.4,M,8.7,M*23
$PGRMZ,452,f,3*18
$GPGLL,3843.7308,N,08915.7336,W,155344,A,A*53
$GPGSA,A,3,03,06,07,08,13,,19,23,25,28,,,2.1,1.2,1.7*38
$IIVPW,0.0,N,0.0,M*52
$SDMTW,,C*1A
$GPGSV,3,3,12,25,75,358,47,28,08,250,45,36,00,000,00,51,00,000,46*75
$GPGGA,155346,3843.7310,N,08915.7364,W,1,09,1.2,137.7,M,-33.0,M,,*7F
$GPBOD,,T,,M,,*47
$SDVHW,,,,,,N,,K*5B
$GPRMC,155346,A,3843.7310,N,08915.7364,W,3.9,276.3,270909,1.1,W,A*1E
$GPRMB,A,,,,,,,,,,,,A,A*0B
$SDDBT,,f,,M,,F*28
$SDDPT,,*57
$IIMWV,293,R,5.61,N,A*19
$PTTKW,067,P,006,B,00.0*6B
$GPRTE,1,1,c,*37
$PGRME,4.5,M,7.4,M,8.7,M*23
$PGRMZ,452,f,3*18
$GPGLL,3843.7310,N,08915.7364,W,155346,A,A*5F
$GPGSA,A,3,03,06,07,08,13,,19,23,25,28,,,2.1,1.2,1.7*38
$IIVPW,0.0,N,0.0,M*52
$SDMTW,,C*1A
$GPGSV,3,3,12,25,75,358,47,28,08,250,46,36,00,000,00,51,00,000,47*77
$GPGGA,155346,3843.7310,N,08915.7364,W,1,09,1.2,137.7,M,-33.0,M,,*7F
$GPBOD,,T,,M,,*47
$SDVHW,,,,,,N,,K*5B
$GPRMC,155348,A,3843.7312,N,08915.7393,W,4.1,274.4,270909,1.1,W,A*10
$GPRMB,A,,,,,,,,,,,,A,A*0B
$SDDBT,,f,,M,,F*28
$SDDPT,,*57
$IIMWV,299,R,6.56,N,A*14
$PTTKW,064,P,007,B,00.0*69
$GPRTE,1,1,c,*37
$PGRME,4.5,M,7.4,M,8.7,M*23
$PGRMZ,452,f,3*18
$GPGLL,3843.7310,N,08915.7364,W,155346,A,A*5F
$GPGSA,A,3,03,06,07,08,13,,19,23,25,28,,,2.2,1.2,1.8*34
$IIVPW,0.0,N,0.0,M*52
$SDMTW,,C*1A
$GPGSV,3,3,12,25,75,358,47,28,08,250,46,36,00,000,00,51,00,000,47*77
$GPGGA,155348,3843.7312,N,08915.7393,W,1,09,1.2,137.8,M,-33.0,M,,*74
$GPBOD,,T,,M,,*47
$SDVHW,,,,,,N,,K*5B
$GPRMC,155348,A,3843.7312,N,08915.7393,W,4.1,274.4,270909,1.1,W,A*10
$GPRMB,A,,,,,,,,,,,,A,A*0B
$SDDBT,,f,,M,,F*28
$SDDPT,,*57
$IIMWV,299,R,6.96,N,A*18
$PTTKW,056,P,007,B,00.0*68
$GPRTE,1,1,c,*37
$PGRME,4.5,M,7.4,M,8.7,M*23
$PGRMZ,452,f,3*18
$GPGLL,3843.7312,N,08915.7393,W,155348,A,A*5B
$GPGSA,A,3,03,06,07,08,13,,19,23,25,28,,,2.2,1.2,1.8*34
$IIVPW,0.0,N,0.0,M*52
$SDMTW,,C*1A
$GPGSV,3,3,12,25,75,358,46,28,08,250,46,36,00,000,00,51,00,000,46*77
$GPGGA,155348,3843.7312,N,08915.7393,W,1,09,1.2,137.8,M,-33.0,M,,*74
$GPBOD,,T,,M,,*47
$SDVHW,,,,,,N,,K*5B
$GPRMC,155350,A,3843.7313,N,08915.7421,W,4.0,274.6,270909,1.1,W,A*15
$GPRMB,A,,,,,,,,,,,,A,A*0B
$SDDBT,,f,,M,,F*28
$SDDPT,,*57
$IIMWV,295,R,6.62,N,A*1F
$PTTKW,067,P,007,B,00.0*6A
$GPRTE,1,1,c,*37
$PGRME,4.5,M,7.4,M,8.7,M*23
$PGRMZ,452,f,3*18
$GPGLL,3843.7312,N,08915.7393,W,155348,A,A*5B
$GPGSA,A,3,03,06,07,08,13,,19,23,25,28,,,2.2,1.2,1.8*34
$IIVPW,0.0,N,0.0,M*52
$SDMTW,,C*1A
$GPGSV,3,3,12,25,75,358,46,28,08,250,46,36,00,000,00,51,00,000,46*77
$GPGGA,155350,3843.7313,N,08915.7421,W,1,09,1.2,137.7,M,-33.0,M,,*7D
$GPBOD,,T,,M,,*47
$SDVHW,,,,,,N,,K*5B
$GPRMC,155350,A,3843.7313,N,08915.7421,W,4.0,274.6,270909,1.1,W,A*15
$GPRMB,A,,,,,,,,,,,,A,A*0B
$SDDBT,,f,,M,,F*28
$SDDPT,,*57
$IIMWV,302,R,5.87,N,A*18
$PTTKW,058,P,006,B,00.0*67
$GPRTE,1,1,c,*37
$PGRME,4.2,M,6.7,M,7.9,M*27
$PGRMZ,452,f,3*18
$GPGLL,3843.7313,N,08915.7421,W,155350,A,A*5D
$GPGSA,A,3,03,06,07,08,13,,19,23,25,28,,,2.2,1.2,1.8*34
$IIVPW,0.0,N,0.0,M*52
$SDMTW,,C*1A
$GPGSV,3,3,12,25,75,358,47,28,08,250,46,36,00,000,00,51,00,000,46*76
$GPGGA,155350,3843.7313,N,08915.7421,W,1,09,1.2,137.7,M,-33.0,M,,*7D
$GPBOD,,T,,M,,*47
$SDVHW,,,,,,N,,K*5B
$GPRMC,155352,A,3843.7314,N,08915.7449,W,4.0,269.5,270909,1.1,W,A*11
$GPRMB,A,,,,,,,,,,,,A,A*0B
$SDDBT,,f,,M,,F*28
$SDDPT,,*57
$IIMWV,299,R,7.03,N,A*15
$PTTKW,061,P,007,B,00.0*6C
$GPRTE,1,1,c,*37
$PGRME,4.2,M,6.7,M,7.9,M*27
$PGRMZ,452,f,3*18
$GPGLL,3843.7313,N,08915.7421,W,155350,A,A*5D
$GPGSA,A,3,03,06,07,08,13,,19,23,25,28,,,2.2,1.2,1.8*34
$IIVPW,0.0,N,0.0,M*52
$SDMTW,,C*1A
$GPGSV,3,3,12,25,75,358,47,28,08,250,46,36,00,000,00,51,00,000,46*76
$GPGGA,155352,3843.7314,N,08915.7449,W,1,09,1.3,137.8,M,-33.0,M,,*78
$GPBOD,,T,,M,,*47
$SDVHW,,,,,,N,,K*5B
$GPRMC,155352,A,3843.7314,N,08915.7449,W,4.0,269.5,270909,1.1,W,A*11
$GPRMB,A,,,,,,,,,,,,A,A*0B
$SDDBT,,f,,M,,F*28
$SDDPT,,*57
$IIMWV,303,R,6.59,N,A*19
$PTTKW,059,P,007,B,00.0*67
$GPRTE,1,1,c,*37
$PGRME,4.2,M,6.8,M,8.0,M*2E
$PGRMZ,452,f,3*18
$GPGLL,3843.7314,N,08915.7449,W,155352,A,A*56
$GPGSA,A,3,03,06,07,08,13,,19,23,25,28,,,2.2,1.3,1.8*35
$IIVPW,0.0,N,0.0,M*52
$SDMTW,,C*1A
$GPGSV,3,3,12,25,75,358,46,28,08,250,45,36,00,000,00,51,00,000,46*74
$GPGGA,155352,3843.7314,N,08915.7449,W,1,09,1.3,137.8,M,-33.0,M,,*78
$GPBOD,,T,,M,,*47
$SDVHW,,,,,,N,,K*5B
$GPRMC,155354,A,3843.7315,N,08915.7478,W,4.0,273.4,270909,1.1,W,A*1E
$GPRMB,A,,,,,,,,,,,,A,A*0B
$SDDBT,,f,,M,,F*28
$SDDPT,,*57
$IIMWV,306,R,6.59,N,A*1C
$PTTKW,054,P,006,B,00.0*6B
$GPRTE,1,1,c,*37
$PGRME,4.2,M,6.8,M,8.0,M*2E
$PGRMZ,452,f,3*18
$GPGLL,3843.7314,N,08915.7449,W,155352,A,A*56
$GPGSA,A,3,03,06,07,08,13,16,19,23,25,28,,,1.6,1.0,1.2*3C
$IIVPW,0.0,N,0.0,M*52
$SDMTW,,C*1A
$GPGSV,3,3,12,25,75,358,46,28,08,250,45,36,00,000,00,51,00,000,46*74
$GPGGA,155354,3843.7315,N,08915.7478,W,1,10,1.0,137.9,M,-33.0,M,,*77
$GPBOD,,T,,M,,*47
$SDVHW,,,,,,N,,K*5B
$GPRMC,155354,A,3843.7315,N,08915.7478,W,4.0,273.4,270909,1.1,W,A*1E
$GPRMB,A,,,,,,,,,,,,A,A*0B
$SDDBT,,f,,M,,F*28
$SDDPT,,*57
$IIMWV,303,R,5.82,N,A*1C
$PTTKW,057,P,006,B,00.0*68
$GPRTE,1,1,c,*37
$PGRME,4.0,M,5.6,M,6.9,M*26
$PGRMZ,452,f,3*18
$GPGLL,3843.7315,N,08915.7478,W,155354,A,A*53
$GPGSA,A,3,03,06,07,08,13,16,19,23,25,28,,,1.6,1.0,1.2*3C
$IIVPW,0.0,N,0.0,M*52
$SDMTW,,C*1A
$GPGSV,3,3,12,25,75,358,47,28,08,250,45,36,00,000,00,51,00,000,45*76
$GPGGA,155354,3843.7315,N,08915.7478,W,1,10,1.0,137.9,M,-33.0,M,,*77
$GPBOD,,T,,M,,*47
$SDVHW,,,,,,N,,K*5B
$GPRMC,155356,A,3843.7316,N,08915.7506,W,4.0,271.8,270909,1.1,W,A*19
$GPRMB,A,,,,,,,,,,,,A,A*0B
$SDDBT,,f,,M,,F*28
$SDDPT,,*57
$IIMWV,298,R,6.06,N,A*10
$PTTKW,062,P,006,B,00.0*6E
$GPRTE,1,1,c,*37
$PGRME,4.0,M,5.6,M,6.9,M*26
$PGRMZ,452,f,3*18
$GPGLL,3843.7315,N,08915.7478,W,155354,A,A*53
$GPGSA,A,3,03,06,07,08,13,16,19,23,25,28,,,1.7,1.1,1.3*3D
$IIVPW,0.0,N,0.0,M*52
$SDMTW,,C*1A
$GPGSV,3,3,12,25,75,358,47,28,08,250,45,36,00,000,00,51,00,000,45*76
$GPGGA,155356,3843.7316,N,08915.7506,W,1,10,1.1,137.8,M,-33.0,M,,*7E
$GPBOD,,T,,M,,*47
$SDVHW,,,,,,N,,K*5B
$GPRMC,155356,A,3843.7316,N,08915.7506,W,4.0,271.8,270909,1.1,W,A*19
$GPRMB,A,,,,,,,,,,,,A,A*0B
$SDDBT,,f,,M,,F*28
$SDDPT,,*57
$IIMWV,307,R,6.31,N,A*13
$PTTKW,055,P,006,B,00.0*6A
$GPRTE,1,1,c,*37
$PGRME,3.9,M,5.6,M,6.9,M*28
$PGRMZ,452,f,3*18
$GPGLL,3843.7316,N,08915.7506,W,155356,A,A*5A
$GPGSA,A,3,03,06,07,08,13,16,19,23,25,28,,,1.7,1.1,1.3*3D
$IIVPW,0.0,N,0.0,M*52
$SDMTW,,C*1A
$GPGSV,3,3,12,25,75,358,47,28,08,250,45,37,00,000,00,51,00,000,46*74
$GPGGA,155356,3843.7316,N,08915.7506,W,1,10,1.1,137.8,M,-33.0,M,,*7E
$GPBOD,,T,,M,,*47
$SDVHW,,,,,,N,,K*5B
$GPRMC,155358,A,3843.7317,N,08915.7534,W,3.9,275.1,270909,1.1,W,A*14
$GPRMB,A,,,,,,,,,,,,A,A*0B
$SDDBT,,f,,M,,F*28
$SDDPT,,*57
$IIMWV,299,R,6.21,N,A*14
$PTTKW,058,P,006,B,00.0*67
$GPRTE,1,1,c,*37
$PGRME,3.9,M,5.6,M,6.9,M*28
$PGRMZ,452,f,3*18
$GPGLL,3843.7316,N,08915.7506,W,155356,A,A*5A
$GPGSA,A,3,03,06,07,08,13,16,19,23,25,28,,,1.7,1.1,1.3*3D
$IIVPW,0.0,N,0.0,M*52
$SDMTW,,C*1A
$GPGSV,3,3,12,25,75,358,47,28,08,250,45,37,00,000,00,51,00,000,46*74
$GPGGA,155358,3843.7317,N,08915.7534,W,1,10,1.1,137.8,M,-33.0,M,,*70
$GPBOD,,T,,M,,*47
$SDVHW,,,,,,N,,K*5B
$GPRMC,155358,A,3843.7317,N,08915.7534,W,3.9,275.1,270909,1.1,W,A*14
$GPRMB,A,,,,,,,,,,,,A,A*0B
$SDDBT,,f,,M,,F*28
$SDDPT,,*57
$IIMWV,295,R,5.91,N,A*10
$PTTKW,069,P,006,B,00.0*65
$GPRTE,1,1,c,*37
$PGRME,4.1,M,5.9,M,7.2,M*22
$PGRMZ,452,f,3*18
$GPGLL,3843.7317,N,08915.7534,W,155358,A,A*54
$GPGSA,A,3,03,06,07,08,13,16,19,23,25,28,,,1.7,1.1,1.3*3D
$IIVPW,0.0,N,0.0,M*52
$SDMTW,,C*1A
$GPGSV,3,3,12,25,75,358,47,28,08,250,45,37,00,000,00,51,00,000,46*74
$GPGGA,155358,3843.7317,N,08915.7534,W,1,10,1.1,137.8,M,-33.0,M,,*70
$GPBOD,,T,,M,,*47
$SDVHW,,,,,,N,,K*5B
$GPRMC,155400,A,3843.7319,N,08915.7562,W,3.9,276.7,270909,1.1,W,A*16
$GPRMB,A,,,,,,,,,,,,A,A*0B
$SDDBT,,f,,M,,F*28
$SDDPT,,*57
$IIMWV,298,R,5.88,N,A*15
$PTTKW,062,P,006,B,00.0*6E
$GPRTE,1,1,c,*37
$PGRME,4.1,M,5.9,M,7.2,M*22
$PGRMZ,452,f,3*18
$GPGLL,3843.7317,N,08915.7534,W,155358,A,A*54
$GPGSA,A,3,03,06,07,08,13,16,19,23,25,28,,,1.7,1.1,1.3*3D
$IIVPW,0.0,N,0.0,M*52
$SDMTW,,C*1A
$GPGSV,3,3,12,25,75,358,47,28,08,250,45,37,00,000,00,51,00,000,46*74
$GPGGA,155400,3843.7319,N,08915.7562,W,1,10,1.1,137.8,M,-33.0,M,,*77
$GPBOD,,T,,M,,*47
$SDVHW,,,,,,N,,K*5B
$GPRMC,155400,A,3843.7319,N,08915.7562,W,3.9,276.7,270909,1.1,W,A*16
$GPRMB,A,,,,,,,,,,,,A,A*0B
$SDDBT,,f,,M,,F*28
$SDDPT,,*57
$IIMWV,295,R,6.36,N,A*1E
$PTTKW,065,P,006,B,00.0*69
$GPRTE,1,1,c,*37
$PGRME,4.1,M,6.0,M,7.3,M*29
$PGRMZ,452,f,3*18
$GPGLL,3843.7319,N,08915.7562,W,155400,A,A*53
$GPGSA,A,3,03,06,07,08,13,16,19,23,25,28,,,1.7,1.1,1.3*3D
$IIVPW,0.0,N,0.0,M*52
$SDMTW,,C*1A
$GPGSV,3,3,12,25,75,358,47,28,08,250,45,37,00,000,00,51,00,000,45*77
$GPGGA,155400,3843.7319,N,08915.7562,W,1,10,1.1,137.8,M,-33.0,M,,*77
$GPBOD,,T,,M,,*47
$SDVHW,,,,,,N,,K*5B
$GPRMC,155402,A,3843.7322,N,08915.7589,W,3.9,277.5,270909,1.1,W,A*1A
$GPRMB,A,,,,,,,,,,,,A,A*0B
$SDDBT,,f,,M,,F*28
$SDDPT,,*57
$IIMWV,297,R,6.09,N,A*10
$PTTKW,063,P,006,B,00.0*6F
$GPRTE,1,1,c,*37
$PGRME,4.1,M,6.0,M,7.3,M*29
$PGRMZ,452,f,3*18
$GPGLL,3843.7319,N,08915.7562,W,155400,A,A*53
$GPGSA,A,3,03,06,07,08,13,16,19,23,25,28,,,1.7,1.1,1.3*3D
$IIVPW,0.0,N,0.0,M*52
$SDMTW,,C*1A
$GPGSV,3,3,12,25,75,358,47,28,08,250,45,37,00,000,00,51,00,000,45*77
$GPGGA,155402,3843.7322,N,08915.7589,W,1,10,1.1,137.7,M,-33.0,M,,*77
$GPBOD,,T,,M,,*47
$SDVHW,,,,,,N,,K*5B
$GPRMC,155402,A,3843.7322,N,08915.7589,W,3.9,277.5,270909,1.1,W,A*1A
$GPRMB,A,,,,,,,,,,,,A,A*0B
$SDDBT,,f,,M,,F*28
$SDDPT,,*57
$IIMWV,295,R,6.09,N,A*12
$PTTKW,065,P,006,B,00.0*69
$GPRTE,1,1,c,*37
$PGRME,4.2,M,6.2,M,7.5,M*2E
$PGRMZ,452,f,3*18
$GPGLL,3843.7322,N,08915.7589,W,155402,A,A*5C
$GPGSA,A,3,03,06,07,08,13,16,19,23,25,28,,,1.7,1.1,1.3*3D
$IIVPW,0.0,N,0.0,M*52
$SDMTW,,C*1A
$GPGSV,3,3,12,25,75,358,47,28,08,250,45,37,00,000,00,51,00,000,46*74
$GPGGA,155402,3843.7322,N,08915.7589,W,1,10,1.1,137.7,M,-33.0,M,,*77
$GPBOD,,T,,M,,*47
$SDVHW,,,,,,N,,K*5B
$GPRMC,155404,A,3843.7325,N,08915.7616,W,3.8,277.2,270909,1.1,W,A*18
$GPRMB,A,,,,,,,,,,,,A,A*0B
$SDDBT,,f,,M,,F*28
$SDDPT,,*57
$IIMWV,297,R,5.71,N,A*1C
$PTTKW,063,P,006,B,00.0*6F
$GPRTE,1,1,c,*37
$PGRME,4.2,M,6.2,M,7.5,M*2E
$PGRMZ,452,f,3*18
$GPGLL,3843.7322,N,08915.7589,W,155402,A,A*5C
$GPGSA,A,3,03,06,07,08,13,16,19,23,25,28,,,1.7,1.1,1.3*3D
$IIVPW,0.0,N,0.0,M*52
$SDMTW,,C*1A
$GPGSV,3,3,12,25,75,358,47,28,08,250,45,37,00,000,00,51,00,000,46*74
$GPGGA,155404,3843.7325,N,08915.7616,W,1,10,1.1,137.8,M,-33.0,M,,*7C
$GPBOD,,T,,M,,*47
$SDVHW,,,,,,N,,K*5B
$GPRMC,155404,A,3843.7325,N,08915.7616,W,3.8,277.2,270909,1.1,W,A*18
$GPRMB,A,,,,,,,,,,,,A,A*0B
$SDDBT,,f,,M,,F*28
$SDDPT,,*57
$IIMWV,293,R,6.15,N,A*19
$PTTKW,067,P,006,B,00.0*6B
$GPRTE,1,1,c,*37
$PGRME,4.2,M,6.2,M,7.5,M*2E
$PGRMZ,452,f,3*18
$GPGLL,3843.7325,N,08915.7616,W,155404,A,A*58
$GPGSA,A,3,03,06,07,08,13,16,19,23,25,28,,,1.7,1.1,1.3*3D
$IIVPW,0.0,N,0.0,M*52
$SDMTW,,C*1A
$GPGSV,3,3,12,25,75,358,47,28,08,250,46,37,00,000,00,51,00,000,46*77
$GPGGA,155404,3843.7325,N,08915.7616,W,1,10,1.1,137.8,M,-33.0,M,,*7C
$GPBOD,,T,,M,,*47
$SDVHW,,,,,,N,,K*5B
$GPRMC,155406,A,3843.7328,N,08915.7643,W,3.8,279.6,270909,1.1,W,A*1D
$GPRMB,A,,,,,,,,,,,,A,A*0B
$SDDBT,,f,,M,,F*28
$SDDPT,,*57
$IIMWV,283,R,5.87,N,A*10
$PTTKW,075,P,006,B,00.0*68
$GPRTE,1,1,c,*37
$PGRME,4.2,M,6.2,M,7.5,M*2E
$PGRMZ,452,f,3*18
$GPGLL,3843.7325,N,08915.7616,W,155404,A,A*58
$GPGSA,A,3,03,06,07,08,13,,19,23,25,28,,,1.7,1.1,1.4*3D
$IIVPW,0.0,N,0.0,M*52
$SDMTW,,C*1A
$GPGSV,3,3,12,25,75,358,47,28,08,250,46,37,00,000,00,51,00,000,46*77
$GPGGA,155406,3843.7328,N,08915.7643,W,1,09,1.1,137.8,M,-33.0,M,,*7B
$GPBOD,,T,,M,,*47
$SDVHW,,,,,,N,,K*5B
$GPRMC,155406,A,3843.7328,N,08915.7643,W,3.8,279.6,270909,1.1,W,A*1D
$GPRMB,A,,,,,,,,,,,,A,A*0B
$SDDBT,,f,,M,,F*28
$SDDPT,,*57
$IIMWV,282,R,5.74,N,A*1D
$PTTKW,078,P,006,B,00.0*65
$GPRTE,1,1,c,*37
$PGRME,4.2,M,6.2,M,7.5,M*2E
$PGRMZ,452,f,3*18
$GPGLL,3843.7328,N,08915.7643,W,155406,A,A*57
$GPGSA,A,3,03,06,07,08,13,,19,23,25,28,,,1.7,1.1,1.4*3D
$IIVPW,0.0,N,0.0,M*52
$SDMTW,,C*1A
$GPGSV,3,3,12,25,75,358,47,28,08,250,46,37,00,000,00,51,00,000,46*77
$GPGGA,155406,3843.7328,N,08915.7643,W,1,09,1.1,137.8,M,-33.0,M,,*7B
$GPBOD,,T,,M,,*47
$SDVHW,,,,,,N,,K*5B
$GPRMC,155408,A,3843.7332,N,08915.7670,W,3.8,282.4,270909,1.1,W,A*1E
$GPRMB,A,,,,,,,,,,,,A,A*0B
$SDDBT,,f,,M,,F*28
$SDDPT,,*57
$IIMWV,291,R,5.56,N,A*1F
$PTTKW,069,P,006,B,00.0*65
$GPRTE,1,1,c,*37
$PGRME,4.2,M,6.2,M,7.5,M*2E
$PGRMZ,452,f,3*18
$GPGLL,3843.7328,N,08915.7643,W,155406,A,A*57
$GPGSA,A,3,03,06,07,08,13,,19,23,25,28,,,1.9,1.2,1.5*31
$IIVPW,0.0,N,0.0,M*52
$SDMTW,,C*1A
$GPGSV,3,3,12,25,75,358,47,28,08,250,46,37,00,000,00,51,00,000,46*77
$GPGGA,155408,3843.7332,N,08915.7670,W,1,09,1.2,137.8,M,-33.0,M,,*7D
$GPBOD,,T,,M,,*47
$SDVHW,,,,,,N,,K*5B
$GPRMC,155408,A,3843.7332,N,08915.7670,W,3.8,282.4,270909,1.1,W,A*1E
$GPRMB,A,,,,,,,,,,,,A,A*0B
$SDDBT,,f,,M,,F*28
$SDDPT,,*57
$IIMWV,291,R,5.59,N,A*10
$PTTKW,069,P,006,B,00.0*65
$GPRTE,1,1,c,*37
$PGRME,4.2,M,6.2,M,7.5,M*2E
$PGRMZ,452,f,3*18
$GPGLL,3843.7332,N,08915.7670,W,155408,A,A*52
$GPGSA,A,3,03,06,07,08,13,,19,23,25,28,,,1.9,1.2,1.5*31
$IIVPW,0.0,N,0.0,M*52
$SDMTW,,C*1A
$GPGSV,3,3,12,25,75,358,47,28,08,250,46,37,00,000,00,51,00,000,47*76
$GPGGA,155408,3843.7332,N,08915.7670,W,1,09,1.2,137.8,M,-33.0,M,,*7D
$GPBOD,,T,,M,,*47
$SDVHW,,,,,,N,,K*5B
$GPRMC,155410,A,3843.7337,N,08915.7696,W,3.8,284.0,270909,1.1,W,A*18
$GPRMB,A,,,,,,,,,,,,A,A*0B
$SDDBT,,f,,M,,F*28
$SDDPT,,*57
$IIMWV,287,R,5.59,N,A*17
$PTTKW,073,P,006,B,00.0*6E
$GPRTE,1,1,c,*37
$PGRME,4.2,M,6.2,M,7.5,M*2E
$PGRMZ,452,f,3*18
$GPGLL,3843.7332,N,08915.7670,W,155408,A,A*52
$GPGSA,A,3,03,,07,08,13,,19,23,25,28,,,1.9,1.2,1.5*37
$IIVPW,0.0,N,0.0,M*52
$SDMTW,,C*1A
$GPGSV,3,3,12,25,75,358,47,28,08,250,46,37,00,000,00,51,00,000,47*76
$GPGGA,155410,3843.7337,N,08915.7696,W,1,08,1.2,137.7,M,-33.0,M,,*77
$GPBOD,,T,,M,,*47
$SDVHW,,,,,,N,,K*5B
$GPRMC,155410,A,3843.7337,N,08915.7696,W,3.8,284.0,270909,1.1,W,A*18
$GPRMB,A,,,,,,,,,,,,A,A*0B
$SDDBT,,f,,M,,F*28
$SDDPT,,*57
$IIMWV,283,R,5.68,N,A*11
$PTTKW,077,P,006,B,00.0*6A
$GPRTE,1,1,c,*37
$PGRME,4.4,M,6.4,M,7.8,M*23
$PGRMZ,452,f,3*18
$GPGLL,3843.7337,N,08915.7696,W,155410,A,A*56
$GPGSA,A,3,03,,07,08,13,,19,23,25,28,,,1.9,1.2,1.5*37
$IIVPW,0.0,N,0.0,M*52
$SDMTW,,C*1A
$GPGSV,3,3,12,25,75,358,46,28,08,250,47,37,00,000,00,51,00,000,48*79
$GPGGA,155410,3843.7337,N,08915.7696,W,1,08,1.2,137.7,M,-33.0,M,,*77
$GPBOD,,T,,M,,*47
$SDVHW,,,,,,N,,K*5B
$GPRMC,155412,A,3843.7343,N,08915.7722,W,3.8,286.1,270909,1.1,W,A*14
$GPRMB,A,,,,,,,,,,,,A,A*0B
$SDDBT,,f,,M,,F*28
$SDDPT,,*57
$IIMWV,282,R,5.55,N,A*1E
$PTTKW,078,P,006,B,00.0*65
$GPRTE,1,1,c,*37
$PGRME,4.4,M,6.4,M,7.8,M*23
$PGRMZ,452,f,3*18
$GPGLL,3843.7337,N,08915.7696,W,155410,A,A*56
$GPGSA,A,3,03,,07,08,13,,19,23,25,28,,,1.9,1.2,1.5*37
$IIVPW,0.0,N,0.0,M*52
$SDMTW,,C*1A
$GPGSV,3,3,12,25,75,358,46,28,08,250,47,37,00,000,00,51,00,000,48*79
$GPGGA,155412,3843.7343,N,08915.7722,W,1,08,1.2,137.8,M,-33.0,M,,*77
$GPBOD,,T,,M,,*47
$SDVHW,,,,,,N,,K*5B
$GPRMC,155412,A,3843.7343,N,08915.7722,W,3.8,286.1,270909,1.1,W,A*14
$GPRMB,A,,,,,,,,,,,,A,A*0B
$SDDBT,,f,,M,,F*28
$SDDPT,,*57
$IIMWV,289,R,5.46,N,A*17
$PTTKW,071,P,005,B,00.0*6F
$GPRTE,1,1,c,*37
$PGRME,4.4,M,6.4,M,7.8,M*23
$PGRMZ,452,f,3*18
$GPGLL,3843.7343,N,08915.7722,W,155412,A,A*59
$GPGSA,A,3,03,,07,08,13,,19,23,25,28,,,1.9,1.2,1.5*37
$IIVPW,0.0,N,0.0,M*52
$SDMTW,,C*1A
$GPGSV,3,3,12,25,75,358,46,28,08,250,48,37,00,000,00,51,00,000,47*79
$GPGGA,155412,3843.7343,N,08915.7722,W,1,08,1.2,137.8,M,-33.0,M,,*77
$GPBOD,,T,,M,,*47
$SDVHW,,,,,,N,,K*5B
$GPRMC,155414,A,3843.7349,N,08915.7747,W,3.8,286.7,270909,1.1,W,A*1D
$GPRMB,A,,,,,,,,,,,,A,A*0B
$SDDBT,,f,,M,,F*28
$SDDPT,,*57
$IIMWV,285,R,5.90,N,A*10
$PTTKW,076,P,006,B,00.0*6B
$GPRTE,1,1,c,*37
$PGRME,4.4,M,6.4,M,7.8,M*23
$PGRMZ,452,f,3*18
$GPGLL,3843.7343,N,08915.7722,W,155412,A,A*59
$GPGSA,A,3,03,,07,08,13,,19,23,25,28,,,1.9,1.2,1.5*37
$IIVPW,0.0,N,0.0,M*52
$SDMTW,,C*1A
$GPGSV,3,3,12,25,75,358,46,28,08,250,48,37,00,000,00,51,00,000,47*79
$GPGGA,155414,3843.7349,N,08915.7747,W,1,08,1.2,137.8,M,-33.0,M,,*78
$GPBOD,,T,,M,,*47
$SDVHW,,,,,,N,,K*5B
$GPRMC,155414,A,3843.7349,N,08915.7747,W,3.8,286.7,270909,1.1,W,A*1D
$GPRMB,A,,,,,,,,,,,,A,A*0B
$SDDBT,,f,,M,,F*28
$SDDPT,,*57
$IIMWV,286,R,5.62,N,A*1E
$PTTKW,074,P,006,B,00.0*69
$GPRTE,1,1,c,*37
$PGRME,4.5,M,6.6,M,7.9,M*21
$PGRMZ,452,f,3*18
$GPGLL,3843.7349,N,08915.7747,W,155414,A,A*56
$GPGSA,A,3,03,,07,08,13,,19,23,25,28,,,1.9,1.2,1.5*37
$IIVPW,0.0,N,0.0,M*52
$SDMTW,,C*1A
$GPGSV,3,3,12,25,75,358,46,28,08,250,48,37,00,000,00,51,00,000,47*79
$GPGGA,155414,3843.7349,N,08915.7747,W,1,08,1.2,137.8,M,-33.0,M,,*78
$GPBOD,,T,,M,,*47
$SDVHW,,,,,,N,,K*5B
$GPRMC,155416,A,3843.7355,N,08915.7773,W,3.8,286.7,270909,1.1,W,A*15
$GPRMB,A,,,,,,,,,,,,A,A*0B
$SDDBT,,f,,M,,F*28
$SDDPT,,*57
$IIMWV,276,R,5.62,N,A*11
$PTTKW,082,P,006,B,00.0*60
$GPRTE,1,1,c,*37
$PGRME,4.5,M,6.6,M,7.9,M*21
$PGRMZ,452,f,3*18
$GPGLL,3843.7349,N,08915.7747,W,155414,A,A*56
$GPGSA,A,3,03,,07,08,13,,19,23,25,28,,,1.9,1.2,1.5*37
$IIVPW,0.0,N,0.0,M*52
$SDMTW,,C*1A
$GPGSV,3,3,12,25,75,358,46,28,08,250,48,37,00,000,00,51,00,000,47*79
$GPGGA,155416,3843.7355,N,08915.7773,W,1,08,1.2,137.8,M,-33.0,M,,*70
$GPBOD,,T,,M,,*47
$SDVHW,,,,,,N,,K*5B
$GPRMC,155416,A,3843.7355,N,08915.7773,W,3.8,286.7,270909,1.1,W,A*15
$GPRMB,A,,,,,,,,,,,,A,A*0B
$SDDBT,,f,,M,,F*28
$SDDPT,,*57
$IIMWV,279,R,5.87,N,A*15
$PTTKW,081,P,006,B,00.0*63
$GPRTE,1,1,c,*37
$PGRME,4.7,M,6.9,M,8.3,M*29
$PGRMZ,452,f,3*18
$GPGLL,3843.7355,N,08915.7773,W,155416,A,A*5E
$GPGSA,A,3,03,,07,08,13,,19,23,25,28,,,1.9,1.2,1.5*37
$IIVPW,0.0,N,0.0,M*52
$SDMTW,,C*1A
$GPGSV,3,3,12,25,75,358,46,28,08,250,48,37,00,000,00,51,00,000,47*79
$GPGGA,155416,3843.7355,N,08915.7773,W,1,08,1.2,137.8,M,-33.0,M,,*70
$GPBOD,,T,,M,,*47
$SDVHW,,,,,,N,,K*5B
$GPRMC,155418,A,3843.7361,N,08915.7798,W,3.8,288.1,270909,1.1,W,A*11
$GPRMB,A,,,,,,,,,,,,A,A*0B
$SDDBT,,f,,M,,F*28
$SDDPT,,*57
$IIMWV,291,R,5.49,N,A*11
$PTTKW,069,P,005,B,00.0*66
$GPRTE,1,1,c,*37
$PGRME,4.7,M,6.9,M,8.3,M*29
$PGRMZ,452,f,3*18
$GPGLL,3843.7355,N,08915.7773,W,155416,A,A*5E
$GPGSA,A,3,03,06,07,08,13,,19,23,25,28,,,2.1,1.3,1.6*38
$IIVPW,0.0,N,0.0,M*52
$SDMTW,,C*1A
$GPGSV,3,3,12,25,75,358,46,28,08,250,48,37,00,000,00,51,00,000,47*79
$GPGGA,155418,3843.7361,N,08915.7798,W,1,09,1.3,137.8,M,-33.0,M,,*7C
$GPBOD,,T,,M,,*47
$SDVHW,,,,,,N,,K*5B
$GPRMC,155418,A,3843.7361,N,08915.7798,W,3.8,288.1,270909,1.1,W,A*11
$GPRMB,A,,,,,,,,,,,,A,A*0B
$SDDBT,,f,,M,,F*28
$SDDPT,,*57
$IIMWV,280,R,5.29,N,A*17
$PTTKW,080,P,005,B,00.0*61
$GPRTE,1,1,c,*37
$PGRME,4.5,M,6.8,M,8.1,M*28
$PGRMZ,452,f,3*18
$GPGLL,3843.7361,N,08915.7798,W,155418,A,A*52
$GPGSA,A,3,03,06,07,08,13,,19,23,25,28,,,2.1,1.3,1.6*38
$IIVPW,0.0,N,0.0,M*52
$SDMTW,,C*1A
$GPGSV,3,3,12,25,75,358,46,28,08,250,48,37,00,000,00,51,00,000,46*78
$GPGGA,155418,3843.7361,N,08915.7798,W,1,09,1.3,137.8,M,-33.0,M,,*7C
$GPBOD,,T,,M,,*47
$SDVHW,,,,,,N,,K*5B
$GPRMC,155420,A,3843.7368,N,08915.7823,W,3.8,290.0,270909,1.1,W,A*14
$GPRMB,A,,,,,,,,,,,,A,A*0B
$SDDBT,,f,,M,,F*28
$SDDPT,,*57
$IIMWV,282,R,5.16,N,A*19
$PTTKW,078,P,005,B,00.0*66
$GPRTE,1,1,c,*37
$PGRME,4.5,M,6.8,M,8.1,M*28
$PGRMZ,452,f,3*18
$GPGLL,3843.7361,N,08915.7798,W,155418,A,A*52
$GPGSA,A,3,03,06,07,08,13,,19,23,25,28,,,2.2,1.4,1.7*3D
$IIVPW,0.0,N,0.0,M*52
$SDMTW,,C*1A
$GPGSV,3,1,12,03,55,069,00,06,44,059,37,07,57,321,49,08,20,303,44*78
$GPGGA,155420,3843.7368,N,08915.7823,W,1,09,1.4,137.8,M,-33.0,M,,*76
$GPBOD,,T,,M,,*47
$SDVHW,,,,,,N,,K*5B
$GPRMC,155420,A,3843.7368,N,08915.7823,W,3.8,290.0,270909,1.1,W,A*14
$GPRMB,A,,,,,,,,,,,,A,A*0B
$SDDBT,,f,,M,,F*28
$SDDPT,,*57
$IIMWV,279,R,4.85,N,A*16
$PTTKW,081,P,005,B,00.0*60
$GPRTE,1,1,c,*37
$PGRME,4.5,M,6.8,M,8.1,M*28
$PGRMZ,452,f,3*18
$GPGLL,3843.7368,N,08915.7823,W,155420,A,A*5F
$GPGSA,A,3,03,06,07,08,13,,19,23,25,28,,,2.2,1.4,1.7*3D
$IIVPW,0.0,N,0.0,M*52
$SDMTW,,C*1A
$GPGSV,3,3,12,25,75,358,45,28,08,250,48,37,00,000,00,51,00,000,47*7A
$GPGGA,155420,3843.7368,N,08915.7823,W,1,09,1.4,137.8,M,-33.0,M,,*76
$GPBOD,,T,,M,,*47
$SDVHW,,,,,,N,,K*5B
$GPRMC,155422,A,3843.7376,N,08915.7848,W,3.7,290.8,270909,1.1,W,A*13
$GPRMB,A,,,,,,,,,,,,A,A*0B
$SDDBT,,f,,M,,F*28
$SDDPT,,*57
$IIMWV,286,R,5.16,N,A*1D
$PTTKW,074,P,005,B,00.0*6A
$GPRTE,1,1,c,*37
$PGRME,4.5,M,6.8,M,8.1,M*28
$PGRMZ,452,f,3*18
$GPGLL,3843.7368,N,08915.7823,W,155420,A,A*5F
$GPGSA,A,3,03,06,07,08,13,,19,23,25,28,,,2.2,1.4,1.7*3D
$IIVPW,0.0,N,0.0,M*52
$SDMTW,,C*1A
$GPGSV,3,3,12,25,75,358,45,28,08,250,48,37,00,000,00,51,00,000,47*7A
$GPGGA,155422,3843.7376,N,08915.7848,W,1,09,1.4,137.7,M,-33.0,M,,*79
$GPBOD,,T,,M,,*47
$SDVHW,,,,,,N,,K*5B
$GPRMC,155422,A,3843.7376,N,08915.7848,W,3.7,290.8,270909,1.1,W,A*13
$GPRMB,A,,,,,,,,,,,,A,A*0B
$SDDBT,,f,,M,,F*28
$SDDPT,,*57
$IIMWV,294,R,5.16,N,A*1E
$PTTKW,068,P,005,B,00.0*67
$GPRTE,1,1,c,*37
$PGRME,4.5,M,6.8,M,8.1,M*28
$PGRMZ,452,f,3*18
$GPGLL,3843.7376,N,08915.7848,W,155422,A,A*5F
$GPGSA,A,3,03,06,07,08,13,,19,23,25,28,,,2.2,1.4,1.7*3D
$IIVPW,0.0,N,0.0,M*52
$SDMTW,,C*1A
$GPGSV,3,3,12,25,75,358,45,28,08,250,48,37,00,000,00,51,00,000,47*7A
$GPGGA,155422,3843.7376,N,08915.7848,W,1,09,1.4,137.7,M,-33.0,M,,*79
$GPBOD,,T,,M,,*47
$SDVHW,,,,,,N,,K*5B
$GPRMC,155424,A,3843.7384,N,08915.7873,W,3.7,294.6,270909,1.1,W,A*1A
$GPRMB,A,,,,,,,,,,,,A,A*0B
$SDDBT,,f,,M,,F*28
$SDDPT,,*57
$IIMWV,290,R,5.73,N,A*19
$PTTKW,070,P,006,B,00.0*6D
$GPRTE,1,1,c,*37
$PGRME,4.5,M,6.8,M,8.1,M*28
$PGRMZ,452,f,3*18
$GPGLL,3843.7376,N,08915.7848,W,155422,A,A*5F
$GPGSA,A,3,03,06,07,08,13,,19,23,25,28,,,2.5,1.6,1.9*36
$IIVPW,0.0,N,0.0,M*52
$SDMTW,,C*1A
$GPGSV,3,3,12,25,75,358,45,28,08,250,48,37,00,000,00,51,00,000,47*7A
$GPGGA,155424,3843.7384,N,08915.7873,W,1,09,1.6,137.8,M,-33.0,M,,*77
$GPBOD,,T,,M,,*47
$SDVHW,,,,,,N,,K*5B
$GPRMC,155424,A,3843.7384,N,08915.7873,W,3.7,294.6,270909,1.1,W,A*1A
$GPRMB,A,,,,,,,,,,,,A,A*0B
$SDDBT,,f,,M,,F*28
$SDDPT,,*57
$IIMWV,284,R,5.43,N,A*1F
$PTTKW,073,P,005,B,00.0*6D
$GPRTE,1,1,c,*37
$PGRME,4.8,M,7.5,M,8.9,M*21
$PGRMZ,452,f,3*18
$GPGLL,3843.7384,N,08915.7873,W,155424,A,A*5C
$GPGSA,A,3,03,06,07,08,13,,19,23,25,28,,,2.5,1.6,1.9*36
$IIVPW,0.0,N,0.0,M*52
$SDMTW,,C*1A
$GPGSV,3,3,12,25,75,358,45,28,08,250,48,37,00,000,00,51,00,000,49*74
$GPGGA,155424,3843.7384,N,08915.7873,W,1,09,1.6,137.8,M,-33.0,M,,*77
$GPBOD,,T,,M,,*47
$SDVHW,,,,,,N,,K*5B
$GPRMC,155426,A,3843.7389,N,08915.7898,W,3.7,284.3,270909,1.1,W,A*14
$GPRMB,A,,,,,,,,,,,,A,A*0B
$SDDBT,,f,,M,,F*28
$SDDPT,,*57
$IIMWV,286,R,6.44,N,A*19
$PTTKW,069,P,006,B,00.0*65
$GPRTE,1,1,c,*37
$PGRME,4.8,M,7.5,M,8.9,M*21
$PGRMZ,452,f,3*18
$GPGLL,3843.7384,N,08915.7873,W,155424,A,A*5C
$GPGSA,A,3,03,06,07,08,13,,19,23,25,28,,,2.6,1.6,2.0*3F
$IIVPW,0.0,N,0.0,M*52
$SDMTW,,C*1A
$GPGSV,3,3,12,25,75,358,45,28,08,250,48,37,00,000,00,51,00,000,49*74
$GPGGA,155426,3843.7389,N,08915.7898,W,1,09,1.6,137.9,M,-33.0,M,,*7C
$GPBOD,,T,,M,,*47
$SDVHW,,,,,,N,,K*5B
$GPRMC,155426,A,3843.7389,N,08915.7898,W,3.7,284.3,270909,1.1,W,A*14
$GPRMB,A,,,,,,,,,,,,A,A*0B
$SDDBT,,f,,M,,F*28
$SDDPT,,*57
$IIMWV,297,R,5.93,N,A*10
$PTTKW,066,P,006,B,00.0*6A
$GPRTE,1,1,c,*37
$PGRME,4.6,M,7.7,M,9.1,M*24
$PGRMZ,452,f,3*18
$GPGLL,3843.7389,N,08915.7898,W,155426,A,A*56
$GPGSA,A,3,03,06,07,08,13,,19,23,25,28,,,2.6,1.6,2.0*3F
$IIVPW,0.0,N,0.0,M*52
$SDMTW,,C*1A
$GPGSV,3,3,12,25,75,358,46,28,08,250,46,37,00,000,00,51,00,000,48*78
$GPGGA,155426,3843.7389,N,08915.7898,W,1,09,1.6,137.9,M,-33.0,M,,*7C
$GPBOD,,T,,M,,*47
$SDVHW,,,,,,N,,K*5B
$GPRMC,155428,A,3843.7390,N,08915.7924,W,3.6,269.5,270909,1.1,W,A*10
$GPRMB,A,,,,,,,,,,,,A,A*0B
$SDDBT,,f,,M,,F*28
$SDDPT,,*57
$IIMWV,297,R,6.15,N,A*1D
$PTTKW,063,P,006,B,00.0*6F
$GPRTE,1,1,c,*37
$PGRME,4.6,M,7.7,M,9.1,M*24
$PGRMZ,452,f,3*18
$GPGLL,3843.7389,N,08915.7898,W,155426,A,A*56
$GPGSA,A,3,03,06,07,08,13,,19,23,25,28,,,2.4,1.4,2.0*3F
$IIVPW,0.0,N,0.0,M*52
$SDMTW,,C*1A
$GPGSV,3,3,12,25,75,358,46,28,08,250,46,37,00,000,00,51,00,000,48*78
$GPGGA,155428,3843.7390,N,08915.7924,W,1,09,1.4,137.9,M,-33.0,M,,*7E
$GPBOD,,T,,M,,*47
$SDVHW,,,,,,N,,K*5B
$GPRMC,155428,A,3843.7390,N,08915.7924,W,3.6,269.5,270909,1.1,W,A*10
$GPRMB,A,,,,,,,,,,,,A,A*0B
$SDDBT,,f,,M,,F*28
$SDDPT,,*57
$IIMWV,301,R,6.92,N,A*1C
$PTTKW,059,P,007,B,00.0*67
$GPRTE,1,1,c,*37
$PGRME,4.7,M,7.6,M,9.1,M*24
$PGRMZ,452,f,3*18
$GPGLL,3843.7390,N,08915.7924,W,155428,A,A*56
$GPGSA,A,3,03,06,07,08,13,,19,23,25,28,,,2.4,1.4,2.0*3F
$IIVPW,0.0,N,0.0,M*52
$SDMTW,,C*1A
$GPGSV,3,3,12,25,76,000,46,28,08,250,45,37,00,000,00,51,00,000,47*79
$GPGGA,155428,3843.7390,N,08915.7924,W,1,09,1.4,137.9,M,-33.0,M,,*7E
$GPBOD,,T,,M,,*47
$SDVHW,,,,,,N,,K*5B
$GPRMC,155430,A,3843.7389,N,08915.7948,W,3.5,265.1,270909,1.1,W,A*10
$GPRMB,A,,,,,,,,,,,,A,A*0B
$SDDBT,,f,,M,,F*28
$SDDPT,,*57
$IIMWV,304,R,6.79,N,A*1C
$PTTKW,056,P,007,B,00.0*68
$GPRTE,1,1,c,*37
$PGRME,4.7,M,7.6,M,9.1,M*24
$PGRMZ,452,f,3*18
$GPGLL,3843.7390,N,08915.7924,W,155428,A,A*56
$GPGSA,A,3,03,06,07,08,13,,19,23,25,28,,,2.4,1.4,2.0*3F
$IIVPW,0.0,N,0.0,M*52
$SDMTW,,C*1A
$GPGSV,3,3,12,25,76,000,46,28,08,250,45,37,00,000,00,51,00,000,47*79
$GPGGA,155430,3843.7389,N,08915.7948,W,1,09,1.5,137.9,M,-33.0,M,,*74
$GPBOD,,T,,M,,*47
$SDVHW,,,,,,N,,K*5B
$GPRMC,155430,A,3843.7389,N,08915.7948,W,3.5,265.1,270909,1.1,W,A*10
$GPRMB,A,,,,,,,,,,,,A,A*0B
$SDDBT,,f,,M,,F*28
$SDDPT,,*57
$IIMWV,307,R,6.79,N,A*1F
$PTTKW,053,P,007,B,00.0*6D
$GPRTE,1,1,c,*37
$PGRME,4.2,M,6.7,M,7.9,M*27
$PGRMZ,452,f,3*18
$GPGLL,3843.7389,N,08915.7948,W,155430,A,A*5D
$GPGSA,A,3,03,06,07,08,13,,19,23,25,28,,,2.6,1.5,2.1*3D
$IIVPW,0.0,N,0.0,M*52
$SDMTW,,C*1A
$GPGSV,3,3,12,25,76,000,46,28,08,250,43,37,00,000,00,51,00,000,47*7F
$GPGGA,155430,3843.7389,N,08915.7948,W,1,09,1.5,137.9,M,-33.0,M,,*74
$GPBOD,,T,,M,,*47
$SDVHW,,,,,,N,,K*5B
$GPRMC,155432,A,3843.7384,N,08915.7972,W,3.4,255.7,270909,1.1,W,A*12
$GPRMB,A,,,,,,,,,,,,A,A*0B
$SDDBT,,f,,M,,F*28
$SDDPT,,*57
$IIMWV,311,R,7.29,N,A*1C
$PTTKW,049,P,007,B,00.0*66
$GPRTE,1,1,c,*37
$PGRME,4.2,M,6.7,M,7.9,M*27
$PGRMZ,452,f,3*18
$GPGLL,3843.7389,N,08915.7948,W,155430,A,A*5D
$GPGSA,A,3,03,06,07,08,13,,19,23,25,28,,,2.6,1.5,2.1*3D
$IIVPW,0.0,N,0.0,M*52
$SDMTW,,C*1A
$GPGSV,3,3,12,25,76,000,46,28,08,250,43,37,00,000,00,51,00,000,47*7F
$GPGGA,155432,3843.7384,N,08915.7972,W,1,09,1.4,137.9,M,-33.0,M,,*73
$GPBOD,,T,,M,,*47
$SDVHW,,,,,,N,,K*5B
$GPRMC,155432,A,3843.7384,N,08915.7972,W,3.4,255.7,270909,1.1,W,A*12
$GPRMB,A,,,,,,,,,,,,A,A*0B
$SDDBT,,f,,M,,F*28
$SDDPT,,*57
$IIMWV,311,R,8.01,N,A*19
$PTTKW,049,P,008,B,00.0*69
$GPRTE,1,1,c,*37
$PGRME,4.3,M,7.0,M,8.2,M*24
$PGRMZ,453,f,3*19
$GPGLL,3843.7384,N,08915.7972,W,155432,A,A*5B
$GPGSA,A,3,03,06,07,08,13,,19,23,25,28,,,2.4,1.4,2.0*3F
$IIVPW,0.0,N,0.0,M*52
$SDMTW,,C*1A
$GPGSV,3,3,12,25,76,000,46,28,08,250,41,37,00,000,00,51,00,000,47*7D
$GPGGA,155432,3843.7384,N,08915.7972,W,1,09,1.4,137.9,M,-33.0,M,,*73
$GPBOD,,T,,M,,*47
$SDVHW,,,,,,N,,K*5B
$GPRMC,155434,A,3843.7378,N,08915.7995,W,3.4,247.8,270909,1.1,W,A*12
$GPRMB,A,,,,,,,,,,,,A,A*0B
$SDDBT,,f,,M,,F*28
$SDDPT,,*57
$IIMWV,317,R,7.95,N,A*1D
$PTTKW,043,P,008,B,00.0*63
$GPRTE,1,1,c,*37
$PGRME,4.3,M,7.0,M,8.2,M*24
$PGRMZ,453,f,3*19
$GPGLL,3843.7384,N,08915.7972,W,155432,A,A*5B
$GPGSA,A,3,03,06,07,08,13,,19,23,25,28,,,2.7,1.5,2.2*3F
$IIVPW,0.0,N,0.0,M*52
$SDMTW,,C*1A
$GPGSV,3,3,12,25,76,000,46,28,08,250,41,37,00,000,00,51,00,000,47*7D
$GPGGA,155434,3843.7378,N,08915.7995,W,1,09,1.5,138.0,M,-33.0,M,,*78
$GPBOD,,T,,M,,*47
$SDVHW,,,,,,N,,K*5B
$GPRMC,155434,A,3843.7378,N,08915.7995,W,3.4,247.8,270909,1.1,W,A*12
$GPRMB,A,,,,,,,,,,,,A,A*0B
$SDDBT,,f,,M,,F*28
$SDDPT,,*57
$IIMWV,323,R,7.73,N,A*12
$PTTKW,037,P,008,B,00.0*60
$GPRTE,1,1,c,*37
$PGRME,4.2,M,7.1,M,8.3,M*25
$PGRMZ,453,f,3*19
$GPGLL,3843.7378,N,08915.7995,W,155434,A,A*57
$GPGSA,A,3,03,06,07,08,13,,19,23,25,28,,,2.7,1.5,2.2*3F
$IIVPW,0.0,N,0.0,M*52
$SDMTW,,C*1A
$GPGSV,3,3,12,25,76,000,47,28,08,250,00,37,00,000,00,51,00,000,48*76
$GPGGA,155434,3843.7378,N,08915.7995,W,1,09,1.5,138.0,M,-33.0,M,,*78
$GPBOD,,T,,M,,*47
$SDVHW,,,,,,N,,K*5B
$GPRMC,155436,A,3843.7369,N,08915.8015,W,3.3,238.5,270909,1.1,W,A*1C
$GPRMB,A,,,,,,,,,,,,A,A*0B
$SDDBT,,f,,M,,F*28
$SDDPT,,*57
$IIMWV,323,R,7.75,N,A*14
$PTTKW,037,P,008,B,00.0*60
$GPRTE,1,1,c,*37
$PGRME,4.2,M,7.1,M,8.3,M*25
$PGRMZ,453,f,3*19
$GPGLL,3843.7378,N,08915.7995,W,155434,A,A*57
$GPGSA,A,3,03,06,07,08,13,,19,23,25,28,,,2.7,1.5,2.2*3F
$IIVPW,0.0,N,0.0,M*52
$SDMTW,,C*1A
$GPGSV,3,3,12,25,76,000,47,28,08,250,00,37,00,000,00,51,00,000,48*76
$GPGGA,155436,3843.7369,N,08915.8015,W,1,09,1.5,138.1,M,-33.0,M,,*75
$GPBOD,,T,,M,,*47
$SDVHW,,,,,,N,,K*5B
$GPRMC,155436,A,3843.7369,N,08915.8015,W,3.3,238.5,270909,1.1,W,A*1C
$GPRMB,A,,,,,,,,,,,,A,A*0B
$SDDBT,,f,,M,,F*28
$SDDPT,,*57
$IIMWV,331,R,7.87,N,A*1A
$PTTKW,029,P,008,B,00.0*6F
$GPRTE,1,1,c,*37
$PGRME,4.4,M,7.6,M,8.8,M*2F
$PGRMZ,453,f,3*19
$GPGLL,3843.7369,N,08915.8015,W,155436,A,A*5B
$GPGSA,A,3,03,06,07,08,13,,19,23,25,28,,,2.7,1.5,2.2*3F
$IIVPW,0.0,N,0.0,M*52
$SDMTW,,C*1A
$GPGSV,3,3,12,25,76,000,47,28,08,250,34,37,00,000,00,51,00,000,48*71
$GPGGA,155436,3843.7369,N,08915.8015,W,1,09,1.5,138.1,M,-33.0,M,,*75
$GPBOD,,T,,M,,*47
$SDVHW,,,,,,N,,K*5B
$GPRMC,155438,A,3843.7358,N,08915.8033,W,3.3,230.1,270909,1.1,W,A*18
$GPRMB,A,,,,,,,,,,,,A,A*0B
$SDDBT,,f,,M,,F*28
$SDDPT,,*57
$IIMWV,335,R,7.52,N,A*16
$PTTKW,025,P,008,B,00.0*63
$GPRTE,1,1,c,*37
$PGRME,4.4,M,7.6,M,8.8,M*2F
$PGRMZ,453,f,3*19
$GPGLL,3843.7369,N,08915.8015,W,155436,A,A*5B
$GPGSA,A,3,03,06,07,08,13,,19,23,25,28,,,2.7,1.5,2.2*3F
$IIVPW,0.0,N,0.0,M*52
$SDMTW,,C*1A
$GPGSV,3,3,12,25,76,000,47,28,08,250,34,37,00,000,00,51,00,000,48*71
$GPGGA,155438,3843.7358,N,08915.8033,W,1,09,1.5,138.1,M,-33.0,M,,*7D
$GPBOD,,T,,M,,*47
$SDVHW,,,,,,N,,K*5B
$GPRMC,155438,A,3843.7358,N,08915.8033,W,3.3,230.1,270909,1.1,W,A*18
$GPRMB,A,,,,,,,,,,,,A,A*0B
$SDDBT,,f,,M,,F*28
$SDDPT,,*57
$IIMWV,344,R,7.52,N,A*10
$PTTKW,016,P,008,B,00.0*63
$GPRTE,1,1,c,*37
$PGRME,4.4,M,7.7,M,8.9,M*2F
$PGRMZ,453,f,3*19
$GPGLL,3843.7358,N,08915.8033,W,155438,A,A*53
$GPGSA,A,3,03,06,07,08,13,,19,23,25,28,,,2.7,1.5,2.2*3F
$IIVPW,0.0,N,0.0,M*52
$SDMTW,,C*1A
$GPGSV,3,3,12,25,76,000,46,28,08,250,34,37,00,000,00,51,00,000,49*71
$GPGGA,155438,3843.7358,N,08915.8033,W,1,09,1.5,138.1,M,-33.0,M,,*7D
$GPBOD,,T,,M,,*47
$SDVHW,,,,,,N,,K*5B
$GPRMC,155440,A,3843.7345,N,08915.8048,W,3.2,220.2,270909,1.1,W,A*14
$GPRMB,A,,,,,,,,,,,,A,A*0B
$SDDBT,,f,,M,,F*28
$SDDPT,,*57
$IIMWV,351,R,7.45,N,A*12
$PTTKW,009,P,007,B,00.0*62
$GPRTE,1,1,c,*37
$PGRME,4.4,M,7.7,M,8.9,M*2F
$PGRMZ,453,f,3*19
$GPGLL,3843.7358,N,08915.8033,W,155438,A,A*53
$GPGSA,A,3,03,06,07,08,13,,19,23,25,28,,,2.4,1.4,2.0*3F
$IIVPW,0.0,N,0.0,M*52
$SDMTW,,C*1A
$GPGSV,3,3,12,25,76,000,46,28,08,250,34,37,00,000,00,51,00,000,49*71
$GPGGA,155440,3843.7345,N,08915.8048,W,1,09,1.4,138.1,M,-33.0,M,,*73
$GPBOD,,T,,M,,*47
$SDVHW,,,,,,N,,K*5B
$GPRMC,155440,A,3843.7345,N,08915.8048,W,3.2,220.2,270909,1.1,W,A*14
$GPRMB,A,,,,,,,,,,,,A,A*0B
$SDDBT,,f,,M,,F*28
$SDDPT,,*57
$IIMWV,344,R,7.45,N,A*16
$PTTKW,016,P,007,B,00.0*6C
$GPRTE,1,1,c,*37
$PGRME,4.2,M,6.8,M,8.0,M*2E
$PGRMZ,453,f,3*19
$GPGLL,3843.7345,N,08915.8048,W,155440,A,A*5C
$GPGSA,A,3,03,06,07,08,13,,19,23,25,28,,,2.4,1.4,2.0*3F
$IIVPW,0.0,N,0.0,M*52
$SDMTW,,C*1A
$GPGSV,3,3,12,25,76,000,45,28,09,251,41,37,00,000,00,51,00,000,49*70
$GPGGA,155440,3843.7345,N,08915.8048,W,1,09,1.4,138.1,M,-33.0,M,,*73
$GPBOD,,T,,M,,*47
$SDVHW,,,,,,N,,K*5B
$GPRMC,155442,A,3843.7330,N,08915.8059,W,3.1,207.6,270909,1.1,W,A*16
$GPRMB,A,,,,,,,,,,,,A,A*0B
$SDDBT,,f,,M,,F*28
$SDDPT,,*57
$IIMWV,350,R,6.94,N,A*1E
$PTTKW,010,P,007,B,00.0*6A
$GPRTE,1,1,c,*37
$PGRME,4.2,M,6.8,M,8.0,M*2E
$PGRMZ,453,f,3*19
$GPGLL,3843.7345,N,08915.8048,W,155440,A,A*5C
$GPGSA,A,3,03,06,07,08,13,,19,23,25,28,,,2.4,1.4,2.0*3F
$IIVPW,0.0,N,0.0,M*52
$SDMTW,,C*1A
$GPGSV,3,3,12,25,76,000,45,28,09,251,41,37,00,000,00,51,00,000,49*70
$GPGGA,155442,3843.7330,N,08915.8059,W,1,09,1.4,138.1,M,-33.0,M,,*73
$GPBOD,,T,,M,,*47
$SDVHW,,,,,,N,,K*5B
$GPRMC,155442,A,3843.7330,N,08915.8059,W,3.1,207.6,270909,1.1,W,A*16
$GPRMB,A,,,,,,,,,,,,A,A*0B
$SDDBT,,f,,M,,F*28
$SDDPT,,*57
$IIMWV,357,R,6.30,N,A*17
$PTTKW,003,P,006,B,00.0*69
$GPRTE,1,1,c,*37
$PGRME,4.2,M,6.7,M,7.9,M*27
$PGRMZ,453,f,3*19
$GPGLL,3843.7330,N,08915.8059,W,155442,A,A*5C
$GPGSA,A,3,03,06,07,08,13,,19,23,25,28,,,2.4,1.4,2.0*3F
$IIVPW,0.0,N,0.0,M*52
$SDMTW,,C*1A
$GPGSV,3,3,12,25,76,000,44,28,09,251,41,37,00,000,00,51,00,000,49*71
$GPGGA,155442,3843.7330,N,08915.8059,W,1,09,1.4,138.1,M,-33.0,M,,*73
$GPBOD,,T,,M,,*47
$SDVHW,,,,,,N,,K*5B
$GPRMC,155444,A,3843.7314,N,08915.8070,W,3.2,206.9,270909,1.1,W,A*10
$GPRMB,A,,,,,,,,,,,,A,A*0B
$SDDBT,,f,,M,,F*28
$SDDPT,,*57
$IIMWV,353,R,6.51,N,A*14
$PTTKW,007,P,007,B,00.0*6C
$GPRTE,1,1,c,*37
$PGRME,4.2,M,6.7,M,7.9,M*27
$PGRMZ,453,f,3*19
$GPGLL,3843.7330,N,08915.8059,W,155442,A,A*5C
$GPGSA,A,3,03,06,07,08,13,,19,23,25,28,,,2.4,1.4,1.8*34
$IIVPW,0.0,N,0.0,M*52
$SDMTW,,C*1A
$GPGSV,3,3,12,25,76,000,44,28,09,251,41,37,00,000,00,51,00,000,49*71
$GPGGA,155444,3843.7314,N,08915.8070,W,1,09,1.4,138.1,M,-33.0,M,,*78
$GPBOD,,T,,M,,*47
$SDVHW,,,,,,N,,K*5B
$GPRMC,155444,A,3843.7314,N,08915.8070,W,3.2,206.9,270909,1.1,W,A*10
$GPRMB,A,,,,,,,,,,,,A,A*0B
$SDDBT,,f,,M,,F*28
$SDDPT,,*57
$IIMWV,351,R,7.93,N,A*19
$PTTKW,018,P,008,B,00.0*6D
$GPRTE,1,1,c,*37
$PGRME,4.2,M,6.9,M,8.0,M*2F
$PGRMZ,453,f,3*19
$GPGLL,3843.7314,N,08915.8070,W,155444,A,A*57
$GPGSA,A,3,03,06,07,08,13,,19,23,25,28,,,2.4,1.4,1.8*34
$IIVPW,0.0,N,0.0,M*52
$SDMTW,,C*1A
$GPGSV,3,3,12,25,76,000,43,28,09,251,40,37,00,000,00,51,00,000,48*76
$GPGGA,155444,3843.7314,N,08915.8070,W,1,09,1.4,138.1,M,-33.0,M,,*78
$GPBOD,,T,,M,,*47
$SDVHW,,,,,,N,,K*5B
$GPRMC,155446,A,3843.7298,N,08915.8078,W,3.2,202.0,270909,1.1,W,A*12
$GPRMB,A,,,,,,,,,,,,A,A*0B
$SDDBT,,f,,M,,F*28
$SDDPT,,*57
$IIMWV,356,R,7.71,N,A*12
$PTTKW,004,P,008,B,00.0*60
$GPRTE,1,1,c,*37
$PGRME,4.2,M,6.9,M,8.0,M*2F
$PGRMZ,453,f,3*19
$GPGLL,3843.7314,N,08915.8070,W,155444,A,A*57
$GPGSA,A,3,03,06,07,08,13,,19,23,25,28,,,2.2,1.3,1.8*35
$IIVPW,0.0,N,0.0,M*52
$SDMTW,,C*1A
$GPGSV,3,3,12,25,76,000,43,28,09,251,40,37,00,000,00,51,00,000,48*76
$GPGGA,155446,3843.7298,N,08915.8078,W,1,09,1.3,138.0,M,-33.0,M,,*71
$GPBOD,,T,,M,,*47
$SDVHW,,,,,,N,,K*5B
$GPRMC,155446,A,3843.7298,N,08915.8078,W,3.2,202.0,270909,1.1,W,A*12
$GPRMB,A,,,,,,,,,,,,A,A*0B
$SDDBT,,f,,M,,F*28
$SDDPT,,*57
$IIMWV,004,R,7.74,N,A*13
$PTTKW,001,S,008,B,00.0*66
$GPRTE,1,1,c,*37
$PGRME,4.2,M,6.9,M,8.0,M*2F
$PGRMZ,453,f,3*19
$GPGLL,3843.7298,N,08915.8078,W,155446,A,A*58
$GPGSA,A,3,03,06,07,08,13,,19,23,25,28,,,2.2,1.3,1.8*35
$IIVPW,0.0,N,0.0,M*52
$SDMTW,,C*1A
$GPGSV,3,3,12,25,76,000,43,28,09,251,40,37,00,000,00,51,00,000,48*76
$GPGGA,155446,3843.7298,N,08915.8078,W,1,09,1.3,138.0,M,-33.0,M,,*71
$GPBOD,,T,,M,,*47
$SDVHW,,,,,,N,,K*5B
$GPRMC,155448,A,3843.7282,N,08915.8086,W,3.1,200.1,270909,1.1,W,A*16
$GPRMB,A,,,,,,,,,,,,A,A*0B
$SDDBT,,f,,M,,F*28
$SDDPT,,*57
$IIMWV,357,R,8.02,N,A*18
$PTTKW,003,P,008,B,00.0*67
$GPRTE,1,1,c,*37
$PGRME,4.2,M,6.9,M,8.0,M*2F
$PGRMZ,453,f,3*19
$GPGLL,3843.7298,N,08915.8078,W,155446,A,A*58
$GPGSA,A,3,03,06,07,08,13,,19,23,25,28,,,2.1,1.2,1.7*38
$IIVPW,0.0,N,0.0,M*52
$SDMTW,,C*1A
$GPGSV,3,3,12,25,76,000,43,28,09,251,40,37,00,000,00,51,00,000,48*76
$GPGGA,155448,3843.7282,N,08915.8086,W,1,09,1.2,138.0,M,-33.0,M,,*74
$GPBOD,,T,,M,,*47
$SDVHW,,,,,,N,,K*5B
$GPRMC,155448,A,3843.7282,N,08915.8086,W,3.1,200.1,270909,1.1,W,A*16
$GPRMB,A,,,,,,,,,,,,A,A*0B
$SDDBT,,f,,M,,F*28
$SDDPT,,*57
$IIMWV,357,R,8.17,N,A*1C
$PTTKW,003,P,008,B,00.0*67
$GPRTE,1,1,c,*37
$PGRME,4.2,M,6.7,M,7.9,M*27
$PGRMZ,453,f,3*19
$GPGLL,3843.7282,N,08915.8086,W,155448,A,A*5C
$GPGSA,A,3,03,06,07,08,13,,19,23,25,28,,,2.1,1.2,1.7*38
$IIVPW,0.0,N,0.0,M*52
$SDMTW,,C*1A
$GPGSV,3,3,12,25,76,000,42,28,09,251,40,37,00,000,00,51,00,000,47*78
$GPGGA,155448,3843.7282,N,08915.8086,W,1,09,1.2,138.0,M,-33.0,M,,*74
$GPBOD,,T,,M,,*47
$SDVHW,,,,,,N,,K*5B
$GPRMC,155450,A,3843.7266,N,08915.8093,W,3.1,200.4,270909,1.1,W,A*14
$GPRMB,A,,,,,,,,,,,,A,A*0B
$SDDBT,,f,,M,,F*28
$SDDPT,,*57
$IIMWV,359,R,8.37,N,A*10
$PTTKW,001,S,008,B,00.0*66
$GPRTE,1,1,c,*37
$PGRME,4.2,M,6.7,M,7.9,M*27
$PGRMZ,453,f,3*19
$GPGLL,3843.7282,N,08915.8086,W,155448,A,A*5C
$GPGSA,A,3,03,06,07,08,13,,19,23,25,28,,,2.1,1.2,1.7*38
$IIVPW,0.0,N,0.0,M*52
$SDMTW,,C*1A
$GPGSV,3,3,12,25,76,000,42,28,09,251,40,37,00,000,00,51,00,000,47*78
$GPGGA,155450,3843.7266,N,08915.8093,W,1,09,1.2,137.9,M,-33.0,M,,*75
$GPBOD,,T,,M,,*47
$SDVHW,,,,,,N,,K*5B
$GPRMC,155450,A,3843.7266,N,08915.8093,W,3.1,200.4,270909,1.1,W,A*14
$GPRMB,A,,,,,,,,,,,,A,A*0B
$SDDBT,,f,,M,,F*28
$SDDPT,,*57
$IIMWV,008,R,7.72,N,A*19
$PTTKW,004,S,008,B,00.0*63
$GPRTE,1,1,c,*37
$PGRME,4.2,M,6.8,M,8.0,M*2E
$PGRMZ,452,f,3*18
$GPGLL,3843.7266,N,08915.8093,W,155450,A,A*5B
$GPGSA,A,3,03,06,07,08,13,,19,23,25,28,,,2.1,1.2,1.7*38
$IIVPW,0.0,N,0.0,M*52
$SDMTW,,C*1A
$GPGSV,3,3,12,25,76,000,42,28,09,251,40,37,00,000,00,51,00,000,47*78
$GPGGA,155450,3843.7266,N,08915.8093,W,1,09,1.2,137.9,M,-33.0,M,,*75
$GPBOD,,T,,M,,*47
$SDVHW,,,,,,N,,K*5B
$GPRMC,155452,A,3843.7250,N,08915.8100,W,3.1,199.3,270909,1.1,W,A*1C
$GPRMB,A,,,,,,,,,,,,A,A*0B
$SDDBT,,f,,M,,F*28
$SDDPT,,*57
$IIMWV,004,R,7.18,N,A*19
$PTTKW,004,S,007,B,00.0*6C
$GPRTE,1,1,c,*37
$PGRME,4.2,M,6.8,M,8.0,M*2E
$PGRMZ,452,f,3*18
$GPGLL,3843.7266,N,08915.8093,W,155450,A,A*5B
$GPGSA,A,3,03,06,07,08,13,,19,23,25,28,,,2.1,1.2,1.7*38
$IIVPW,0.0,N,0.0,M*52
$SDMTW,,C*1A
$GPGSV,3,3,12,25,76,000,42,28,09,251,40,37,00,000,00,51,00,000,47*78
$GPGGA,155452,3843.7250,N,08915.8100,W,1,10,1.2,137.8,M,-33.0,M,,*70
$GPBOD,,T,,M,,*47
$SDVHW,,,,,,N,,K*5B
$GPRMC,155452,A,3843.7250,N,08915.8100,W,3.1,199.3,270909,1.1,W,A*1C
$GPRMB,A,,,,,,,,,,,,A,A*0B
$SDDBT,,f,,M,,F*28
$SDDPT,,*57
$IIMWV,002,R,7.18,N,A*1F
$PTTKW,004,S,007,B,00.0*6C
$GPRTE,1,1,c,*37
$PGRME,4.0,M,5.6,M,6.9,M*26
$PGRMZ,452,f,3*18
$GPGLL,3843.7250,N,08915.8100,W,155452,A,A*57
$GPGSA,A,3,03,06,07,08,13,16,19,23,25,28,,,2.1,1.2,1.7*3F
$IIVPW,0.0,N,0.0,M*52
$SDMTW,,C*1A
$GPGSV,3,3,12,25,76,000,42,28,09,251,38,38,00,-01,00,51,00,000,47*64
$GPGGA,155452,3843.7250,N,08915.8100,W,1,10,1.2,137.8,M,-33.0,M,,*70
$GPBOD,,T,,M,,*47
$SDVHW,,,,,,N,,K*5B
$GPRMC,155454,A,3843.7234,N,08915.8107,W,3.1,199.3,270909,1.1,W,A*1F
$GPRMB,A,,,,,,,,,,,,A,A*0B
$SDDBT,,f,,M,,F*28
$SDDPT,,*57
$IIMWV,005,R,7.11,N,A*11
$PTTKW,005,S,007,B,00.0*6D
$GPRTE,1,1,c,*37
$PGRME,4.0,M,5.6,M,6.9,M*26
$PGRMZ,452,f,3*18
$GPGLL,3843.7250,N,08915.8100,W,155452,A,A*57
$GPGSA,A,3,03,06,07,08,13,16,19,23,25,28,,,2.1,1.2,1.7*3F
$IIVPW,0.0,N,0.0,M*52
$SDMTW,,C*1A
$GPGSV,3,3,12,25,76,000,42,28,09,251,38,38,00,-01,00,51,00,000,47*64
$GPGGA,155454,3843.7234,N,08915.8107,W,1,10,1.3,137.8,M,-33.0,M,,*72
$GPBOD,,T,,M,,*47
$SDVHW,,,,,,N,,K*5B
$GPRMC,155454,A,3843.7234,N,08915.8107,W,3.1,199.3,270909,1.1,W,A*1F
$GPRMB,A,,,,,,,,,,,,A,A*0B
$SDDBT,,f,,M,,F*28
$SDDPT,,*57
$IIMWV,355,R,7.70,N,A*10
$PTTKW,005,S,007,B,00.0*6D
$GPRTE,1,1,c,*37
$PGRME,4.1,M,6.0,M,7.3,M*29
$PGRMZ,452,f,3*18
$GPGLL,3843.7234,N,08915.8107,W,155454,A,A*54
$GPGSA,A,3,03,06,07,08,13,16,19,23,25,28,,,2.2,1.3,1.8*32
$IIVPW,0.0,N,0.0,M*52
$SDMTW,,C*1A
$GPGSV,3,3,12,25,76,000,42,28,09,251,38,38,00,-01,00,51,00,000,48*6B
$GPGGA,155454,3843.7234,N,08915.8107,W,1,10,1.3,137.8,M,-33.0,M,,*72
$GPBOD,,T,,M,,*47
$SDVHW,,,,,,N,,K*5B
$GPRMC,155456,A,3843.7217,N,08915.8113,W,3.1,192.3,270909,1.1,W,A*12
$GPRMB,A,,,,,,,,,,,,A,A*0B
$SDDBT,,f,,M,,F*28
$SDDPT,,*57
$IIMWV,004,R,7.83,N,A*1B
$PTTKW,001,S,008,B,00.0*66
$GPRTE,1,1,c,*37
$PGRME,4.1,M,6.0,M,7.3,M*29
$PGRMZ,452,f,3*18
$GPGLL,3843.7234,N,08915.8107,W,155454,A,A*54
$GPGSA,A,3,03,06,07,08,13,16,19,23,25,28,,,2.4,1.4,1.9*32
$IIVPW,0.0,N,0.0,M*52
$SDMTW,,C*1A
$GPGSV,3,3,12,25,76,000,42,28,09,251,38,38,00,-01,00,51,00,000,48*6B
$GPGGA,155456,3843.7217,N,08915.8113,W,1,10,1.4,137.7,M,-33.0,M,,*7C
$GPBOD,,T,,M,,*47
$SDVHW,,,,,,N,,K*5B
$GPRMC,155456,A,3843.7217,N,08915.8113,W,3.1,192.3,270909,1.1,W,A*12
$GPRMB,A,,,,,,,,,,,,A,A*0B
$SDDBT,,f,,M,,F*28
$SDDPT,,*57
$IIMWV,008,R,8.18,N,A*1A
$PTTKW,011,S,008,B,00.0*67
$GPRTE,1,1,c,*37
$PGRME,4.2,M,6.7,M,7.9,M*27
$PGRMZ,452,f,3*18
$GPGLL,3843.7217,N,08915.8113,W,155456,A,A*52
$GPGSA,A,3,03,06,07,08,13,16,19,23,25,28,,,2.4,1.4,1.9*32
$IIVPW,0.0,N,0.0,M*52
$SDMTW,,C*1A
$GPGSV,3,3,12,25,76,000,44,28,09,251,00,38,00,-01,00,51,00,000,48*66
$GPGGA,155456,3843.7217,N,08915.8113,W,1,10,1.4,137.7,M,-33.0,M,,*7C
$GPBOD,,T,,M,,*47
$SDVHW,,,,,,N,,K*5B
$GPRMC,155458,A,3843.7201,N,08915.8116,W,3.0,185.3,270909,1.1,W,A*19
$GPRMB,A,,,,,,,,,,,,A,A*0B
$SDDBT,,f,,M,,F*28
$SDDPT,,*57
$IIMWV,011,R,8.27,N,A*1E
$PTTKW,013,S,008,B,00.0*65
$GPRTE,1,1,c,*37
$PGRME,4.2,M,6.7,M,7.9,M*27
$PGRMZ,452,f,3*18
$GPGLL,3843.7217,N,08915.8113,W,155456,A,A*52
$GPGSA,A,3,03,06,07,08,13,16,19,23,25,28,,,2.4,1.4,1.0*3B
$IIVPW,0.0,N,0.0,M*52
$SDMTW,,C*1A
$GPGSV,3,3,12,25,76,000,44,28,09,251,00,38,00,-01,00,51,00,000,48*66
$GPGGA,155458,3843.7201,N,08915.8116,W,1,10,1.4,137.6,M,-33.0,M,,*71
$GPBOD,,T,,M,,*47
$SDVHW,,,,,,N,,K*5B
$GPRMC,155458,A,3843.7201,N,08915.8116,W,3.0,185.3,270909,1.1,W,A*19
$GPRMB,A,,,,,,,,,,,,A,A*0B
$SDDBT,,f,,M,,F*28
$SDDPT,,*57
$IIMWV,009,R,8.61,N,A*15
$PTTKW,011,S,009,B,00.0*66
$GPRTE,1,1,c,*37
$PGRME,4.3,M,7.4,M,8.6,M*24
$PGRMZ,452,f,3*18
$GPGLL,3843.7201,N,08915.8116,W,155458,A,A*5E
$GPGSA,A,3,03,06,07,08,13,16,19,23,25,28,,,2.4,1.4,1.0*3B
$IIVPW,0.0,N,0.0,M*52
$SDMTW,,C*1A
$GPGSV,3,3,12,25,76,000,45,28,09,251,36,38,00,-01,00,51,00,000,47*6D
$GPGGA,155458,3843.7201,N,08915.8116,W,1,10,1.4,137.6,M,-33.0,M,,*71
$GPBOD,,T,,M,,*47
$SDVHW,,,,,,N,,K*5B
$GPRMC,155500,A,3843.7184,N,08915.8115,W,3.0,176.5,270909,1.1,W,A*12
$GPRMB,A,,,,,,,,,,,,A,A*0B
$SDDBT,,f,,M,,F*28
$SDDPT,,*57
$IIMWV,016,R,8.32,N,A*1D
$PTTKW,016,S,008,B,00.0*60
$GPRTE,1,1,c,*37
$PGRME,4.3,M,7.4,M,8.6,M*24
$PGRMZ,452,f,3*18
$GPGLL,3843.7201,N,08915.8116,W,155458,A,A*5E
$GPGSA,A,3,03,06,07,08,13,16,19,23,25,28,,,2.4,1.4,1.0*3B
$IIVPW,0.0,N,0.0,M*52
$SDMTW,,C*1A
$GPGSV,3,3,12,25,76,000,45,28,09,251,36,38,00,-01,00,51,00,000,47*6D
$GPGGA,155500,3843.7184,N,08915.8115,W,1,10,1.5,137.5,M,-33.0,M,,*72
$GPBOD,,T,,M,,*47
$SDVHW,,,,,,N,,K*5B
$GPRMC,155500,A,3843.7184,N,08915.8115,W,3.0,176.5,270909,1.1,W,A*12
$GPRMB,A,,,,,,,,,,,,A,A*0B
$SDDBT,,f,,M,,F*28
$SDDPT,,*57
$IIMWV,021,R,8.18,N,A*11
$PTTKW,021,S,008,B,00.0*64
$GPRTE,1,1,c,*37
$PGRME,4.1,M,6.4,M,7.6,M*28
$PGRMZ,451,f,3*1B
$GPGLL,3843.7184,N,08915.8115,W,155500,A,A*5F
$GPGSA,A,3,03,06,07,08,13,16,19,23,25,28,,,2.8,1.5,1.6*30
$IIVPW,0.0,N,0.0,M*52
$SDMTW,,C*1A
$GPGSV,3,3,12,25,76,000,45,28,09,251,00,38,00,-01,00,51,00,000,44*6B
$GPGGA,155500,3843.7184,N,08915.8115,W,1,10,1.5,137.5,M,-33.0,M,,*72
$GPBOD,,T,,M,,*47
$SDVHW,,,,,,N,,K*5B
$GPRMC,155502,A,3843.7168,N,08915.8112,W,3.0,169.0,270909,1.1,W,A*1E
$GPRMB,A,,,,,,,,,,,,A,A*0B
$SDDBT,,f,,M,,F*28
$SDDPT,,*57
$IIMWV,020,R,8.32,N,A*18
$PTTKW,020,S,008,B,00.0*65
$GPRTE,1,1,c,*37
$PGRME,4.1,M,6.4,M,7.6,M*28
$PGRMZ,451,f,3*1B
$GPGLL,3843.7184,N,08915.8115,W,155500,A,A*5F
$GPGSA,A,3,03,06,07,08,13,16,19,23,25,28,,,2.8,1.5,1.6*30
$IIVPW,0.0,N,0.0,M*52
$SDMTW,,C*1A
$GPGSV,3,3,12,25,76,000,45,28,09,251,00,38,00,-01,00,51,00,000,44*6B
$GPGGA,155502,3843.7168,N,08915.8112,W,1,10,1.5,137.6,M,-33.0,M,,*76
$GPBOD,,T,,M,,*47
$SDVHW,,,,,,N,,K*5B
$GPRMC,155502,A,3843.7168,N,08915.8112,W,3.0,169.0,270909,1.1,W,A*1E
$GPRMB,A,,,,,,,,,,,,A,A*0B
$SDDBT,,f,,M,,F*28
$SDDPT,,*57
$IIMWV,022,R,8.93,N,A*11
$PTTKW,022,S,009,B,00.0*66
$GPRTE,1,1,c,*37
$PGRME,4.3,M,7.2,M,8.4,M*20
$PGRMZ,451,f,3*1B
$GPGLL,3843.7168,N,08915.8112,W,155502,A,A*58
$GPGSA,A,3,03,06,07,08,13,16,19,23,25,28,,,2.6,1.5,1.8*30
$IIVPW,0.0,N,0.0,M*52
$SDMTW,,C*1A
$GPGSV,3,3,12,25,76,000,46,28,09,251,00,38,00,-01,00,51,00,000,43*6F
$GPGGA,155502,3843.7168,N,08915.8112,W,1,10,1.5,137.6,M,-33.0,M,,*76
$GPBOD,,T,,M,,*47
$SDVHW,,,,,,N,,K*5B
$GPRMC,155504,A,3843.7152,N,08915.8105,W,3.1,161.1,270909,1.1,W,A*1F
$GPRMB,A,,,,,,,,,,,,A,A*0B
$SDDBT,,f,,M,,F*28
$SDDPT,,*57
$IIMWV,022,R,8.30,N,A*18
$PTTKW,022,S,008,B,00.0*67
$GPRTE,1,1,c,*37
$PGRME,4.3,M,7.2,M,8.4,M*20
$PGRMZ,451,f,3*1B
$GPGLL,3843.7168,N,08915.8112,W,155502,A,A*58
$GPGSA,A,3,03,06,07,08,13,16,19,23,25,28,,,2.4,1.4,1.8*33
$IIVPW,0.0,N,0.0,M*52
$SDMTW,,C*1A
$GPGSV,3,3,12,25,76,000,46,28,09,251,00,38,00,-01,00,51,00,000,43*6F
$GPGGA,155504,3843.7152,N,08915.8105,W,1,10,1.4,137.6,M,-33.0,M,,*7E
$GPBOD,,T,,M,,*47
$SDVHW,,,,,,N,,K*5B
$GPRMC,155504,A,3843.7152,N,08915.8105,W,3.1,161.1,270909,1.1,W,A*1F
$GPRMB,A,,,,,,,,,,,,A,A*0B
$SDDBT,,f,,M,,F*28
$SDDPT,,*57
$IIMWV,021,R,7.78,N,A*18
$PTTKW,021,S,008,B,00.0*64
$GPRTE,1,1,c,*37
$PGRME,4.2,M,6.6,M,7.8,M*27
$PGRMZ,451,f,3*1B
$GPGLL,3843.7152,N,08915.8105,W,155504,A,A*51
$GPGSA,A,3,03,06,07,08,13,16,19,23,25,28,,,2.4,1.4,1.8*33
$IIVPW,0.0,N,0.0,M*52
$SDMTW,,C*1A
$GPGSV,3,3,12,25,76,000,46,28,09,251,00,38,00,-01,00,51,00,000,43*6F
$GPGGA,155504,3843.7152,N,08915.8105,W,1,10,1.4,137.6,M,-33.0,M,,*7E
$GPBOD,,T,,M,,*47
$SDVHW,,,,,,N,,K*5B
$GPRMC,155506,A,3843.7136,N,08915.8096,W,3.0,152.5,270909,1.1,W,A*11
$GPRMB,A,,,,,,,,,,,,A,A*0B
$SDDBT,,f,,M,,F*28
$SDDPT,,*57
$IIMWV,025,R,7.69,N,A*1C
$PTTKW,025,S,008,B,00.0*60
$GPRTE,1,1,c,*37
$PGRME,4.2,M,6.6,M,7.8,M*27
$PGRMZ,451,f,3*1B
$GPGLL,3843.7152,N,08915.8105,W,155504,A,A*51
$GPGSA,A,3,03,06,07,08,13,16,19,23,25,28,,,2.5,1.5,1.9*32
$IIVPW,0.0,N,0.0,M*52
$SDMTW,,C*1A
$GPGSV,3,3,12,25,76,000,46,28,09,251,00,38,00,-01,00,51,00,000,43*6F
$GPGGA,155506,3843.7136,N,08915.8096,W,1,10,1.5,137.4,M,-33.0,M,,*76
$GPBOD,,T,,M,,*47
$SDVHW,,,,,,N,,K*5B
$GPRMC,155506,A,3843.7136,N,08915.8096,W,3.0,152.5,270909,1.1,W,A*11
$GPRMB,A,,,,,,,,,,,,A,A*0B
$SDDBT,,f,,M,,F*28
$SDDPT,,*57
$IIMWV,031,R,8.11,N,A*19
$PTTKW,031,S,008,B,00.0*65
$GPRTE,1,1,c,*37
$PGRME,4.5,M,7.1,M,8.4,M*25
$PGRMZ,451,f,3*1B
$GPGLL,3843.7136,N,08915.8096,W,155506,A,A*5A
$GPGSA,A,3,03,06,07,08,13,16,19,23,25,28,,,2.5,1.5,1.9*32
$IIVPW,0.0,N,0.0,M*52
$SDMTW,,C*1A
$GPGSV,3,3,12,25,76,000,46,28,09,251,36,38,00,-01,00,51,00,000,00*6D
$GPGGA,155506,3843.7136,N,08915.8096,W,1,10,1.5,137.4,M,-33.0,M,,*76
$GPBOD,,T,,M,,*47
$SDVHW,,,,,,N,,K*5B
$GPRMC,155508,A,3843.7121,N,08915.8085,W,3.1,152.1,270909,1.1,W,A*1E
$GPRMB,A,,,,,,,,,,,,A,A*0B
$SDDBT,,f,,M,,F*28
$SDDPT,,*57
$IIMWV,029,R,8.11,N,A*10
$PTTKW,029,S,008,B,00.0*6C
$GPRTE,1,1,c,*37
$PGRME,4.5,M,7.1,M,8.4,M*25
$PGRMZ,451,f,3*1B
$GPGLL,3843.7136,N,08915.8096,W,155506,A,A*5A
$GPGSA,A,3,03,06,07,08,13,16,19,23,25,28,,,2.6,1.5,2.0*3B
$IIVPW,0.0,N,0.0,M*52
$SDMTW,,C*1A
$GPGSV,3,3,12,25,76,000,46,28,09,251,36,38,00,-01,00,51,00,000,00*6D
$GPGGA,155508,3843.7121,N,08915.8085,W,1,10,1.5,137.4,M,-33.0,M,,*7C
$GPBOD,,T,,M,,*47
$SDVHW,,,,,,N,,K*5B
$GPRMC,155508,A,3843.7121,N,08915.8085,W,3.1,152.1,270909,1.1,W,A*1E
$GPRMB,A,,,,,,,,,,,,A,A*0B
$SDDBT,,f,,M,,F*28
$SDDPT,,*57
$IIMWV,024,R,7.80,N,A*1A
$PTTKW,024,S,008,B,00.0*61
$GPRTE,1,1,c,*37
$PGRME,4.2,M,6.6,M,7.8,M*27
$PGRMZ,451,f,3*1B
$GPGLL,3843.7121,N,08915.8085,W,155508,A,A*50
$GPGSA,A,3,03,06,07,08,13,16,19,23,25,28,,,2.6,1.5,2.0*3B
$IIVPW,0.0,N,0.0,M*52
$SDMTW,,C*1A
$GPGSV,3,3,12,25,76,000,47,28,09,251,00,38,00,-01,00,51,00,000,38*62
$GPGGA,155508,3843.7121,N,08915.8085,W,1,10,1.5,137.4,M,-33.0,M,,*7C
$GPBOD,,T,,M,,*47
$SDVHW,,,,,,N,,K*5B
$GPRMC,155510,A,3843.7106,N,08915.8074,W,3.1,149.8,270909,1.1,W,A*1F
$GPRMB,A,,,,,,,,,,,,A,A*0B
$SDDBT,,f,,M,,F*28
$SDDPT,,*57
$IIMWV,025,R,7.50,N,A*16
$PTTKW,025,S,008,B,00.0*60
$GPRTE,1,1,c,*37
$PGRME,4.2,M,6.6,M,7.8,M*27
$PGRMZ,451,f,3*1B
$GPGLL,3843.7121,N,08915.8085,W,155508,A,A*50
$GPGSA,A,3,03,06,07,08,13,16,19,23,25,28,,,2.6,1.5,2.0*3B
$IIVPW,0.0,N,0.0,M*52
$SDMTW,,C*1A
$GPGSV,3,3,12,25,76,000,47,28,09,251,00,38,00,-01,00,51,00,000,38*62
$GPGGA,155510,3843.7106,N,08915.8074,W,1,10,1.1,137.4,M,-33.0,M,,*7A
$GPBOD,,T,,M,,*47
$SDVHW,,,,,,N,,K*5B
$GPRMC,155510,A,3843.7106,N,08915.8074,W,3.1,149.8,270909,1.1,W,A*1F
$GPRMB,A,,,,,,,,,,,,A,A*0B
$SDDBT,,f,,M,,F*28
$SDDPT,,*57
$IIMWV,025,R,7.34,N,A*14
$PTTKW,025,S,007,B,00.0*6F
$GPRTE,1,1,c,*37
$PGRME,4.2,M,6.4,M,7.8,M*25
$PGRMZ,451,f,3*1B
$GPGLL,3843.7106,N,08915.8074,W,155510,A,A*52
$GPGSA,A,3,03,06,07,08,13,16,19,23,25,28,,,1.6,1.1,1.2*3D
$IIVPW,0.0,N,0.0,M*52
$SDMTW,,C*1A
$GPGSV,3,3,12,25,76,000,47,28,09,251,33,38,00,-01,00,51,00,000,40*6D
$GPGGA,155510,3843.7106,N,08915.8074,W,1,10,1.1,137.4,M,-33.0,M,,*7A
$GPBOD,,T,,M,,*47
$SDVHW,,,,,,N,,K*5B
$GPRMC,155512,A,3843.7091,N,08915.8063,W,3.2,151.9,270909,1.1,W,A*1F
$GPRMB,A,,,,,,,,,,,,A,A*0B
$SDDBT,,f,,M,,F*28
$SDDPT,,*57
$IIMWV,025,R,7.54,N,A*12
$PTTKW,025,S,008,B,00.0*60
$GPRTE,1,1,c,*37
$PGRME,4.2,M,6.4,M,7.8,M*25
$PGRMZ,451,f,3*1B
$GPGLL,3843.7106,N,08915.8074,W,155510,A,A*52
$GPGSA,A,3,03,06,07,08,13,16,19,23,25,28,,,1.6,1.1,1.2*3D
$IIVPW,0.0,N,0.0,M*52
$SDMTW,,C*1A
$GPGSV,3,3,12,25,76,000,47,28,09,251,33,38,00,-01,00,51,00,000,40*6D
$GPGGA,155512,3843.7091,N,08915.8063,W,1,10,1.2,137.4,M,-33.0,M,,*72
$GPBOD,,T,,M,,*47
$SDVHW,,,,,,N,,K*5B
$GPRMC,155512,A,3843.7091,N,08915.8063,W,3.2,151.9,270909,1.1,W,A*1F
$GPRMB,A,,,,,,,,,,,,A,A*0B
$SDDBT,,f,,M,,F*28
$SDDPT,,*57
$IIMWV,026,R,7.69,N,A*1F
$PTTKW,026,S,008,B,00.0*63
$GPRTE,1,1,c,*37
$PGRME,4.5,M,7.0,M,8.4,M*24
$PGRMZ,451,f,3*1B
$GPGLL,3843.7091,N,08915.8063,W,155512,A,A*59
$GPGSA,A,3,03,06,07,08,13,16,19,23,25,28,,,1.8,1.2,1.3*31
$IIVPW,0.0,N,0.0,M*52
$SDMTW,,C*1A
$GPGSV,3,3,12,25,76,000,47,28,09,251,00,38,00,-01,00,51,00,000,00*69
$GPGGA,155512,3843.7091,N,08915.8063,W,1,10,1.2,137.4,M,-33.0,M,,*72
$GPBOD,,T,,M,,*47
$SDVHW,,,,,,N,,K*5B
$GPRMC,155514,A,3843.7075,N,08915.8053,W,3.2,153.2,270909,1.1,W,A*19
$GPRMB,A,,,,,,,,,,,,A,A*0B
$SDDBT,,f,,M,,F*28
$SDDPT,,*57
$IIMWV,025,R,7.63,N,A*16
$PTTKW,025,S,008,B,00.0*60
$GPRTE,1,1,c,*37
$PGRME,4.5,M,7.0,M,8.4,M*24
$PGRMZ,451,f,3*1B
$GPGLL,3843.7091,N,08915.8063,W,155512,A,A*59
$GPGSA,A,3,03,06,07,08,13,16,19,23,25,28,,,2.3,1.3,1.8*33
$IIVPW,0.0,N,0.0,M*52
$SDMTW,,C*1A
$GPGSV,3,3,12,25,76,000,47,28,09,251,00,38,00,-01,00,51,00,000,00*69
$GPGGA,155514,3843.7075,N,08915.8053,W,1,10,1.3,137.4,M,-33.0,M,,*7C
$GPBOD,,T,,M,,*47
$SDVHW,,,,,,N,,K*5B
$GPRMC,155514,A,3843.7075,N,08915.8053,W,3.2,153.2,270909,1.1,W,A*19
$GPRMB,A,,,,,,,,,,,,A,A*0B
$SDDBT,,f,,M,,F*28
$SDDPT,,*57
$IIMWV,020,R,7.31,N,A*14
$PTTKW,020,S,007,B,00.0*6A
$GPRTE,1,1,c,*37
$PGRME,4.5,M,7.0,M,8.4,M*24
$PGRMZ,451,f,3*1B
$GPGLL,3843.7075,N,08915.8053,W,155514,A,A*56
$GPGSA,A,3,03,06,07,08,13,16,19,23,25,28,,,2.3,1.3,1.8*33
$IIVPW,0.0,N,0.0,M*52
$SDMTW,,C*1A
$GPGSV,3,3,12,25,76,000,47,28,09,251,00,38,00,-01,00,51,00,000,00*69
$GPGGA,155514,3843.7075,N,08915.8053,W,1,10,1.3,137.4,M,-33.0,M,,*7C
$GPBOD,,T,,M,,*47
$SDVHW,,,,,,N,,K*5B
$GPRMC,155516,A,3843.7059,N,08915.8043,W,3.1,155.0,270909,1.1,W,A*13
$GPRMB,A,,,,,,,,,,,,A,A*0B
$SDDBT,,f,,M,,F*28
$SDDPT,,*57
$IIMWV,022,R,7.40,N,A*10
$PTTKW,019,S,007,B,00.0*60
$GPRTE,1,1,c,*37
$PGRME,4.5,M,7.0,M,8.4,M*24
$PGRMZ,451,f,3*1B
$GPGLL,3843.7075,N,08915.8053,W,155514,A,A*56
$GPGSA,A,3,03,06,07,08,13,16,19,23,25,28,,,2.8,1.4,2.3*37
$IIVPW,0.0,N,0.0,M*52
$SDMTW,,C*1A
$GPGSV,3,3,12,25,76,000,47,28,09,251,00,38,00,-01,00,51,00,000,00*69
$GPGGA,155516,3843.7059,N,08915.8043,W,1,10,1.4,137.2,M,-33.0,M,,*70
$GPBOD,,T,,M,,*47
$SDVHW,,,,,,N,,K*5B
$GPRMC,155516,A,3843.7059,N,08915.8043,W,3.1,155.0,270909,1.1,W,A*13
$GPRMB,A,,,,,,,,,,,,A,A*0B
$SDDBT,,f,,M,,F*28
$SDDPT,,*57
$IIMWV,026,R,8.22,N,A*1F
$PTTKW,026,S,008,B,00.0*63
$GPRTE,1,1,c,*37
$PGRME,4.5,M,7.1,M,8.5,M*24
