$IIHDG,242,,,015,E*22
$IIHDG,242,,,015,E*22
$IIVHW,257,T,242,M,0.00,N,0.00,K*51
$IIMWV,309,T,12.03,N,A*2F
$IIRMC,220526.00,A,3754.34,N,12223.20,W,3.90,250,,015,E,N*07
$IIHDG,241,,,015,E*21
$IIVHW,256,T,241,M,0.00,N,0.00,K*53
$IIMWV,311,R,12.57,N,A*21
$IIRMC,220530.00,A,3754.34,N,12223.20,W,3.90,250,,015,E,N*00
$IIHDG,240,,,015,E*20
$IIVHW,256,T,241,M,0.00,N,0.00,K*53
$IIMWV,311,T,12.84,N,A*29
$IIRMC,220530.00,A,3754.34,N,12223.20,W,3.90,250,,015,E,N*00
$IIHDG,240,,,015,E*20
$IIVHW,255,T,240,M,0.00,N,0.00,K*51
$IIMWV,311,T,12.84,N,A*29
$IIRMC,220532.00,A,3754.34,N,12223.21,W,4.10,250,,015,E,N*0C
$IIHDG,237,,,015,E*20
$IIVHW,252,T,237,M,0.00,N,0.00,K*56
$IIMWV,312,R,13.23,N,A*20
$IIRMC,220534.00,A,3754.34,N,12223.21,W,4.10,250,,015,E,N*0A
$IIHDG,236,,,015,E*21
$IIVHW,252,T,237,M,0.00,N,0.00,K*56
$IIMWV,315,T,13.52,N,A*27
$IIRMC,220534.00,A,3754.34,N,12223.21,W,4.10,250,,015,E,N*0A
$IIHDG,236,,,015,E*21
$IIVHW,250,T,235,M,0.00,N,0.00,K*56
$IIMWV,315,T,13.52,N,A*27
$IIRMC,220536.00,A,3754.34,N,12223.21,W,4.19,248,,015,E,N*08
$IIHDG,234,,,015,E*23
$IIVHW,249,T,234,M,0.00,N,0.00,K*5F
$IIMWV,320,R,12.94,N,A*2C
$IIRMC,220540.00,A,3754.34,N,12223.22,W,4.37,246,,015,E,N*08
$IIHDG,233,,,015,E*24
$IIVHW,249,T,234,M,0.00,N,0.00,K*5F
$IIMWV,321,T,12.63,N,A*23
$IIRMC,220540.00,A,3754.34,N,12223.22,W,4.37,246,,015,E,N*08
$IIHDG,233,,,015,E*24
$IIVHW,248,T,233,M,0.00,N,0.00,K*59
$IIMWV,321,T,12.63,N,A*23
$IIRMC,220542.00,A,3754.33,N,12223.22,W,4.39,245,,015,E,N*00
$IIHDG,232,,,015,E*25
$IIVHW,248,T,233,M,0.00,N,0.00,K*59
$IIMWV,325,R,12.16,N,A*23
$IIRMC,220542.00,A,3754.33,N,12223.22,W,4.39,245,,015,E,N*00
$IIHDG,232,,,015,E*25
$IIVHW,247,T,232,M,0.00,N,0.00,K*57
$IIMWV,325,R,12.16,N,A*23
$IIRMC,220544.00,A,3754.33,N,12223.22,W,4.39,244,,015,E,N*07
$IIHDG,232,,,015,E*25
$IIVHW,247,T,232,M,0.00,N,0.00,K*57
$IIMWV,325,R,12.16,N,A*23
$IIRMC,220544.00,A,3754.33,N,12223.22,W,4.39,244,,015,E,N*07
$IIHDG,232,,,015,E*25
$IIVHW,247,T,232,M,0.00,N,0.00,K*57
$IIMWV,328,T,11.87,N,A*23
$IIRMC,220548.00,A,3754.33,N,12223.23,W,4.50,243,,015,E,N*02
$IIHDG,231,,,015,E*26
$IIVHW,246,T,231,M,0.00,N,0.00,K*55
$IIMWV,327,R,12.44,N,A*26
$IIRMC,220550.00,A,3754.33,N,12223.23,W,4.39,240,,015,E,N*07
$IIHDG,230,,,015,E*27
$IIVHW,246,T,231,M,0.00,N,0.00,K*55
$IIMWV,328,T,12.42,N,A*29
$IIRMC,220550.00,A,3754.33,N,12223.23,W,4.39,240,,015,E,N*07
$IIHDG,230,,,015,E*27
$IIVHW,245,T,230,M,0.00,N,0.00,K*57
$IIMWV,328,T,12.42,N,A*29
$IIRMC,220552.00,A,3754.33,N,12223.24,W,4.39,240,,015,E,N*02
$IIHDG,229,,,015,E*2F
$IIVHW,243,T,228,M,0.00,N,0.00,K*58
$IIMWV,330,R,12.26,N,A*24
$IIRMC,220554.00,A,3754.33,N,12223.24,W,4.29,239,,015,E,N*0B
$IIHDG,227,,,015,E*21
$IIVHW,243,T,228,M,0.00,N,0.00,K*58
$IIMWV,330,T,12.88,N,A*26
$IIRMC,220558.00,A,3754.32,N,12223.24,W,4.21,237,,015,E,N*00
$IIHDG,231,,,015,E*26
$IIVHW,243,T,228,M,0.00,N,0.00,K*58
$IIMWV,326,R,11.99,N,A*24
$IIRMC,220600.00,A,3754.32,N,12223.25,W,4.10,235,,015,E,N*0F
$IIHDG,231,,,015,E*26
$IIVHW,247,T,232,M,0.00,N,0.00,K*57
$IIMWV,326,R,11.99,N,A*24
$IIRMC,220600.00,A,3754.32,N,12223.25,W,4.10,235,,015,E,N*0F
$IIHDG,236,,,015,E*21
$IIVHW,251,T,236,M,0.00,N,0.00,K*54
$IIMWV,320,T,12.36,N,A*22
$IIRMC,220602.00,A,3754.32,N,12223.25,W,4.10,236,,015,E,N*0E
$IIHDG,237,,,015,E*20
$IIVHW,252,T,237,M,0.00,N,0.00,K*56
$IIMWV,314,R,12.53,N,A*20
$IIRMC,220606.00,A,3754.32,N,12223.25,W,4.00,239,,015,E,N*04
$IIHDG,237,,,015,E*20
$IIVHW,252,T,237,M,0.00,N,0.00,K*56
$IIMWV,316,T,13.02,N,A*21
$IIRMC,220608.00,A,3754.32,N,12223.25,W,4.10,245,,015,E,N*00
$IIHDG,236,,,015,E*21
$IIVHW,252,T,237,M,0.00,N,0.00,K*56
$IIMWV,321,R,12.96,N,A*2F
$IIRMC,220608.00,A,3754.32,N,12223.25,W,4.10,245,,015,E,N*00
$IIHDG,236,,,015,E*21
$IIVHW,251,T,236,M,0.00,N,0.00,K*54
$IIMWV,321,R,12.96,N,A*2F
$IIRMC,220610.00,A,3754.32,N,12223.26,W,4.10,246,,015,E,N*09
$IIHDG,235,,,015,E*22
$IIVHW,251,T,236,M,0.00,N,0.00,K*54
$IIMWV,317,T,12.98,N,A*22
$IIRMC,220612.00,A,3754.32,N,12223.26,W,4.10,246,,015,E,N*0B
$IIHDG,237,,,015,E*20
$IIVHW,251,T,236,M,0.00,N,0.00,K*54
$IIMWV,318,R,12.16,N,A*2D
$IIRMC,220616.00,A,3754.31,N,12223.27,W,4.19,245,,015,E,N*07
$IIHDG,237,,,015,E*20
$IIVHW,253,T,238,M,0.00,N,0.00,K*58
$IIMWV,318,R,12.16,N,A*2D
$IIRMC,220616.00,A,3754.31,N,12223.27,W,4.19,245,,015,E,N*07
$IIHDG,240,,,015,E*20
$IIVHW,255,T,240,M,0.00,N,0.00,K*51
$IIMWV,311,T,11.44,N,A*26
$IIRMC,220618.00,A,3754.31,N,12223.27,W,4.29,247,,015,E,N*08
$IIHDG,243,,,015,E*23
$IIVHW,255,T,240,M,0.00,N,0.00,K*51
$IIMWV,311,R,11.33,N,A*20
$IIRMC,220620.00,A,3754.31,N,12223.27,W,4.39,249,,015,E,N*0C
$IIHDG,243,,,015,E*23
$IIVHW,258,T,243,M,0.00,N,0.00,K*5F
$IIMWV,311,R,11.33,N,A*20
$IIRMC,220620.00,A,3754.31,N,12223.27,W,4.39,249,,015,E,N*0C
$IIHDG,243,,,015,E*23
$IIVHW,258,T,243,M,0.00,N,0.00,K*5F
$IIMWV,309,T,11.74,N,A*2C
$IIRMC,220622.00,A,3754.31,N,12223.28,W,4.39,252,,015,E,N*0B
$IIHDG,243,,,015,E*23
$IIVHW,258,T,243,M,0.00,N,0.00,K*5F
$IIMWV,309,R,11.70,N,A*2E
$IIRMC,220622.00,A,3754.31,N,12223.28,W,4.39,252,,015,E,N*0B
$IIHDG,243,,,015,E*23
$IIVHW,258,T,243,M,1.51,N,2.80,K*50
$IIMWV,309,R,11.70,N,A*2E
$IIRMC,220626.00,A,3754.31,N,12223.28,W,4.64,254,,015,E,N*01
$IIHDG,243,,,015,E*23
$IIVHW,258,T,243,M,2.79,N,5.18,K*5F
$IIMWV,292,T,10.22,N,A*2D
$IIRMC,220628.00,A,3754.31,N,12223.29,W,4.70,254,,015,E,N*0B
$IIHDG,243,,,015,E*23
$IIVHW,258,T,243,M,2.79,N,5.18,K*5F
$IIMWV,305,R,11.95,N,A*29
$IIRMC,220628.00,A,3754.31,N,12223.29,W,4.70,254,,015,E,N*0B
$IIHDG,243,,,015,E*23
$IIVHW,258,T,243,M,3.49,N,6.48,K*5B
$IIMWV,305,R,11.95,N,A*29
$IIRMC,220630.00,A,3754.31,N,12223.29,W,4.80,255,,015,E,N*0C
$IIHDG,243,,,015,E*23
$IIVHW,258,T,243,M,4.00,N,7.41,K*59
$IIMWV,286,T,10.34,N,A*2F
$IIRMC,220634.00,A,3754.31,N,12223.30,W,4.89,255,,015,E,N*09
$IIHDG,243,,,015,E*23
$IIVHW,258,T,243,M,4.31,N,7.99,K*5E
$IIMWV,305,R,12.71,N,A*20
$IIRMC,220636.00,A,3754.31,N,12223.30,W,5.09,254,,015,E,N*03
$IIHDG,244,,,015,E*24
$IIVHW,259,T,244,M,4.47,N,8.27,K*53
$IIMWV,287,T,10.57,N,A*2B
$IIRMC,220638.00,A,3754.31,N,12223.30,W,5.09,254,,015,E,N*0D
$IIHDG,245,,,015,E*25
$IIVHW,260,T,245,M,4.60,N,8.53,K*5E
$IIMWV,308,R,12.63,N,A*2E
$IIRMC,220640.00,A,3754.31,N,12223.31,W,5.09,254,,015,E,N*03
$IIHDG,243,,,015,E*23
$IIVHW,258,T,243,M,4.74,N,8.78,K*5F
$IIMWV,290,T,10.57,N,A*2D
$IIRMC,220644.00,A,3754.30,N,12223.31,W,5.19,254,,015,E,N*07
$IIHDG,244,,,015,E*24
$IIVHW,259,T,244,M,4.76,N,8.81,K*5D
$IIMWV,308,R,12.75,N,A*29
$IIRMC,220646.00,A,3754.30,N,12223.32,W,5.20,254,,015,E,N*0C
$IIHDG,245,,,015,E*25
$IIVHW,260,T,245,M,4.84,N,8.96,K*5D
$IIMWV,282,T,10.03,N,A*2F
$IIRMC,220648.00,A,3754.30,N,12223.32,W,5.20,254,,015,E,N*02
$IIHDG,244,,,015,E*24
$IIVHW,259,T,244,M,4.78,N,8.85,K*57
$IIMWV,311,R,12.01,N,A*22
$IIRMC,220650.00,A,3754.30,N,12223.32,W,5.20,255,,015,E,N*0A
$IIHDG,243,,,015,E*23
$IIVHW,258,T,243,M,4.68,N,8.67,K*5C
$IIMWV,298,T,9.40,N,A*1B
$IIRMC,220654.00,A,3754.30,N,12223.33,W,5.19,256,,015,E,N*06
$IIHDG,242,,,015,E*22
$IIVHW,257,T,242,M,4.70,N,8.71,K*5C
$IIMWV,316,R,11.95,N,A*2B
$IIRMC,220656.00,A,3754.30,N,12223.33,W,5.20,255,,015,E,N*0D
$IIHDG,240,,,015,E*20
$IIVHW,257,T,242,M,4.70,N,8.71,K*5C
$IIMWV,292,T,9.23,N,A*14
$IIRMC,220658.00,A,3754.30,N,12223.34,W,5.20,254,,015,E,N*05
$IIHDG,240,,,015,E*20
$IIVHW,255,T,240,M,4.58,N,8.49,K*5D
$IIMWV,292,T,9.23,N,A*14
$IIRMC,220658.00,A,3754.30,N,12223.34,W,5.20,254,,015,E,N*05
$IIHDG,240,,,015,E*20
$IIVHW,255,T,240,M,4.58,N,8.49,K*5D
$IIMWV,292,T,9.23,N,A*14
$IIRMC,220658.00,A,3754.30,N,12223.34,W,5.20,254,,015,E,N*05
$IIHDG,240,,,015,E*20
$IIVHW,256,T,241,M,4.60,N,8.53,K*5F
$IIMWV,313,R,11.46,N,A*20
$IIRMC,220702.00,A,3754.30,N,12223.34,W,5.20,254,,015,E,N*0B
$IIHDG,241,,,015,E*21
$IIVHW,256,T,241,M,4.74,N,8.78,K*53
$IIMWV,281,T,9.64,N,A*15
$IIRMC,220704.00,A,3754.30,N,12223.35,W,5.09,253,,015,E,N*00
$IIHDG,240,,,015,E*20
$IIVHW,256,T,241,M,4.74,N,8.78,K*53
$IIMWV,281,T,9.64,N,A*15
$IIRMC,220704.00,A,3754.30,N,12223.35,W,5.09,253,,015,E,N*00
$IIHDG,240,,,015,E*20
$IIVHW,255,T,240,M,4.82,N,8.92,K*5C
$IIMWV,304,R,12.07,N,A*20
$IIRMC,220706.00,A,3754.30,N,12223.35,W,5.20,254,,015,E,N*0E
$IIHDG,239,,,015,E*2E
$IIVHW,253,T,238,M,4.76,N,8.81,K*5C
$IIMWV,285,T,10.03,N,A*28
$IIRMC,220708.00,A,3754.30,N,12223.36,W,5.20,254,,015,E,N*03
$IIHDG,237,,,015,E*20
$IIVHW,251,T,236,M,4.91,N,9.10,K*50
$IIMWV,305,R,12.12,N,A*25
$IIRMC,220712.00,A,3754.29,N,12223.36,W,5.22,252,,015,E,N*04
$IIHDG,236,,,015,E*21
$IIVHW,251,T,236,M,4.85,N,9.00,K*54
$IIMWV,287,T,9.64,N,A*13
$IIRMC,220714.00,A,3754.29,N,12223.37,W,5.20,251,,015,E,N*02
$IIHDG,237,,,015,E*20
$IIVHW,252,T,237,M,4.87,N,9.03,K*57
$IIMWV,311,R,11.46,N,A*22
$IIRMC,220716.00,A,3754.29,N,12223.37,W,5.20,250,,015,E,N*01
$IIHDG,237,,,015,E*20
$IIVHW,252,T,237,M,4.87,N,9.03,K*57
$IIMWV,282,T,9.33,N,A*14
$IIRMC,220720.00,A,3754.29,N,12223.38,W,5.09,250,,015,E,N*00
$IIHDG,237,,,015,E*20
$IIVHW,252,T,237,M,4.97,N,9.21,K*56
$IIMWV,282,T,9.33,N,A*14
$IIRMC,220720.00,A,3754.29,N,12223.38,W,5.09,250,,015,E,N*00
$IIHDG,238,,,015,E*2F
$IIVHW,253,T,238,M,5.05,N,9.35,K*57
$IIMWV,307,R,11.19,N,A*2F
$IIRMC,220722.00,A,3754.29,N,12223.38,W,5.20,250,,015,E,N*09
$IIHDG,239,,,015,E*2E
$IIVHW,254,T,239,M,5.26,N,9.75,K*54
$IIMWV,285,T,8.76,N,A*13
$IIRMC,220724.00,A,3754.29,N,12223.38,W,5.30,250,,015,E,N*0E
$IIHDG,238,,,015,E*2F
$IIVHW,253,T,238,M,5.46,N,10.11,K*6E
$IIMWV,312,R,11.93,N,A*29
$IIRMC,220726.00,A,3754.28,N,12223.39,W,5.40,251,,015,E,N*0A
$IIHDG,240,,,015,E*20
$IIVHW,253,T,238,M,5.46,N,10.11,K*6E
$IIMWV,288,T,9.40,N,A*1A
$IIRMC,220726.00,A,3754.28,N,12223.39,W,5.40,251,,015,E,N*0A
$IIHDG,240,,,015,E*20
$IIVHW,256,T,241,M,5.55,N,10.29,K*6C
$IIMWV,288,T,9.40,N,A*1A
$IIRMC,220730.00,A,3754.28,N,12223.39,W,5.50,251,,015,E,N*0C
$IIHDG,244,,,015,E*24
$IIVHW,260,T,245,M,5.77,N,10.69,K*69
$IIMWV,304,R,12.12,N,A*24
$IIRMC,220732.00,A,3754.28,N,12223.40,W,5.69,251,,015,E,N*0A
$IIHDG,245,,,015,E*25
$IIVHW,260,T,245,M,5.77,N,10.69,K*69
$IIMWV,277,T,9.83,N,A*15
$IIRMC,220732.00,A,3754.28,N,12223.40,W,5.69,251,,015,E,N*0A
$IIHDG,245,,,015,E*25
$IIVHW,260,T,245,M,5.88,N,10.90,K*6F
$IIMWV,277,T,9.83,N,A*15
$IIRMC,220734.00,A,3754.28,N,12223.40,W,5.79,254,,015,E,N*08
$IIHDG,243,,,015,E*23
$IIVHW,257,T,242,M,6.02,N,11.15,K*61
$IIMWV,311,R,12.38,N,A*28
$IIRMC,220736.00,A,3754.28,N,12223.41,W,5.90,255,,015,E,N*0D
$IIHDG,241,,,015,E*21
$IIVHW,257,T,242,M,6.02,N,11.15,K*61
$IIMWV,285,T,9.87,N,A*1C
$IIRMC,220736.00,A,3754.28,N,12223.41,W,5.90,255,,015,E,N*0D
$IIHDG,241,,,015,E*21
$IIVHW,256,T,241,M,6.06,N,11.23,K*62
$IIMWV,285,T,9.87,N,A*1C
$IIRMC,220740.00,A,3754.28,N,12223.41,W,6.10,254,,015,E,N*06
$IIHDG,240,,,015,E*20
$IIVHW,255,T,240,M,6.10,N,11.30,K*65
$IIMWV,315,R,13.10,N,A*27
$IIRMC,220742.00,A,3754.28,N,12223.42,W,6.20,254,,015,E,N*04
$IIHDG,238,,,015,E*2F
$IIVHW,255,T,240,M,6.10,N,11.30,K*65
$IIMWV,315,R,13.10,N,A*27
$IIRMC,220742.00,A,3754.28,N,12223.42,W,6.20,254,,015,E,N*04
$IIHDG,238,,,015,E*2F
$IIVHW,253,T,238,M,6.12,N,11.34,K*6A
$IIMWV,295,T,9.42,N,A*14
$IIRMC,220744.00,A,3754.28,N,12223.42,W,6.20,254,,015,E,N*02
$IIHDG,236,,,015,E*21
$IIVHW,251,T,236,M,6.23,N,11.55,K*63
$IIMWV,323,R,13.45,N,A*22
$IIRMC,220748.00,A,3754.27,N,12223.43,W,6.20,253,,015,E,N*07
$IIHDG,234,,,015,E*23
$IIVHW,251,T,236,M,6.23,N,11.55,K*63
$IIMWV,323,R,13.45,N,A*22
$IIRMC,220748.00,A,3754.27,N,12223.43,W,6.20,253,,015,E,N*07
$IIHDG,234,,,015,E*23
$IIVHW,249,T,234,M,6.20,N,11.48,K*67
$IIMWV,301,T,9.60,N,A*18
$IIRMC,220750.00,A,3754.27,N,12223.44,W,6.29,250,,015,E,N*03
$IIHDG,232,,,015,E*25
$IIVHW,246,T,231,M,6.33,N,11.73,K*67
$IIMWV,329,R,13.35,N,A*2F
$IIRMC,220752.00,A,3754.27,N,12223.44,W,6.29,249,,015,E,N*09
$IIHDG,230,,,015,E*27
$IIVHW,245,T,230,M,6.27,N,11.62,K*60
$IIMWV,306,T,8.68,N,A*16
$IIRMC,220754.00,A,3754.27,N,12223.44,W,6.29,247,,015,E,N*01
$IIHDG,230,,,015,E*27
$IIVHW,245,T,230,M,6.27,N,11.62,K*60
$IIMWV,328,R,13.06,N,A*2E
$IIRMC,220758.00,A,3754.27,N,12223.45,W,6.16,245,,015,E,N*02
$IIHDG,227,,,015,E*21
$IIVHW,242,T,227,M,6.29,N,11.66,K*6B
$IIMWV,303,T,8.92,N,A*16
$IIRMC,220800.00,A,3754.26,N,12223.46,W,6.10,244,,015,E,N*05
$IIHDG,225,,,015,E*23
$IIVHW,240,T,225,M,6.12,N,11.34,K*64
$IIMWV,330,R,13.50,N,A*24
$IIRMC,220802.00,A,3754.26,N,12223.46,W,6.10,243,,015,E,N*00
$IIHDG,227,,,015,E*21
$IIVHW,242,T,227,M,6.06,N,11.23,K*67
$IIMWV,315,T,8.43,N,A*1D
$IIRMC,220806.00,A,3754.26,N,12223.47,W,6.10,239,,015,E,N*08
$IIHDG,228,,,015,E*2E
$IIVHW,242,T,227,M,6.06,N,11.23,K*67
$IIMWV,333,R,13.17,N,A*24
$IIRMC,220808.00,A,3754.26,N,12223.47,W,5.90,239,,015,E,N*0D
$IIHDG,228,,,015,E*2E
$IIVHW,243,T,228,M,6.04,N,11.19,K*62
$IIMWV,333,R,13.17,N,A*24
$IIRMC,220808.00,A,3754.26,N,12223.47,W,5.90,239,,015,E,N*0D
$IIHDG,228,,,015,E*2E
$IIVHW,243,T,228,M,6.14,N,11.37,K*6F
$IIMWV,313,T,8.30,N,A*1F
$IIRMC,220810.00,A,3754.26,N,12223.47,W,5.90,239,,015,E,N*04
$IIHDG,227,,,015,E*21
$IIVHW,241,T,226,M,6.08,N,11.26,K*6E
$IIMWV,335,R,13.19,N,A*2C
$IIRMC,220812.00,A,3754.25,N,12223.48,W,5.79,239,,015,E,N*0D
$IIHDG,224,,,015,E*22
$IIVHW,238,T,223,M,5.85,N,10.83,K*6D
$IIMWV,320,T,8.86,N,A*12
$IIRMC,220816.00,A,3754.25,N,12223.48,W,5.79,240,,015,E,N*07
$IIHDG,222,,,015,E*24
$IIVHW,238,T,223,M,5.85,N,10.83,K*6D
$IIMWV,339,R,13.64,N,A*2A
$IIRMC,220816.00,A,3754.25,N,12223.48,W,5.79,240,,015,E,N*07
$IIHDG,222,,,015,E*24
$IIVHW,237,T,222,M,5.65,N,10.47,K*65
$IIMWV,339,R,13.64,N,A*2A
$IIRMC,220818.00,A,3754.25,N,12223.49,W,5.59,238,,015,E,N*05
$IIHDG,221,,,015,E*27
$IIVHW,236,T,221,M,5.48,N,10.15,K*6F
$IIMWV,330,T,8.35,N,A*1B
$IIRMC,220820.00,A,3754.25,N,12223.49,W,5.50,236,,015,E,N*09
$IIHDG,221,,,015,E*27
$IIVHW,236,T,221,M,5.48,N,10.15,K*6F
$IIMWV,340,R,12.84,N,A*2B
$IIRMC,220820.00,A,3754.25,N,12223.49,W,5.50,236,,015,E,N*09
$IIHDG,221,,,015,E*27
$IIVHW,236,T,221,M,5.48,N,10.15,K*6F
$IIMWV,340,R,12.84,N,A*2B
$IIRMC,220822.00,A,3754.25,N,12223.49,W,5.40,235,,015,E,N*09
$IIHDG,221,,,015,E*27
$IIVHW,236,T,221,M,5.38,N,9.97,K*5A
$IIMWV,328,T,7.44,N,A*1B
$IIRMC,220826.00,A,3754.24,N,12223.50,W,5.22,236,,015,E,N*03
$IIHDG,220,,,015,E*26
$IIVHW,236,T,221,M,5.38,N,9.97,K*5A
$IIMWV,338,R,12.20,N,A*2A
$IIRMC,220828.00,A,3754.24,N,12223.50,W,5.20,235,,015,E,N*0C
$IIHDG,220,,,015,E*26
$IIVHW,235,T,220,M,5.28,N,9.79,K*59
$IIMWV,338,R,12.20,N,A*2A
$IIRMC,220828.00,A,3754.24,N,12223.50,W,5.20,235,,015,E,N*0C
$IIHDG,220,,,015,E*26
$IIVHW,235,T,220,M,5.13,N,9.50,K*5A
$IIMWV,324,T,7.77,N,A*17
$IIRMC,220830.00,A,3754.24,N,12223.50,W,5.09,235,,015,E,N*0E
$IIHDG,220,,,015,E*26
$IIVHW,235,T,220,M,5.13,N,9.50,K*5A
$IIMWV,340,R,12.59,N,A*2B
$IIRMC,220830.00,A,3754.24,N,12223.50,W,5.09,235,,015,E,N*0E
$IIHDG,220,,,015,E*26
$IIVHW,235,T,220,M,5.07,N,9.39,K*50
$IIMWV,340,R,12.59,N,A*2B
$IIRMC,220834.00,A,3754.24,N,12223.51,W,4.99,235,,015,E,N*03
$IIHDG,220,,,015,E*26
$IIVHW,235,T,220,M,4.99,N,9.25,K*5B
$IIMWV,326,T,8.49,N,A*17
$IIRMC,220836.00,A,3754.24,N,12223.51,W,4.99,235,,015,E,N*01
$IIHDG,222,,,015,E*24
$IIVHW,235,T,220,M,4.99,N,9.25,K*5B
$IIMWV,336,R,12.65,N,A*25
$IIRMC,220836.00,A,3754.24,N,12223.51,W,4.99,235,,015,E,N*01
$IIHDG,222,,,015,E*24
$IIVHW,238,T,223,M,4.95,N,9.18,K*57
$IIMWV,336,R,12.65,N,A*25
$IIRMC,220838.00,A,3754.24,N,12223.51,W,4.89,235,,015,E,N*0E
$IIHDG,223,,,015,E*25
$IIVHW,238,T,223,M,4.85,N,9.00,K*5F
$IIMWV,324,T,8.33,N,A*18
$IIRMC,220840.00,A,3754.23,N,12223.52,W,4.89,237,,015,E,N*07
$IIHDG,224,,,015,E*22
$IIVHW,238,T,223,M,4.85,N,9.00,K*5F
$IIMWV,335,R,13.19,N,A*2C
$IIRMC,220840.00,A,3754.23,N,12223.52,W,4.89,237,,015,E,N*07
$IIHDG,224,,,015,E*22
$IIVHW,239,T,224,M,4.74,N,8.78,K*59
$IIMWV,335,R,13.19,N,A*2C
$IIRMC,220844.00,A,3754.23,N,12223.52,W,4.91,242,,015,E,N*08
$IIHDG,224,,,015,E*22
$IIVHW,239,T,224,M,4.84,N,8.96,K*56
$IIMWV,323,T,9.15,N,A*1A
$IIRMC,220846.00,A,3754.23,N,12223.53,W,4.89,245,,015,E,N*05
$IIHDG,222,,,015,E*24
$IIVHW,239,T,224,M,4.84,N,8.96,K*56
$IIMWV,334,R,13.33,N,A*25
$IIRMC,220846.00,A,3754.23,N,12223.53,W,4.89,245,,015,E,N*05
$IIHDG,222,,,015,E*24
$IIVHW,236,T,221,M,4.87,N,9.03,K*52
$IIMWV,334,R,13.33,N,A*25
$IIRMC,220848.00,A,3754.23,N,12223.53,W,4.99,247,,015,E,N*08
$IIHDG,218,,,015,E*2D
$IIVHW,233,T,218,M,4.85,N,9.00,K*5C
$IIMWV,326,T,9.27,N,A*1E
$IIRMC,220852.00,A,3754.23,N,12223.54,W,4.99,248,,015,E,N*0B
$IIHDG,220,,,015,E*26
$IIVHW,233,T,218,M,4.85,N,9.00,K*5C
$IIMWV,326,T,9.27,N,A*1E
$IIRMC,220852.00,A,3754.23,N,12223.54,W,4.99,248,,015,E,N*0B
$IIHDG,220,,,015,E*26
$IIVHW,235,T,220,M,4.84,N,8.96,K*5E
$IIMWV,338,R,13.04,N,A*2D
$IIRMC,220854.00,A,3754.23,N,12223.54,W,4.89,245,,015,E,N*01
$IIHDG,222,,,015,E*24
$IIVHW,237,T,222,M,4.87,N,9.03,K*50
$IIMWV,325,T,8.49,N,A*14
$IIRMC,220856.00,A,3754.23,N,12223.55,W,4.89,246,,015,E,N*01
$IIHDG,221,,,015,E*27
$IIVHW,236,T,221,M,4.95,N,9.18,K*5B
$IIMWV,338,R,13.29,N,A*22
$IIRMC,220858.00,A,3754.23,N,12223.55,W,4.89,247,,015,E,N*0E
$IIHDG,223,,,015,E*25
$IIVHW,238,T,223,M,5.17,N,9.57,K*57
$IIMWV,321,T,8.39,N,A*17
$IIRMC,220902.00,A,3754.22,N,12223.55,W,4.99,247,,015,E,N*00
$IIHDG,223,,,015,E*25
$IIVHW,238,T,223,M,5.48,N,10.15,K*63
$IIMWV,336,R,13.33,N,A*27
$IIRMC,220904.00,A,3754.22,N,12223.56,W,5.20,247,,015,E,N*06
$IIHDG,222,,,015,E*24
$IIVHW,238,T,223,M,5.48,N,10.15,K*63
$IIMWV,320,T,8.43,N,A*1B
$IIRMC,220904.00,A,3754.22,N,12223.56,W,5.20,247,,015,E,N*06
$IIHDG,222,,,015,E*24
$IIVHW,237,T,222,M,5.69,N,10.54,K*6B
$IIMWV,320,T,8.43,N,A*1B
$IIRMC,220906.00,A,3754.22,N,12223.56,W,5.40,247,,015,E,N*02
$IIHDG,222,,,015,E*24
$IIVHW,237,T,222,M,5.67,N,10.51,K*60
$IIMWV,336,R,13.45,N,A*26
$IIRMC,220908.00,A,3754.22,N,12223.57,W,5.50,246,,015,E,N*0D
$IIHDG,223,,,015,E*25
$IIVHW,237,T,222,M,5.67,N,10.51,K*60
$IIMWV,321,T,8.47,N,A*1E
$IIRMC,220912.00,A,3754.22,N,12223.57,W,5.46,245,,015,E,N*02
$IIHDG,223,,,015,E*25
$IIVHW,238,T,223,M,5.65,N,10.47,K*6B
$IIMWV,321,T,8.47,N,A*1E
$IIRMC,220912.00,A,3754.22,N,12223.57,W,5.46,245,,015,E,N*02
$IIHDG,223,,,015,E*25
$IIVHW,238,T,223,M,5.59,N,10.36,K*62
$IIMWV,340,R,13.21,N,A*25
$IIRMC,220914.00,A,3754.22,N,12223.58,W,5.50,246,,015,E,N*0F
$IIHDG,221,,,015,E*27
$IIVHW,238,T,223,M,5.59,N,10.36,K*62
$IIMWV,324,T,8.37,N,A*1C
$IIRMC,220914.00,A,3754.22,N,12223.58,W,5.50,246,,015,E,N*0F
$IIHDG,221,,,015,E*27
$IIVHW,236,T,221,M,5.57,N,10.33,K*65
$IIMWV,324,T,8.37,N,A*1C
$IIRMC,220916.00,A,3754.21,N,12223.58,W,5.50,246,,015,E,N*0E
$IIHDG,219,,,015,E*2C
$IIVHW,234,T,219,M,5.65,N,10.47,K*6E
$IIMWV,339,R,13.52,N,A*2F
$IIRMC,220920.00,A,3754.21,N,12223.59,W,5.50,246,,015,E,N*0A
$IIHDG,219,,,015,E*2C
$IIVHW,234,T,219,M,5.65,N,10.47,K*6E
$IIMWV,327,T,8.76,N,A*1A
$IIRMC,220920.00,A,3754.21,N,12223.59,W,5.50,246,,015,E,N*0A
$IIHDG,219,,,015,E*2C
$IIVHW,234,T,219,M,5.52,N,10.22,K*69
$IIMWV,327,T,8.76,N,A*1A
$IIRMC,220922.00,A,3754.21,N,12223.59,W,5.40,243,,015,E,N*0C
$IIHDG,222,,,015,E*24
$IIVHW,238,T,223,M,5.50,N,10.18,K*67
$IIMWV,341,R,12.92,N,A*2D
$IIRMC,220924.00,A,3754.21,N,12223.59,W,5.30,241,,015,E,N*0F
$IIHDG,224,,,015,E*22
$IIVHW,238,T,223,M,5.50,N,10.18,K*67
$IIMWV,341,R,12.92,N,A*2D
$IIRMC,220924.00,A,3754.21,N,12223.59,W,5.30,241,,015,E,N*0F
$IIHDG,224,,,015,E*22
$IIVHW,239,T,224,M,5.38,N,9.97,K*50
$IIMWV,324,T,8.49,N,A*15
$IIRMC,220926.00,A,3754.21,N,12223.60,W,5.30,243,,015,E,N*05
$IIHDG,226,,,015,E*20
$IIVHW,241,T,226,M,5.48,N,10.15,K*68
$IIMWV,336,R,13.23,N,A*26
$IIRMC,220930.00,A,3754.21,N,12223.60,W,5.34,246,,015,E,N*03
$IIHDG,225,,,015,E*23
$IIVHW,241,T,226,M,5.48,N,10.15,K*68
$IIMWV,319,T,8.33,N,A*16
$IIRMC,220930.00,A,3754.21,N,12223.60,W,5.34,246,,015,E,N*03
$IIHDG,225,,,015,E*23
$IIVHW,240,T,225,M,5.44,N,10.07,K*65
$IIMWV,319,T,8.33,N,A*16
$IIRMC,220932.00,A,3754.20,N,12223.61,W,5.40,248,,015,E,N*0C
$IIHDG,225,,,015,E*23
$IIVHW,239,T,224,M,5.52,N,10.22,K*6A
$IIMWV,335,R,13.84,N,A*28
$IIRMC,220934.00,A,3754.20,N,12223.61,W,5.50,248,,015,E,N*0B
$IIHDG,224,,,015,E*22
$IIVHW,239,T,224,M,5.71,N,10.58,K*66
$IIMWV,321,T,8.72,N,A*18
$IIRMC,220938.00,A,3754.20,N,12223.62,W,5.59,248,,015,E,N*0D
$IIHDG,224,,,015,E*22
$IIVHW,239,T,224,M,5.85,N,10.83,K*6B
$IIMWV,339,R,14.15,N,A*2B
$IIRMC,220940.00,A,3754.20,N,12223.62,W,5.69,246,,015,E,N*0F
$IIHDG,226,,,015,E*20
$IIVHW,239,T,224,M,5.85,N,10.83,K*6B
$IIMWV,339,R,14.15,N,A*2B
$IIRMC,220940.00,A,3754.20,N,12223.62,W,5.69,246,,015,E,N*0F
$IIHDG,226,,,015,E*20
$IIVHW,241,T,226,M,5.98,N,11.08,K*68
$IIMWV,327,T,8.14,N,A*1E
$IIRMC,220942.00,A,3754.20,N,12223.63,W,5.69,246,,015,E,N*0C
$IIHDG,226,,,015,E*20
$IIVHW,241,T,226,M,5.92,N,10.97,K*65
$IIMWV,340,R,13.76,N,A*27
$IIRMC,220944.00,A,3754.20,N,12223.63,W,5.79,247,,015,E,N*0A
$IIHDG,225,,,015,E*23
$IIVHW,240,T,225,M,5.87,N,10.87,K*62
$IIMWV,324,T,7.98,N,A*16
$IIRMC,220948.00,A,3754.19,N,12223.64,W,5.88,248,,015,E,N*0A
$IIHDG,225,,,015,E*23
$IIVHW,240,T,225,M,6.00,N,11.12,K*63
$IIMWV,339,R,12.98,N,A*28
$IIRMC,220950.00,A,3754.19,N,12223.64,W,5.90,247,,015,E,N*05
$IIHDG,224,,,015,E*22
$IIVHW,240,T,225,M,6.00,N,11.12,K*63
$IIMWV,339,R,12.98,N,A*28
$IIRMC,220950.00,A,3754.19,N,12223.64,W,5.90,247,,015,E,N*05
$IIHDG,224,,,015,E*22
$IIVHW,239,T,224,M,5.94,N,11.01,K*60
$IIMWV,320,T,7.89,N,A*12
$IIRMC,220952.00,A,3754.19,N,12223.64,W,5.90,247,,015,E,N*07
$IIHDG,223,,,015,E*25
$IIVHW,239,T,224,M,5.96,N,11.05,K*66
$IIMWV,334,R,13.08,N,A*2D
$IIRMC,220954.00,A,3754.19,N,12223.65,W,5.90,247,,015,E,N*00
$IIHDG,225,,,015,E*23
$IIVHW,240,T,225,M,5.96,N,11.05,K*69
$IIMWV,319,T,7.54,N,A*18
$IIRMC,220958.00,A,3754.19,N,12223.66,W,5.94,245,,015,E,N*09
$IIHDG,227,,,015,E*21
$IIVHW,241,T,226,M,6.06,N,11.23,K*65
$IIMWV,337,R,12.49,N,A*2A
$IIRMC,221000.00,A,3754.19,N,12223.66,W,6.00,246,,015,E,N*01
$IIHDG,224,,,015,E*22
$IIVHW,239,T,224,M,6.10,N,11.30,K*6D
$IIMWV,315,T,7.83,N,A*1E
$IIRMC,221002.00,A,3754.18,N,12223.66,W,6.00,247,,015,E,N*03
$IIHDG,222,,,015,E*24
$IIVHW,239,T,224,M,6.10,N,11.30,K*6D
$IIMWV,335,R,12.79,N,A*2B
$IIRMC,221006.00,A,3754.18,N,12223.67,W,6.10,247,,015,E,N*07
$IIHDG,222,,,015,E*24
$IIVHW,237,T,222,M,6.16,N,11.41,K*65
$IIMWV,335,R,12.79,N,A*2B
$IIRMC,221006.00,A,3754.18,N,12223.67,W,6.10,247,,015,E,N*07
$IIHDG,224,,,015,E*22
$IIVHW,239,T,224,M,6.20,N,11.48,K*61
$IIMWV,315,T,7.19,N,A*1D
$IIRMC,221008.00,A,3754.18,N,12223.68,W,6.00,244,,015,E,N*04
$IIHDG,225,,,015,E*23
$IIVHW,240,T,225,M,6.16,N,11.41,K*62
$IIMWV,336,R,12.18,N,A*2F
$IIRMC,221010.00,A,3754.18,N,12223.68,W,6.00,244,,015,E,N*0D
$IIHDG,226,,,015,E*20
$IIVHW,241,T,226,M,6.18,N,11.44,K*6B
$IIMWV,309,T,7.40,N,A*1C
$IIRMC,221012.00,A,3754.18,N,12223.68,W,6.10,244,,015,E,N*0E
$IIHDG,227,,,015,E*21
$IIVHW,242,T,227,M,6.20,N,11.48,K*6E
$IIMWV,332,R,12.28,N,A*28
$IIRMC,221016.00,A,3754.17,N,12223.69,W,6.10,245,,015,E,N*05
$IIHDG,228,,,015,E*2E
$IIVHW,243,T,228,M,6.10,N,11.30,K*6C
$IIMWV,307,T,7.21,N,A*15
$IIRMC,221018.00,A,3754.17,N,12223.70,W,6.10,246,,015,E,N*00
$IIHDG,230,,,015,E*27
$IIVHW,243,T,228,M,6.10,N,11.30,K*6C
$IIMWV,330,R,12.01,N,A*21
$IIRMC,221018.00,A,3754.17,N,12223.70,W,6.10,246,,015,E,N*00
$IIHDG,230,,,015,E*27
$IIVHW,245,T,230,M,6.14,N,11.37,K*60
$IIMWV,330,R,12.01,N,A*21
$IIRMC,221020.00,A,3754.17,N,12223.70,W,6.10,247,,015,E,N*0A
$IIHDG,232,,,015,E*25
$IIVHW,247,T,232,M,6.16,N,11.41,K*63
$IIMWV,310,T,7.34,N,A*17
$IIRMC,221024.00,A,3754.17,N,12223.71,W,6.10,248,,015,E,N*00
$IIHDG,232,,,015,E*25
$IIVHW,247,T,232,M,6.16,N,11.41,K*63
$IIMWV,330,R,12.22,N,A*20
$IIRMC,221026.00,A,3754.17,N,12223.71,W,6.20,251,,015,E,N*09
$IIHDG,232,,,015,E*25
$IIVHW,247,T,232,M,6.08,N,11.26,K*6D
$IIMWV,330,R,12.22,N,A*20
$IIRMC,221026.00,A,3754.17,N,12223.71,W,6.20,251,,015,E,N*09
$IIHDG,233,,,015,E*24
$IIVHW,248,T,233,M,6.14,N,11.37,K*6E
$IIMWV,309,T,7.54,N,A*19
$IIRMC,221028.00,A,3754.17,N,12223.72,W,6.20,252,,015,E,N*07
$IIHDG,234,,,015,E*23
$IIVHW,248,T,233,M,6.14,N,11.37,K*6E
$IIMWV,333,R,12.61,N,A*24
$IIRMC,221028.00,A,3754.17,N,12223.72,W,6.20,252,,015,E,N*07
$IIHDG,234,,,015,E*23
$IIVHW,249,T,234,M,6.25,N,11.59,K*62
$IIMWV,333,R,12.61,N,A*24
$IIRMC,221030.00,A,3754.17,N,12223.72,W,6.20,253,,015,E,N*0F
$IIHDG,233,,,015,E*24
$IIVHW,248,T,233,M,6.29,N,11.66,K*64
$IIMWV,313,T,7.63,N,A*16
$IIRMC,221034.00,A,3754.17,N,12223.73,W,6.29,254,,015,E,N*04
$IIHDG,233,,,015,E*24
$IIVHW,248,T,233,M,6.29,N,11.66,K*64
$IIMWV,331,R,12.42,N,A*27
$IIRMC,221034.00,A,3754.17,N,12223.73,W,6.29,254,,015,E,N*04
$IIHDG,233,,,015,E*24
$IIVHW,248,T,233,M,6.27,N,11.62,K*6E
$IIMWV,331,R,12.42,N,A*27
$IIRMC,221036.00,A,3754.17,N,12223.73,W,6.49,254,,015,E,N*00
$IIHDG,234,,,015,E*23
$IIVHW,249,T,234,M,6.33,N,11.73,K*6D
$IIMWV,306,T,7.60,N,A*11
$IIRMC,221038.00,A,3754.16,N,12223.74,W,6.49,253,,015,E,N*0F
$IIHDG,234,,,015,E*23
$IIVHW,249,T,234,M,6.33,N,11.73,K*6D
$IIMWV,306,T,7.60,N,A*11
$IIRMC,221038.00,A,3754.16,N,12223.74,W,6.49,253,,015,E,N*0F
$IIHDG,234,,,015,E*23
$IIVHW,249,T,234,M,6.43,N,11.91,K*66
$IIMWV,330,R,12.12,N,A*23
$IIRMC,221040.00,A,3754.16,N,12223.74,W,6.49,254,,015,E,N*07
$IIHDG,232,,,015,E*25
$IIVHW,246,T,231,M,6.53,N,12.09,K*6F
$IIMWV,301,T,7.54,N,A*11
$IIRMC,221044.00,A,3754.16,N,12223.75,W,6.64,254,,015,E,N*0D
$IIHDG,229,,,015,E*2F
$IIVHW,246,T,231,M,6.53,N,12.09,K*6F
$IIMWV,301,T,7.54,N,A*11
$IIRMC,221044.00,A,3754.16,N,12223.75,W,6.64,254,,015,E,N*0D
$IIHDG,229,,,015,E*2F
$IIVHW,243,T,228,M,6.47,N,11.98,K*6C
$IIMWV,332,R,13.14,N,A*26
$IIRMC,221046.00,A,3754.16,N,12223.76,W,6.60,254,,015,E,N*08
$IIHDG,226,,,015,E*20
$IIVHW,243,T,228,M,6.47,N,11.98,K*6C
$IIMWV,332,R,13.14,N,A*26
$IIRMC,221046.00,A,3754.16,N,12223.76,W,6.60,254,,015,E,N*08
$IIHDG,226,,,015,E*20
$IIVHW,241,T,226,M,6.43,N,11.91,K*6D
$IIMWV,313,T,8.37,N,A*18
$IIRMC,221048.00,A,3754.16,N,12223.76,W,6.60,252,,015,E,N*00
$IIHDG,224,,,015,E*22
$IIVHW,241,T,226,M,6.43,N,11.91,K*6D
$IIMWV,313,T,8.37,N,A*18
$IIRMC,221048.00,A,3754.16,N,12223.76,W,6.60,252,,015,E,N*00
$IIHDG,224,,,015,E*22
$IIVHW,239,T,224,M,6.45,N,11.95,K*62
$IIMWV,332,R,13.60,N,A*25
$IIRMC,221052.00,A,3754.16,N,12223.77,W,6.60,250,,015,E,N*08
$IIHDG,224,,,015,E*22
$IIVHW,239,T,224,M,6.45,N,11.95,K*62
$IIMWV,314,T,8.18,N,A*12
$IIRMC,221054.00,A,3754.15,N,12223.77,W,6.49,246,,015,E,N*01
$IIHDG,225,,,015,E*23
$IIVHW,239,T,224,M,6.45,N,11.95,K*62
$IIMWV,314,T,8.18,N,A*12
$IIRMC,221054.00,A,3754.15,N,12223.77,W,6.49,246,,015,E,N*01
$IIHDG,225,,,015,E*23
$IIVHW,240,T,225,M,6.45,N,11.95,K*6D
$IIMWV,334,R,13.70,N,A*22
$IIRMC,221056.00,A,3754.15,N,12223.78,W,6.39,246,,015,E,N*0B
$IIHDG,223,,,015,E*25
$IIVHW,238,T,223,M,6.43,N,11.91,K*66
$IIMWV,317,T,8.65,N,A*1B
$IIRMC,221058.00,A,3754.15,N,12223.78,W,6.39,246,,015,E,N*05
$IIHDG,222,,,015,E*24
$IIVHW,237,T,222,M,6.51,N,12.06,K*66
$IIMWV,336,R,13.70,N,A*20
$IIRMC,221102.00,A,3754.15,N,12223.79,W,6.31,245,,015,E,N*01
$IIHDG,222,,,015,E*24
$IIVHW,237,T,222,M,6.47,N,11.98,K*65
$IIMWV,316,T,8.66,N,A*19
$IIRMC,221104.00,A,3754.15,N,12223.79,W,6.29,244,,015,E,N*0F
$IIHDG,223,,,015,E*25
$IIVHW,237,T,222,M,6.47,N,11.98,K*65
$IIMWV,335,R,14.05,N,A*26
$IIRMC,221104.00,A,3754.15,N,12223.79,W,6.29,244,,015,E,N*0F
$IIHDG,223,,,015,E*25
$IIVHW,238,T,223,M,6.43,N,11.91,K*66
$IIMWV,335,R,14.05,N,A*26
$IIRMC,221106.00,A,3754.15,N,12223.80,W,6.29,243,,015,E,N*0C
$IIHDG,223,,,015,E*25
$IIVHW,238,T,223,M,6.53,N,12.09,K*65
$IIMWV,318,T,8.57,N,A*15
$IIRMC,221110.00,A,3754.14,N,12223.80,W,6.29,244,,015,E,N*0D
$IIHDG,221,,,015,E*27
$IIVHW,238,T,223,M,6.53,N,12.09,K*65
$IIMWV,318,T,8.57,N,A*15
$IIRMC,221110.00,A,3754.14,N,12223.80,W,6.29,244,,015,E,N*0D
$IIHDG,221,,,015,E*27
$IIVHW,237,T,222,M,6.45,N,11.95,K*6A
$IIMWV,334,R,14.38,N,A*29
$IIRMC,221112.00,A,3754.14,N,12223.81,W,6.20,244,,015,E,N*07
$IIHDG,223,,,015,E*25
$IIVHW,238,T,223,M,6.43,N,11.91,K*66
$IIMWV,316,T,8.61,N,A*1E
$IIRMC,221114.00,A,3754.14,N,12223.81,W,6.20,243,,015,E,N*06
$IIHDG,223,,,015,E*25
$IIVHW,238,T,223,M,6.45,N,11.95,K*64
$IIMWV,335,R,14.01,N,A*22
$IIRMC,221116.00,A,3754.14,N,12223.82,W,6.10,244,,015,E,N*03
$IIHDG,224,,,015,E*22
$IIVHW,239,T,224,M,6.53,N,12.09,K*63
$IIMWV,317,T,8.49,N,A*15
$IIRMC,221120.00,A,3754.13,N,12223.82,W,6.10,245,,015,E,N*00
$IIHDG,223,,,015,E*25
$IIVHW,238,T,223,M,6.57,N,12.16,K*6F
$IIMWV,336,R,14.09,N,A*29
$IIRMC,221122.00,A,3754.13,N,12223.83,W,6.10,246,,015,E,N*00
$IIHDG,224,,,015,E*22
$IIVHW,238,T,223,M,6.57,N,12.16,K*6F
$IIMWV,316,T,8.61,N,A*1E
$IIRMC,221122.00,A,3754.13,N,12223.83,W,6.10,246,,015,E,N*00
$IIHDG,224,,,015,E*22
$IIVHW,239,T,224,M,6.66,N,12.34,K*6B
$IIMWV,316,T,8.61,N,A*1E
$IIRMC,221124.00,A,3754.13,N,12223.83,W,6.20,245,,015,E,N*06
$IIHDG,225,,,015,E*23
$IIVHW,240,T,225,M,6.64,N,12.31,K*63
$IIMWV,334,R,13.85,N,A*28
$IIRMC,221126.00,A,3754.13,N,12223.84,W,6.20,245,,015,E,N*03
$IIHDG,225,,,015,E*23
$IIVHW,240,T,225,M,6.64,N,12.31,K*63
$IIMWV,316,T,8.31,N,A*1B
$IIRMC,221130.00,A,3754.13,N,12223.84,W,6.16,246,,015,E,N*02
$IIHDG,225,,,015,E*23
$IIVHW,240,T,225,M,6.62,N,12.27,K*62
$IIMWV,316,T,8.31,N,A*1B
$IIRMC,221130.00,A,3754.13,N,12223.84,W,6.16,246,,015,E,N*02
$IIHDG,225,,,015,E*23
$IIVHW,240,T,225,M,6.58,N,12.20,K*6C
$IIMWV,335,R,14.01,N,A*22
$IIRMC,221132.00,A,3754.13,N,12223.85,W,6.20,246,,015,E,N*04
$IIHDG,226,,,015,E*20
$IIVHW,240,T,225,M,6.58,N,12.20,K*6C
$IIMWV,312,T,7.58,N,A*1F
$IIRMC,221134.00,A,3754.12,N,12223.85,W,6.10,246,,015,E,N*00
$IIHDG,226,,,015,E*20
$IIVHW,241,T,226,M,6.68,N,12.38,K*64
$IIMWV,312,T,7.58,N,A*1F
$IIRMC,221134.00,A,3754.12,N,12223.85,W,6.10,246,,015,E,N*00
$IIHDG,229,,,015,E*2F
$IIVHW,244,T,229,M,6.62,N,12.27,K*6A
$IIMWV,333,R,13.02,N,A*20
$IIRMC,221138.00,A,3754.12,N,12223.86,W,6.10,246,,015,E,N*0F
$IIHDG,231,,,015,E*26
$IIVHW,246,T,231,M,6.57,N,12.16,K*65
$IIMWV,309,T,7.54,N,A*19
$IIRMC,221140.00,A,3754.12,N,12223.86,W,6.10,249,,015,E,N*0F
$IIHDG,230,,,015,E*27
$IIVHW,245,T,230,M,6.72,N,12.45,K*66
$IIMWV,333,R,12.67,N,A*22
$IIRMC,221142.00,A,3754.12,N,12223.87,W,6.20,251,,015,E,N*06
$IIHDG,230,,,015,E*27
$IIVHW,245,T,230,M,6.72,N,12.45,K*66
$IIMWV,300,T,7.38,N,A*1A
$IIRMC,221142.00,A,3754.12,N,12223.87,W,6.20,251,,015,E,N*06
$IIHDG,230,,,015,E*27
$IIVHW,245,T,230,M,6.78,N,12.56,K*6E
$IIMWV,300,T,7.38,N,A*1A
$IIRMC,221144.00,A,3754.12,N,12223.87,W,6.20,252,,015,E,N*03
$IIHDG,228,,,015,E*2E
$IIVHW,243,T,228,M,6.70,N,12.42,K*6C
$IIMWV,331,R,13.08,N,A*28
$IIRMC,221148.00,A,3754.12,N,12223.88,W,6.31,251,,015,E,N*03
$IIHDG,228,,,015,E*2E
$IIVHW,243,T,228,M,6.70,N,12.42,K*6C
$IIMWV,299,T,7.95,N,A*1C
$IIRMC,221148.00,A,3754.12,N,12223.88,W,6.31,251,,015,E,N*03
$IIHDG,228,,,015,E*2E
$IIVHW,243,T,228,M,6.88,N,12.74,K*6E
$IIMWV,299,T,7.95,N,A*1C
$IIRMC,221150.00,A,3754.12,N,12223.88,W,6.29,251,,015,E,N*03
$IIHDG,229,,,015,E*2F
$IIVHW,243,T,228,M,6.88,N,12.74,K*6E
$IIMWV,330,R,12.63,N,A*25
$IIRMC,221152.00,A,3754.11,N,12223.89,W,6.29,250,,015,E,N*02
$IIHDG,229,,,015,E*2F
$IIVHW,244,T,229,M,6.84,N,12.67,K*66
$IIMWV,330,R,12.63,N,A*25
$IIRMC,221152.00,A,3754.11,N,12223.89,W,6.29,250,,015,E,N*02
$IIHDG,229,,,015,E*2F
$IIVHW,244,T,229,M,6.84,N,12.67,K*66
$IIMWV,308,T,7.93,N,A*13
$IIRMC,221152.00,A,3754.11,N,12223.89,W,6.29,250,,015,E,N*02
$IIHDG,229,,,015,E*2F
$IIVHW,244,T,229,M,6.70,N,12.42,K*6A
$IIMWV,308,T,7.93,N,A*13
$IIRMC,221152.00,A,3754.11,N,12223.89,W,6.29,250,,015,E,N*02
$IIHDG,232,,,015,E*25
$IIVHW,248,T,233,M,6.66,N,12.34,K*6B
$IIMWV,326,R,12.94,N,A*2A
$IIRMC,221158.00,A,3754.11,N,12223.90,W,6.29,250,,015,E,N*00
$IIHDG,233,,,015,E*24
$IIVHW,248,T,233,M,6.66,N,12.34,K*6B
$IIMWV,306,T,8.26,N,A*1C
$IIRMC,221158.00,A,3754.11,N,12223.90,W,6.29,250,,015,E,N*00
$IIHDG,233,,,015,E*24
$IIVHW,248,T,233,M,6.70,N,12.42,K*6D
$IIMWV,306,T,8.26,N,A*1C
$IIRMC,221200.00,A,3754.11,N,12223.91,W,6.39,252,,015,E,N*0C
$IIHDG,232,,,015,E*25
$IIVHW,247,T,232,M,6.82,N,12.63,K*6D
$IIMWV,331,R,13.70,N,A*27
$IIRMC,221202.00,A,3754.11,N,12223.91,W,6.39,253,,015,E,N*0F
$IIHDG,231,,,015,E*26
$IIVHW,246,T,231,M,6.82,N,12.63,K*6F
$IIMWV,310,T,8.24,N,A*19
$IIRMC,221206.00,A,3754.11,N,12223.92,W,6.49,254,,015,E,N*08
$IIHDG,231,,,015,E*26
$IIVHW,246,T,231,M,6.90,N,12.77,K*69
$IIMWV,333,R,13.45,N,A*23
$IIRMC,221208.00,A,3754.11,N,12223.92,W,6.49,253,,015,E,N*01
$IIHDG,234,,,015,E*23
$IIVHW,249,T,234,M,6.92,N,12.81,K*68
$IIMWV,302,T,7.83,N,A*18
$IIRMC,221210.00,A,3754.10,N,12223.93,W,6.49,253,,015,E,N*08
$IIHDG,235,,,015,E*22
$IIVHW,250,T,235,M,7.01,N,12.99,K*63
$IIMWV,329,R,12.79,N,A*26
$IIRMC,221212.00,A,3754.10,N,12223.93,W,6.49,254,,015,E,N*0D
$IIHDG,235,,,015,E*22
$IIVHW,250,T,235,M,6.93,N,12.85,K*64
$IIMWV,295,T,7.71,N,A*1A
$IIRMC,221216.00,A,3754.10,N,12223.94,W,6.64,255,,015,E,N*00
$IIHDG,235,,,015,E*22
$IIVHW,250,T,235,M,6.92,N,12.81,K*61
$IIMWV,325,R,12.69,N,A*2B
$IIRMC,221218.00,A,3754.10,N,12223.95,W,6.60,256,,015,E,N*08
$IIHDG,235,,,015,E*22
$IIVHW,249,T,234,M,6.76,N,12.52,K*6C
$IIMWV,303,T,8.68,N,A*13
$IIRMC,221220.00,A,3754.10,N,12223.95,W,6.60,256,,015,E,N*03
$IIHDG,234,,,015,E*23
$IIVHW,249,T,234,M,6.82,N,12.63,K*65
$IIMWV,327,R,13.19,N,A*2F
$IIRMC,221224.00,A,3754.10,N,12223.96,W,6.60,256,,015,E,N*04
$IIHDG,231,,,015,E*26
$IIVHW,249,T,234,M,6.82,N,12.63,K*65
$IIMWV,327,R,13.19,N,A*2F
$IIRMC,221224.00,A,3754.10,N,12223.96,W,6.60,256,,015,E,N*04
$IIHDG,231,,,015,E*26
$IIVHW,246,T,231,M,6.86,N,12.70,K*69
$IIMWV,302,T,8.49,N,A*11
$IIRMC,221226.00,A,3754.10,N,12223.96,W,6.60,255,,015,E,N*05
$IIHDG,231,,,015,E*26
$IIVHW,246,T,231,M,6.82,N,12.63,K*6F
$IIMWV,324,R,13.04,N,A*20
$IIRMC,221228.00,A,3754.10,N,12223.97,W,6.49,254,,015,E,N*00
$IIHDG,232,,,015,E*25
$IIVHW,247,T,232,M,6.86,N,12.70,K*6B
$IIMWV,297,T,8.39,N,A*1B
$IIRMC,221230.00,A,3754.10,N,12223.97,W,6.49,253,,015,E,N*0E
$IIHDG,233,,,015,E*24
$IIVHW,248,T,233,M,6.78,N,12.56,K*60
$IIMWV,327,R,12.57,N,A*24
$IIRMC,221234.00,A,3754.09,N,12223.98,W,6.43,253,,015,E,N*07
$IIHDG,235,,,015,E*22
$IIVHW,250,T,235,M,6.62,N,12.27,K*62
$IIMWV,298,T,7.79,N,A*1F
$IIRMC,221236.00,A,3754.09,N,12223.99,W,6.39,254,,015,E,N*0E
$IIHDG,237,,,015,E*20
$IIVHW,252,T,237,M,6.66,N,12.34,K*64
$IIMWV,322,R,12.07,N,A*24
$IIRMC,221238.00,A,3754.09,N,12223.99,W,6.49,254,,015,E,N*07
$IIHDG,239,,,015,E*2E
$IIVHW,254,T,239,M,6.53,N,12.09,K*64
$IIMWV,290,T,8.14,N,A*13
$IIRMC,221242.00,A,3754.09,N,12224.00,W,6.49,254,,015,E,N*0D
$IIHDG,242,,,015,E*22
$IIVHW,254,T,239,M,6.53,N,12.09,K*64
$IIMWV,318,R,12.22,N,A*2A
$IIRMC,221242.00,A,3754.09,N,12224.00,W,6.49,254,,015,E,N*0D
$IIHDG,242,,,015,E*22
$IIVHW,257,T,242,M,6.62,N,12.27,K*65
$IIMWV,318,R,12.22,N,A*2A
$IIRMC,221244.00,A,3754.09,N,12224.00,W,6.49,257,,015,E,N*08
$IIHDG,242,,,015,E*22
$IIVHW,256,T,241,M,6.72,N,12.45,K*62
$IIMWV,289,T,8.02,N,A*1C
$IIRMC,221246.00,A,3754.09,N,12224.01,W,6.49,260,,015,E,N*0F
$IIHDG,233,,,015,E*24
$IIVHW,256,T,241,M,6.72,N,12.45,K*62
$IIMWV,329,R,12.51,N,A*2C
$IIRMC,221246.00,A,3754.09,N,12224.01,W,6.49,260,,015,E,N*0F
$IIHDG,233,,,015,E*24
$IIVHW,246,T,231,M,6.49,N,12.02,K*6F
$IIMWV,329,R,12.51,N,A*2C
$IIRMC,221248.00,A,3754.09,N,12224.01,W,6.60,262,,015,E,N*08
$IIHDG,228,,,015,E*2E
$IIVHW,243,T,228,M,6.43,N,11.91,K*61
$IIMWV,308,T,7.40,N,A*1D
$IIRMC,221252.00,A,3754.09,N,12224.02,W,6.60,261,,015,E,N*03
$IIHDG,228,,,015,E*2E
$IIVHW,243,T,228,M,6.43,N,11.91,K*61
$IIMWV,328,R,12.67,N,A*28
$IIRMC,221252.00,A,3754.09,N,12224.02,W,6.60,261,,015,E,N*03
$IIHDG,228,,,015,E*2E
$IIVHW,242,T,227,M,6.49,N,12.02,K*6C
$IIMWV,328,R,12.67,N,A*28
$IIRMC,221254.00,A,3754.09,N,12224.03,W,6.20,254,,015,E,N*06
$IIHDG,228,,,015,E*2E
$IIVHW,242,T,227,M,6.57,N,12.16,K*66
$IIMWV,309,T,8.22,N,A*17
$IIRMC,221256.00,A,3754.08,N,12224.03,W,6.20,253,,015,E,N*02
$IIHDG,226,,,015,E*20
$IIVHW,242,T,227,M,6.57,N,12.16,K*66
$IIMWV,330,R,13.39,N,A*2B
$IIRMC,221256.00,A,3754.08,N,12224.03,W,6.20,253,,015,E,N*02
$IIHDG,226,,,015,E*20
$IIVHW,241,T,226,M,6.43,N,11.91,K*6D
$IIMWV,330,R,13.39,N,A*2B
$IIRMC,221258.00,A,3754.08,N,12224.03,W,6.10,252,,015,E,N*0E
$IIHDG,226,,,015,E*20
$IIVHW,241,T,226,M,6.39,N,11.84,K*64
$IIMWV,308,T,8.53,N,A*10
$IIRMC,221302.00,A,3754.08,N,12224.04,W,6.10,250,,015,E,N*05
$IIHDG,225,,,015,E*23
$IIVHW,240,T,225,M,6.47,N,11.98,K*62
$IIMWV,330,R,13.58,N,A*2C
$IIRMC,221304.00,A,3754.08,N,12224.05,W,6.10,249,,015,E,N*0A
$IIHDG,225,,,015,E*23
$IIVHW,240,T,225,M,6.57,N,12.16,K*66
$IIMWV,307,T,8.90,N,A*10
$IIRMC,221306.00,A,3754.08,N,12224.05,W,6.10,248,,015,E,N*09
$IIHDG,225,,,015,E*23
$IIVHW,240,T,225,M,6.57,N,12.16,K*66
$IIMWV,307,T,8.90,N,A*10
$IIRMC,221306.00,A,3754.08,N,12224.05,W,6.10,248,,015,E,N*09
$IIHDG,225,,,015,E*23
$IIVHW,240,T,225,M,6.66,N,12.34,K*64
$IIMWV,325,R,13.27,N,A*20
$IIRMC,221310.00,A,3754.08,N,12224.06,W,6.10,248,,015,E,N*0D
$IIHDG,224,,,015,E*22
$IIVHW,239,T,224,M,6.57,N,12.16,K*69
$IIMWV,305,T,8.66,N,A*1B
$IIRMC,221312.00,A,3754.07,N,12224.06,W,6.20,248,,015,E,N*03
$IIHDG,223,,,015,E*25
$IIVHW,238,T,223,M,6.60,N,12.23,K*6D
$IIMWV,330,R,13.70,N,A*26
$IIRMC,221314.00,A,3754.07,N,12224.07,W,6.20,247,,015,E,N*0B
$IIHDG,223,,,015,E*25
$IIVHW,238,T,223,M,6.58,N,12.20,K*65
$IIMWV,307,T,8.47,N,A*1A
$IIRMC,221316.00,A,3754.07,N,12224.07,W,6.20,247,,015,E,N*09
$IIHDG,222,,,015,E*24
$IIVHW,238,T,223,M,6.58,N,12.20,K*65
$IIMWV,307,T,8.47,N,A*1A
$IIRMC,221316.00,A,3754.07,N,12224.07,W,6.20,247,,015,E,N*09
$IIHDG,222,,,015,E*24
$IIVHW,237,T,222,M,6.53,N,12.09,K*6B
$IIMWV,330,R,13.54,N,A*20
$IIRMC,221320.00,A,3754.07,N,12224.08,W,6.20,246,,015,E,N*02
$IIHDG,222,,,015,E*24
$IIVHW,237,T,222,M,6.47,N,11.98,K*65
$IIMWV,308,T,8.78,N,A*19
$IIRMC,221322.00,A,3754.07,N,12224.08,W,6.20,245,,015,E,N*03
$IIHDG,222,,,015,E*24
$IIVHW,237,T,222,M,6.47,N,11.98,K*65
$IIMWV,308,T,8.78,N,A*19
$IIRMC,221322.00,A,3754.07,N,12224.08,W,6.20,245,,015,E,N*03
$IIHDG,222,,,015,E*24
$IIVHW,236,T,221,M,6.74,N,12.49,K*68
$IIMWV,331,R,14.32,N,A*26
$IIRMC,221324.00,A,3754.06,N,12224.08,W,6.29,244,,015,E,N*0C
$IIHDG,219,,,015,E*2C
$IIVHW,236,T,221,M,6.74,N,12.49,K*68
$IIMWV,312,T,8.59,N,A*11
$IIRMC,221326.00,A,3754.06,N,12224.09,W,6.29,244,,015,E,N*0F
$IIHDG,219,,,015,E*2C
$IIVHW,234,T,219,M,6.80,N,12.60,K*61
$IIMWV,312,T,8.59,N,A*11
$IIRMC,221326.00,A,3754.06,N,12224.09,W,6.29,244,,015,E,N*0F
$IIHDG,218,,,015,E*2D
$IIVHW,233,T,218,M,6.80,N,12.60,K*67
$IIMWV,334,R,14.28,N,A*28
$IIRMC,221330.00,A,3754.06,N,12224.10,W,6.20,242,,015,E,N*0F
$IIHDG,219,,,015,E*2C
$IIVHW,233,T,218,M,6.80,N,12.60,K*67
$IIMWV,312,T,8.18,N,A*14
$IIRMC,221332.00,A,3754.06,N,12224.10,W,6.10,240,,015,E,N*0C
$IIHDG,219,,,015,E*2C
$IIVHW,234,T,219,M,6.62,N,12.27,K*6E
$IIMWV,312,T,8.18,N,A*14
$IIRMC,221332.00,A,3754.06,N,12224.10,W,6.10,240,,015,E,N*0C
$IIHDG,220,,,015,E*26
$IIVHW,235,T,220,M,6.45,N,11.95,K*6A
$IIMWV,335,R,12.98,N,A*24
$IIRMC,221334.00,A,3754.06,N,12224.10,W,6.10,240,,015,E,N*0A
$IIHDG,220,,,015,E*26
$IIVHW,235,T,220,M,6.45,N,11.95,K*6A
$IIMWV,316,T,8.20,N,A*1B
$IIRMC,221338.00,A,3754.05,N,12224.11,W,6.00,240,,015,E,N*05
$IIHDG,220,,,015,E*26
$IIVHW,235,T,220,M,6.47,N,11.98,K*65
$IIMWV,316,T,8.20,N,A*1B
$IIRMC,221338.00,A,3754.05,N,12224.11,W,6.00,240,,015,E,N*05
$IIHDG,220,,,015,E*26
$IIVHW,235,T,220,M,6.49,N,12.02,K*6B
$IIMWV,334,R,13.76,N,A*24
$IIRMC,221340.00,A,3754.05,N,12224.12,W,6.00,241,,015,E,N*08
$IIHDG,220,,,015,E*26
$IIVHW,235,T,220,M,6.39,N,11.84,K*61
$IIMWV,313,T,8.00,N,A*1C
$IIRMC,221342.00,A,3754.05,N,12224.12,W,6.00,241,,015,E,N*0A
$IIHDG,219,,,015,E*2C
$IIVHW,234,T,219,M,6.35,N,11.77,K*6A
$IIMWV,331,R,13.47,N,A*23
$IIRMC,221344.00,A,3754.05,N,12224.12,W,6.00,241,,015,E,N*0C
$IIHDG,220,,,015,E*26
$IIVHW,234,T,219,M,6.51,N,12.06,K*6D
$IIMWV,310,T,8.26,N,A*1B
$IIRMC,221348.00,A,3754.04,N,12224.13,W,6.04,242,,015,E,N*07
$IIHDG,219,,,015,E*2C
$IIVHW,234,T,219,M,6.55,N,12.13,K*6D
$IIMWV,332,R,13.82,N,A*29
$IIRMC,221350.00,A,3754.04,N,12224.13,W,6.10,241,,015,E,N*08
$IIHDG,219,,,015,E*2C
$IIVHW,234,T,219,M,6.55,N,12.13,K*6D
$IIMWV,306,T,8.37,N,A*1C
$IIRMC,221350.00,A,3754.04,N,12224.13,W,6.10,241,,015,E,N*08
$IIHDG,219,,,015,E*2C
$IIVHW,234,T,219,M,6.68,N,12.38,K*6A
$IIMWV,306,T,8.37,N,A*1C
$IIRMC,221352.00,A,3754.04,N,12224.14,W,6.10,241,,015,E,N*0D
$IIHDG,219,,,015,E*2C
$IIVHW,234,T,219,M,6.62,N,12.27,K*6E
$IIMWV,332,R,12.84,N,A*2E
$IIRMC,221354.00,A,3754.04,N,12224.14,W,6.10,240,,015,E,N*0A
$IIHDG,218,,,015,E*2D
$IIVHW,234,T,219,M,6.62,N,12.27,K*6E
$IIMWV,313,T,7.54,N,A*12
$IIRMC,221358.00,A,3754.04,N,12224.15,W,6.10,242,,015,E,N*05
$IIHDG,218,,,015,E*2D
$IIVHW,233,T,218,M,6.53,N,12.09,K*66
$IIMWV,313,T,7.54,N,A*12
$IIRMC,221358.00,A,3754.04,N,12224.15,W,6.10,242,,015,E,N*05
$IIHDG,218,,,015,E*2D
$IIVHW,233,T,218,M,6.49,N,12.02,K*66
$IIMWV,334,R,12.40,N,A*20
$IIRMC,221400.00,A,3754.04,N,12224.15,W,6.00,240,,015,E,N*0C
$IIHDG,220,,,015,E*26
$IIVHW,233,T,218,M,6.49,N,12.02,K*66
$IIMWV,308,T,7.48,N,A*15
$IIRMC,221400.00,A,3754.04,N,12224.15,W,6.00,240,,015,E,N*0C
$IIHDG,220,,,015,E*26
$IIVHW,234,T,219,M,6.66,N,12.34,K*68
$IIMWV,308,T,7.48,N,A*15
$IIRMC,221402.00,A,3754.03,N,12224.16,W,6.00,240,,015,E,N*0A
$IIHDG,218,,,015,E*2D
$IIVHW,232,T,217,M,6.60,N,12.23,K*60
$IIMWV,335,R,12.69,N,A*2A
$IIRMC,221406.00,A,3754.03,N,12224.16,W,6.00,240,,015,E,N*0E
$IIHDG,216,,,015,E*23
$IIVHW,232,T,217,M,6.60,N,12.23,K*60
$IIMWV,315,T,7.69,N,A*1A
$IIRMC,221406.00,A,3754.03,N,12224.16,W,6.00,240,,015,E,N*0E
$IIHDG,216,,,015,E*23
$IIVHW,231,T,216,M,6.49,N,12.02,K*6A
$IIMWV,315,T,7.69,N,A*1A
$IIRMC,221408.00,A,3754.03,N,12224.17,W,6.00,240,,015,E,N*01
$IIHDG,217,,,015,E*22
$IIVHW,232,T,217,M,6.39,N,11.84,K*62
$IIMWV,335,R,12.80,N,A*2D
$IIRMC,221410.00,A,3754.03,N,12224.17,W,5.90,239,,015,E,N*0C
$IIHDG,217,,,015,E*22
$IIVHW,232,T,217,M,6.39,N,11.84,K*62
$IIMWV,317,T,7.81,N,A*1E
$IIRMC,221410.00,A,3754.03,N,12224.17,W,5.90,239,,015,E,N*0C
$IIHDG,217,,,015,E*22
$IIVHW,233,T,218,M,6.35,N,11.77,K*6C
$IIMWV,317,T,7.81,N,A*1E
$IIRMC,221412.00,A,3754.02,N,12224.17,W,5.90,238,,015,E,N*0E
$IIHDG,217,,,015,E*22
$IIVHW,232,T,217,M,6.43,N,11.91,K*6B
$IIMWV,337,R,12.86,N,A*29
$IIRMC,221416.00,A,3754.02,N,12224.18,W,5.88,239,,015,E,N*0D
$IIHDG,218,,,015,E*2D
$IIVHW,232,T,217,M,6.43,N,11.91,K*6B
$IIMWV,312,T,7.60,N,A*14
$IIRMC,221416.00,A,3754.02,N,12224.18,W,5.88,239,,015,E,N*0D
$IIHDG,218,,,015,E*2D
$IIVHW,233,T,218,M,6.31,N,11.69,K*67
$IIMWV,312,T,7.60,N,A*14
$IIRMC,221418.00,A,3754.02,N,12224.19,W,5.79,238,,015,E,N*0D
$IIHDG,219,,,015,E*2C
$IIVHW,234,T,219,M,6.20,N,11.48,K*62
$IIMWV,335,R,12.44,N,A*25
$IIRMC,221420.00,A,3754.02,N,12224.19,W,5.79,239,,015,E,N*07
$IIHDG,219,,,015,E*2C
$IIVHW,234,T,219,M,6.20,N,11.48,K*62
$IIMWV,314,T,7.21,N,A*17
$IIRMC,221420.00,A,3754.02,N,12224.19,W,5.79,239,,015,E,N*07
$IIHDG,219,,,015,E*2C
$IIVHW,234,T,219,M,6.18,N,11.44,K*65
$IIMWV,314,T,7.21,N,A*17
$IIRMC,221422.00,A,3754.02,N,12224.19,W,5.79,240,,015,E,N*0B
$IIHDG,219,,,015,E*2C
$IIVHW,234,T,219,M,6.08,N,11.26,K*60
$IIMWV,336,R,11.97,N,A*2B
$IIRMC,221426.00,A,3754.01,N,12224.20,W,5.67,242,,015,E,N*0B
$IIHDG,219,,,015,E*2C
$IIVHW,234,T,219,M,6.08,N,11.26,K*60
$IIMWV,336,R,11.97,N,A*2B
$IIRMC,221426.00,A,3754.01,N,12224.20,W,5.67,242,,015,E,N*0B
$IIHDG,219,,,015,E*2C
$IIVHW,234,T,219,M,6.10,N,11.30,K*6E
$IIMWV,315,T,6.88,N,A*14
$IIRMC,221428.00,A,3754.01,N,12224.20,W,5.69,241,,015,E,N*08
$IIHDG,220,,,015,E*26
$IIVHW,235,T,220,M,6.08,N,11.26,K*6B
$IIMWV,334,R,11.97,N,A*29
$IIRMC,221430.00,A,3754.01,N,12224.21,W,5.69,241,,015,E,N*00
$IIHDG,218,,,015,E*2D
$IIVHW,235,T,220,M,6.08,N,11.26,K*6B
$IIMWV,334,R,11.97,N,A*29
$IIRMC,221430.00,A,3754.01,N,12224.21,W,5.69,241,,015,E,N*00
$IIHDG,218,,,015,E*2D
$IIVHW,233,T,218,M,6.12,N,11.34,K*6E
$IIMWV,313,T,7.28,N,A*19
$IIRMC,221434.00,A,3754.01,N,12224.21,W,5.69,241,,015,E,N*04
$IIHDG,219,,,015,E*2C
$IIVHW,234,T,219,M,6.14,N,11.37,K*6D
$IIMWV,332,R,12.34,N,A*25
$IIRMC,221436.00,A,3754.01,N,12224.22,W,5.69,240,,015,E,N*04
$IIHDG,220,,,015,E*26
$IIVHW,235,T,220,M,6.14,N,11.37,K*66
$IIMWV,313,T,7.01,N,A*12
$IIRMC,221438.00,A,3754.00,N,12224.22,W,5.69,240,,015,E,N*0B
$IIHDG,223,,,015,E*25
$IIVHW,238,T,223,M,6.14,N,11.37,K*68
$IIMWV,333,R,11.60,N,A*26
$IIRMC,221440.00,A,3754.00,N,12224.22,W,5.69,240,,015,E,N*04
$IIHDG,223,,,015,E*25
$IIVHW,237,T,222,M,6.14,N,11.37,K*66
$IIMWV,311,T,6.99,N,A*10
$IIRMC,221444.00,A,3754.00,N,12224.23,W,5.67,245,,015,E,N*0A
$IIHDG,222,,,015,E*24
$IIVHW,237,T,222,M,6.14,N,11.37,K*66
$IIMWV,332,R,11.95,N,A*2D
$IIRMC,221446.00,A,3754.00,N,12224.24,W,5.69,246,,015,E,N*02
$IIHDG,222,,,015,E*24
$IIVHW,237,T,222,M,6.14,N,11.37,K*66
$IIMWV,332,R,11.95,N,A*2D
$IIRMC,221446.00,A,3754.00,N,12224.24,W,5.69,246,,015,E,N*02
$IIHDG,221,,,015,E*27
$IIVHW,235,T,220,M,6.16,N,11.41,K*65
$IIMWV,312,T,7.26,N,A*16
$IIRMC,221448.00,A,3754.00,N,12224.24,W,5.69,246,,015,E,N*0C
$IIHDG,221,,,015,E*27
$IIVHW,235,T,220,M,6.16,N,11.41,K*65
$IIMWV,334,R,11.93,N,A*2D
$IIRMC,221452.00,A,3754.00,N,12224.25,W,5.69,245,,015,E,N*05
$IIHDG,221,,,015,E*27
$IIVHW,236,T,221,M,6.08,N,11.26,K*69
$IIMWV,334,R,11.93,N,A*2D
$IIRMC,221452.00,A,3754.00,N,12224.25,W,5.69,245,,015,E,N*05
$IIHDG,221,,,015,E*27
$IIVHW,236,T,221,M,6.08,N,11.26,K*69
$IIMWV,315,T,7.05,N,A*10
$IIRMC,221454.00,A,3753.99,N,12224.25,W,5.69,244,,015,E,N*05
$IIHDG,220,,,015,E*26
$IIVHW,236,T,221,M,6.08,N,11.26,K*69
$IIMWV,337,R,12.12,N,A*24
$IIRMC,221456.00,A,3753.99,N,12224.25,W,5.69,244,,015,E,N*07
$IIHDG,220,,,015,E*26
$IIVHW,235,T,220,M,6.08,N,11.26,K*6B
$IIMWV,337,R,12.12,N,A*24
$IIRMC,221456.00,A,3753.99,N,12224.25,W,5.69,244,,015,E,N*07
$IIHDG,221,,,015,E*27
$IIVHW,235,T,220,M,6.10,N,11.30,K*65
$IIMWV,314,T,7.03,N,A*17
$IIRMC,221458.00,A,3753.99,N,12224.26,W,5.69,243,,015,E,N*0D
$IIHDG,219,,,015,E*2C
$IIVHW,235,T,220,M,6.10,N,11.30,K*65
$IIMWV,335,R,12.26,N,A*21
$IIRMC,221458.00,A,3753.99,N,12224.26,W,5.69,243,,015,E,N*0D
$IIHDG,219,,,015,E*2C
$IIVHW,234,T,219,M,6.16,N,11.41,K*6E
$IIMWV,335,R,12.26,N,A*21
$IIRMC,221502.00,A,3753.99,N,12224.26,W,5.69,243,,015,E,N*03
$IIHDG,219,,,015,E*2C
$IIVHW,234,T,219,M,6.18,N,11.44,K*65
$IIMWV,320,T,7.15,N,A*17
$IIRMC,221504.00,A,3753.99,N,12224.27,W,5.69,243,,015,E,N*04
$IIHDG,218,,,015,E*2D
$IIVHW,233,T,218,M,6.27,N,11.62,K*6B
$IIMWV,339,R,12.24,N,A*2F
$IIRMC,221506.00,A,3753.98,N,12224.27,W,5.69,241,,015,E,N*05
$IIHDG,219,,,015,E*2C
$IIVHW,234,T,219,M,6.22,N,11.52,K*6B
$IIMWV,325,T,6.60,N,A*11
$IIRMC,221508.00,A,3753.98,N,12224.28,W,5.69,241,,015,E,N*04
$IIHDG,219,,,015,E*2C
$IIVHW,234,T,219,M,6.22,N,11.52,K*6B
$IIMWV,343,R,12.03,N,A*27
$IIRMC,221508.00,A,3753.98,N,12224.28,W,5.69,241,,015,E,N*04
$IIHDG,219,,,015,E*2C
$IIVHW,234,T,219,M,6.08,N,11.26,K*60
$IIMWV,343,R,12.03,N,A*27
$IIRMC,221512.00,A,3753.98,N,12224.28,W,5.67,242,,015,E,N*02
$IIHDG,218,,,015,E*2D
$IIVHW,233,T,218,M,6.08,N,11.26,K*66
$IIMWV,321,T,6.18,N,A*1A
$IIRMC,221514.00,A,3753.98,N,12224.29,W,5.69,241,,015,E,N*08
$IIHDG,216,,,015,E*23
$IIVHW,233,T,218,M,6.08,N,11.26,K*66
$IIMWV,338,R,11.42,N,A*2D
$IIRMC,221516.00,A,3753.98,N,12224.29,W,5.59,240,,015,E,N*08
$IIHDG,216,,,015,E*23
$IIVHW,231,T,216,M,6.08,N,11.26,K*6A
$IIMWV,338,R,11.42,N,A*2D
$IIRMC,221516.00,A,3753.98,N,12224.29,W,5.59,240,,015,E,N*08
$IIHDG,217,,,015,E*22
$IIVHW,231,T,216,M,6.04,N,11.19,K*6A
$IIMWV,310,T,6.80,N,A*19
$IIRMC,221520.00,A,3753.97,N,12224.30,W,5.50,239,,015,E,N*0D
$IIHDG,216,,,015,E*23
$IIVHW,231,T,216,M,6.04,N,11.19,K*6A
$IIMWV,335,R,11.31,N,A*24
$IIRMC,221520.00,A,3753.97,N,12224.30,W,5.50,239,,015,E,N*0D
$IIHDG,216,,,015,E*23
$IIVHW,231,T,216,M,5.92,N,10.97,K*61
$IIMWV,335,R,11.31,N,A*24
$IIRMC,221522.00,A,3753.97,N,12224.30,W,5.40,239,,015,E,N*0E
$IIHDG,217,,,015,E*22
$IIVHW,232,T,217,M,5.81,N,10.76,K*6E
$IIMWV,317,T,6.41,N,A*13
$IIRMC,221524.00,A,3753.97,N,12224.30,W,5.30,239,,015,E,N*0F
$IIHDG,218,,,015,E*2D
$IIVHW,232,T,217,M,5.81,N,10.76,K*6E
$IIMWV,339,R,10.88,N,A*2B
$IIRMC,221524.00,A,3753.97,N,12224.30,W,5.30,239,,015,E,N*0F
$IIHDG,218,,,015,E*2D
$IIVHW,233,T,218,M,5.57,N,10.33,K*6A
$IIMWV,339,R,10.88,N,A*2B
$IIRMC,221526.00,A,3753.97,N,12224.30,W,5.20,239,,015,E,N*0C
$IIHDG,219,,,015,E*2C
$IIVHW,234,T,219,M,5.38,N,9.97,K*53
$IIMWV,323,T,5.83,N,A*19
$IIRMC,221526.00,A,3753.97,N,12224.30,W,5.20,239,,015,E,N*0C
$IIHDG,219,,,015,E*2C
$IIVHW,234,T,219,M,5.38,N,9.97,K*53
$IIMWV,340,R,9.97,N,A*13
$IIRMC,221526.00,A,3753.97,N,12224.30,W,5.20,239,,015,E,N*0C
$IIHDG,219,,,015,E*2C
$IIVHW,234,T,219,M,5.30,N,9.82,K*5F
$IIMWV,340,R,9.97,N,A*13
$IIRMC,221532.00,A,3753.97,N,12224.31,W,4.89,243,,015,E,N*07
$IIHDG,219,,,015,E*2C
$IIVHW,234,T,219,M,5.17,N,9.57,K*52
$IIMWV,322,T,5.75,N,A*11
$IIRMC,221534.00,A,3753.96,N,12224.32,W,4.89,243,,015,E,N*03
$IIHDG,220,,,015,E*26
$IIVHW,234,T,219,M,5.17,N,9.57,K*52
$IIMWV,322,T,5.75,N,A*11
$IIRMC,221534.00,A,3753.96,N,12224.32,W,4.89,243,,015,E,N*03
$IIHDG,220,,,015,E*26
$IIVHW,236,T,221,M,5.09,N,9.43,K*51
$IIMWV,333,R,9.79,N,A*17
$IIRMC,221536.00,A,3753.96,N,12224.32,W,4.80,243,,015,E,N*08
$IIHDG,222,,,015,E*24
$IIVHW,237,T,222,M,5.03,N,9.32,K*5F
$IIMWV,311,T,5.69,N,A*1C
$IIRMC,221540.00,A,3753.96,N,12224.33,W,4.70,245,,015,E,N*01
$IIHDG,221,,,015,E*27
$IIVHW,236,T,221,M,4.99,N,9.25,K*59
$IIMWV,331,R,9.33,N,A*1B
$IIRMC,221542.00,A,3753.96,N,12224.33,W,4.70,247,,015,E,N*01
$IIHDG,215,,,015,E*20
$IIVHW,227,T,212,M,4.78,N,8.85,K*5D
$IIMWV,316,T,5.42,N,A*12
$IIRMC,221544.00,A,3753.96,N,12224.33,W,4.60,248,,015,E,N*09
$IIHDG,191,,,015,E*2F
$IIVHW,206,T,191,M,4.37,N,8.10,K*51
$IIMWV,347,R,9.99,N,A*1A
$IIRMC,221548.00,A,3753.96,N,12224.34,W,4.60,248,,015,E,N*02
$IIHDG,164,,,015,E*25
$IIVHW,206,T,191,M,4.37,N,8.10,K*51
$IIMWV,010,T,5.94,N,A*1C
$IIRMC,221550.00,A,3753.96,N,12224.34,W,4.10,236,,015,E,N*05
$IIHDG,164,,,015,E*25
$IIVHW,179,T,164,M,3.79,N,7.01,K*52
$IIMWV,010,T,5.94,N,A*1C
$IIRMC,221550.00,A,3753.96,N,12224.34,W,4.10,236,,015,E,N*05
$IIHDG,141,,,015,E*22
$IIVHW,152,T,137,M,3.32,N,6.15,K*56
$IIMWV,020,R,8.26,N,A*1D
$IIRMC,221552.00,A,3753.95,N,12224.34,W,3.30,225,,015,E,N*03
$IIHDG,123,,,015,E*26
$IIVHW,152,T,137,M,3.32,N,6.15,K*56
$IIMWV,048,T,6.60,N,A*19
$IIRMC,221552.00,A,3753.95,N,12224.34,W,3.30,225,,015,E,N*03
$IIHDG,123,,,015,E*26
$IIVHW,136,T,121,M,3.16,N,5.86,K*5C
$IIMWV,048,T,6.60,N,A*19
$IIRMC,221554.00,A,3753.95,N,12224.34,W,2.50,207,,015,E,N*02
$IIHDG,116,,,015,E*20
$IIVHW,130,T,115,M,3.36,N,6.22,K*52
$IIMWV,038,R,9.01,N,A*10
$IIRMC,221558.00,A,3753.95,N,12224.33,W,1.88,147,,015,E,N*08
$IIHDG,114,,,015,E*22
$IIVHW,130,T,115,M,3.36,N,6.22,K*52
$IIMWV,038,R,9.01,N,A*10
$IIRMC,221558.00,A,3753.95,N,12224.33,W,1.88,147,,015,E,N*08
$IIHDG,114,,,015,E*22
$IIVHW,129,T,114,M,3.61,N,6.69,K*56
$IIMWV,057,T,6.37,N,A*15
$IIRMC,221600.00,A,3753.95,N,12224.33,W,2.19,130,,015,E,N*0D
$IIHDG,113,,,015,E*25
$IIVHW,128,T,113,M,3.84,N,7.12,K*56
$IIMWV,033,R,8.55,N,A*1B
$IIRMC,221602.00,A,3753.95,N,12224.33,W,2.60,122,,015,E,N*02
$IIHDG,113,,,015,E*25
$IIVHW,128,T,113,M,4.08,N,7.55,K*56
$IIMWV,052,T,5.55,N,A*17
$IIRMC,221606.00,A,3753.95,N,12224.32,W,2.99,119,,015,E,N*09
$IIHDG,117,,,015,E*21
$IIVHW,132,T,117,M,4.17,N,7.74,K*54
$IIMWV,029,R,9.01,N,A*10
$IIRMC,221608.00,A,3753.95,N,12224.32,W,3.40,115,,015,E,N*0E
$IIHDG,117,,,015,E*21
$IIVHW,132,T,117,M,4.27,N,7.92,K*5F
$IIMWV,050,T,5.73,N,A*11
$IIRMC,221610.00,A,3753.95,N,12224.32,W,3.59,117,,015,E,N*0D
$IIHDG,118,,,015,E*2E
$IIVHW,133,T,118,M,4.29,N,7.95,K*58
$IIMWV,024,R,9.62,N,A*18
$IIRMC,221612.00,A,3753.94,N,12224.31,W,3.59,118,,015,E,N*02
$IIHDG,119,,,015,E*2F
$IIVHW,133,T,118,M,4.29,N,7.95,K*58
$IIMWV,024,R,9.62,N,A*18
$IIRMC,221612.00,A,3753.94,N,12224.31,W,3.59,118,,015,E,N*02
$IIHDG,119,,,015,E*2F
$IIVHW,135,T,120,M,4.33,N,8.02,K*5F
$IIMWV,041,T,5.83,N,A*1E
$IIRMC,221616.00,A,3753.94,N,12224.31,W,3.69,118,,015,E,N*05
$IIHDG,121,,,015,E*24
$IIVHW,136,T,121,M,4.47,N,8.27,K*59
$IIMWV,025,R,10.10,N,A*24
$IIRMC,221618.00,A,3753.94,N,12224.31,W,3.79,120,,015,E,N*01
$IIHDG,122,,,015,E*27
$IIVHW,137,T,122,M,4.62,N,8.56,K*5A
$IIMWV,045,T,6.22,N,A*12
$IIRMC,221620.00,A,3753.94,N,12224.30,W,3.79,121,,015,E,N*0A
$IIHDG,122,,,015,E*27
$IIVHW,137,T,122,M,4.62,N,8.56,K*5A
$IIMWV,024,R,10.51,N,A*20
$IIRMC,221622.00,A,3753.94,N,12224.30,W,3.90,122,,015,E,N*0C
$IIHDG,122,,,015,E*27
$IIVHW,137,T,122,M,4.74,N,8.78,K*51
$IIMWV,024,R,10.51,N,A*20
$IIRMC,221622.00,A,3753.94,N,12224.30,W,3.90,122,,015,E,N*0C
$IIHDG,121,,,015,E*24
$IIVHW,137,T,122,M,4.85,N,9.00,K*51
$IIMWV,041,T,6.55,N,A*16
$IIRMC,221626.00,A,3753.94,N,12224.30,W,4.04,124,,015,E,N*04
$IIHDG,124,,,015,E*21
$IIVHW,137,T,122,M,4.85,N,9.00,K*51
$IIMWV,024,R,11.13,N,A*27
$IIRMC,221626.00,A,3753.94,N,12224.30,W,4.04,124,,015,E,N*04
$IIHDG,124,,,015,E*21
$IIVHW,140,T,125,M,5.01,N,9.28,K*51
$IIMWV,024,R,11.13,N,A*27
$IIRMC,221628.00,A,3753.94,N,12224.29,W,4.10,123,,015,E,N*00
$IIHDG,126,,,015,E*23
$IIVHW,141,T,126,M,5.13,N,9.50,K*5F
$IIMWV,040,T,7.03,N,A*15
$IIRMC,221630.00,A,3753.93,N,12224.29,W,4.19,124,,015,E,N*00
$IIHDG,127,,,015,E*22
$IIVHW,141,T,126,M,5.13,N,9.50,K*5F
$IIMWV,022,R,11.13,N,A*21
$IIRMC,221630.00,A,3753.93,N,12224.29,W,4.19,124,,015,E,N*00
$IIHDG,127,,,015,E*22
$IIVHW,143,T,128,M,5.15,N,9.53,K*56
$IIMWV,022,R,11.13,N,A*21
$IIRMC,221634.00,A,3753.93,N,12224.29,W,4.29,126,,015,E,N*05
$IIHDG,129,,,015,E*2C
$IIVHW,144,T,129,M,5.17,N,9.57,K*56
$IIMWV,041,T,6.95,N,A*1A
$IIRMC,221636.00,A,3753.93,N,12224.29,W,4.29,130,,015,E,N*00
$IIHDG,130,,,015,E*24
$IIVHW,144,T,129,M,5.17,N,9.57,K*56
$IIMWV,041,T,6.95,N,A*1A
$IIRMC,221636.00,A,3753.93,N,12224.29,W,4.29,130,,015,E,N*00
$IIHDG,130,,,015,E*24
$IIVHW,145,T,130,M,5.11,N,9.46,K*59
$IIMWV,022,R,10.82,N,A*28
$IIRMC,221638.00,A,3753.93,N,12224.28,W,4.29,131,,015,E,N*0E
$IIHDG,130,,,015,E*24
$IIVHW,145,T,130,M,5.13,N,9.50,K*5C
$IIMWV,038,T,6.60,N,A*1E
$IIRMC,221640.00,A,3753.93,N,12224.28,W,4.29,132,,015,E,N*02
$IIHDG,131,,,015,E*25
$IIVHW,146,T,131,M,5.19,N,9.61,K*56
$IIMWV,019,R,11.13,N,A*29
$IIRMC,221644.00,A,3753.92,N,12224.28,W,4.21,134,,015,E,N*09
$IIHDG,131,,,015,E*25
$IIVHW,146,T,131,M,5.15,N,9.53,K*5B
$IIMWV,031,T,6.37,N,A*15
$IIRMC,221646.00,A,3753.92,N,12224.28,W,4.19,135,,015,E,N*01
$IIHDG,130,,,015,E*24
$IIVHW,145,T,130,M,5.09,N,9.43,K*55
$IIMWV,018,R,11.17,N,A*2C
$IIRMC,221648.00,A,3753.92,N,12224.27,W,4.19,136,,015,E,N*03
$IIHDG,127,,,015,E*22
$IIVHW,145,T,130,M,5.09,N,9.43,K*55
$IIMWV,032,T,6.95,N,A*1E
$IIRMC,221652.00,A,3753.92,N,12224.27,W,4.19,136,,015,E,N*08
$IIHDG,127,,,015,E*22
$IIVHW,141,T,126,M,5.11,N,9.46,K*5A
$IIMWV,032,T,6.95,N,A*1E
$IIRMC,221652.00,A,3753.92,N,12224.27,W,4.19,136,,015,E,N*08
$IIHDG,126,,,015,E*23
$IIVHW,141,T,126,M,5.09,N,9.43,K*56
$IIMWV,019,R,11.58,N,A*26
$IIRMC,221654.00,A,3753.91,N,12224.27,W,4.19,132,,015,E,N*09
$IIHDG,128,,,015,E*2D
$IIVHW,141,T,126,M,5.09,N,9.43,K*56
$IIMWV,032,T,7.67,N,A*12
$IIRMC,221654.00,A,3753.91,N,12224.27,W,4.19,132,,015,E,N*09
$IIHDG,128,,,015,E*2D
$IIVHW,143,T,128,M,5.11,N,9.46,K*56
$IIMWV,032,T,7.67,N,A*12
$IIRMC,221656.00,A,3753.91,N,12224.26,W,4.19,130,,015,E,N*08
$IIHDG,128,,,015,E*2D
$IIVHW,143,T,128,M,5.13,N,9.50,K*53
$IIMWV,022,R,11.81,N,A*2A
$IIRMC,221658.00,A,3753.91,N,12224.26,W,4.19,131,,015,E,N*07
$IIHDG,129,,,015,E*2C
$IIVHW,143,T,128,M,5.13,N,9.50,K*53
$IIMWV,033,T,6.99,N,A*13
$IIRMC,221658.00,A,3753.91,N,12224.26,W,4.19,131,,015,E,N*07
$IIHDG,129,,,015,E*2C
$IIVHW,145,T,130,M,5.15,N,9.53,K*59
$IIMWV,033,T,6.99,N,A*13
$IIRMC,221702.00,A,3753.91,N,12224.26,W,4.19,132,,015,E,N*0A
$IIHDG,131,,,015,E*25
$IIVHW,146,T,131,M,5.07,N,9.39,K*54
$IIMWV,018,R,11.50,N,A*2F
$IIRMC,221704.00,A,3753.91,N,12224.26,W,4.19,133,,015,E,N*0D
$IIHDG,128,,,015,E*2D
$IIVHW,146,T,131,M,5.07,N,9.39,K*54
$IIMWV,018,R,11.50,N,A*2F
$IIRMC,221704.00,A,3753.91,N,12224.26,W,4.19,133,,015,E,N*0D
$IIHDG,128,,,015,E*2D
$IIVHW,143,T,128,M,5.07,N,9.39,K*59
$IIMWV,034,T,6.62,N,A*10
$IIRMC,221706.00,A,3753.90,N,12224.25,W,4.10,134,,015,E,N*03
$IIHDG,125,,,015,E*20
$IIVHW,140,T,125,M,5.05,N,9.35,K*59
$IIMWV,022,R,11.04,N,A*27
$IIRMC,221708.00,A,3753.90,N,12224.25,W,4.19,134,,015,E,N*04
$IIHDG,124,,,015,E*21
$IIVHW,140,T,125,M,5.05,N,9.35,K*59
$IIMWV,038,T,7.44,N,A*19
$IIRMC,221708.00,A,3753.90,N,12224.25,W,4.19,134,,015,E,N*04
$IIHDG,124,,,015,E*21
$IIVHW,139,T,124,M,5.05,N,9.35,K*56
$IIMWV,038,T,7.44,N,A*19
$IIRMC,221712.00,A,3753.90,N,12224.25,W,4.25,129,,015,E,N*0C
$IIHDG,125,,,015,E*20
$IIVHW,140,T,125,M,5.09,N,9.43,K*54
$IIMWV,021,R,12.40,N,A*27
$IIRMC,221714.00,A,3753.90,N,12224.25,W,4.39,129,,015,E,N*07
$IIHDG,122,,,015,E*27
$IIVHW,137,T,122,M,5.11,N,9.46,K*5F
$IIMWV,034,T,7.28,N,A*1F
$IIRMC,221716.00,A,3753.90,N,12224.24,W,4.39,130,,015,E,N*0C
$IIHDG,119,,,015,E*2F
$IIVHW,133,T,118,M,5.09,N,9.43,K*5E
$IIMWV,019,R,11.29,N,A*20
$IIRMC,221720.00,A,3753.89,N,12224.24,W,4.39,129,,015,E,N*09
$IIHDG,117,,,015,E*21
$IIVHW,132,T,117,M,5.13,N,9.50,K*59
$IIMWV,038,T,6.66,N,A*18
$IIRMC,221722.00,A,3753.89,N,12224.23,W,4.50,124,,015,E,N*0E
$IIHDG,118,,,015,E*2E
$IIVHW,133,T,118,M,5.19,N,9.61,K*5F
$IIMWV,022,R,11.66,N,A*23
$IIRMC,221724.00,A,3753.89,N,12224.23,W,4.60,122,,015,E,N*0D
$IIHDG,119,,,015,E*2F
$IIVHW,133,T,118,M,5.19,N,9.61,K*5F
$IIMWV,022,R,11.66,N,A*23
$IIRMC,221724.00,A,3753.89,N,12224.23,W,4.60,122,,015,E,N*0D
$IIHDG,119,,,015,E*2F
$IIVHW,134,T,119,M,5.28,N,9.79,K*52
$IIMWV,046,T,7.13,N,A*12
$IIRMC,221726.00,A,3753.89,N,12224.23,W,4.60,121,,015,E,N*0C
$IIHDG,120,,,015,E*25
$IIVHW,135,T,120,M,5.36,N,9.93,K*52
$IIMWV,025,R,11.48,N,A*28
$IIRMC,221730.00,A,3753.89,N,12224.22,W,4.64,123,,015,E,N*0C
$IIHDG,120,,,015,E*25
$IIVHW,135,T,120,M,5.44,N,10.07,K*62
$IIMWV,045,T,6.84,N,A*1E
$IIRMC,221732.00,A,3753.88,N,12224.22,W,4.70,123,,015,E,N*0A
$IIHDG,120,,,015,E*25
$IIVHW,136,T,121,M,5.46,N,10.11,K*65
$IIMWV,026,R,11.07,N,A*20
$IIRMC,221734.00,A,3753.88,N,12224.22,W,4.70,123,,015,E,N*0C
$IIHDG,122,,,015,E*27
$IIVHW,137,T,122,M,5.48,N,10.15,K*6D
$IIMWV,051,T,6.47,N,A*14
$IIRMC,221736.00,A,3753.88,N,12224.21,W,4.70,123,,015,E,N*0D
$IIHDG,122,,,015,E*27
$IIVHW,137,T,122,M,5.48,N,10.15,K*6D
$IIMWV,025,R,10.43,N,A*22
$IIRMC,221740.00,A,3753.88,N,12224.21,W,4.74,125,,015,E,N*0E
$IIHDG,122,,,015,E*27
$IIVHW,138,T,123,M,5.53,N,10.26,K*69
$IIMWV,025,R,10.43,N,A*22
$IIRMC,221740.00,A,3753.88,N,12224.21,W,4.74,125,,015,E,N*0E
$IIHDG,125,,,015,E*20
$IIVHW,141,T,126,M,5.59,N,10.36,K*69
$IIMWV,046,T,6.58,N,A*1C
$IIRMC,221742.00,A,3753.88,N,12224.21,W,4.80,125,,015,E,N*07
$IIHDG,128,,,015,E*2D
$IIVHW,144,T,129,M,5.61,N,10.40,K*69
$IIMWV,023,R,11.93,N,A*28
$IIRMC,221744.00,A,3753.88,N,12224.20,W,4.80,125,,015,E,N*00
$IIHDG,128,,,015,E*2D
$IIVHW,143,T,128,M,5.59,N,10.36,K*65
$IIMWV,041,T,7.26,N,A*13
$IIRMC,221748.00,A,3753.87,N,12224.20,W,4.70,129,,015,E,N*00
$IIHDG,129,,,015,E*2C
$IIVHW,143,T,128,M,5.59,N,10.36,K*65
$IIMWV,021,R,12.34,N,A*24
$IIRMC,221748.00,A,3753.87,N,12224.20,W,4.70,129,,015,E,N*00
$IIHDG,129,,,015,E*2C
$IIVHW,144,T,129,M,5.57,N,10.33,K*68
$IIMWV,021,R,12.34,N,A*24
$IIRMC,221750.00,A,3753.87,N,12224.20,W,4.80,131,,015,E,N*0F
$IIHDG,130,,,015,E*24
$IIVHW,145,T,130,M,5.59,N,10.36,K*6A
$IIMWV,036,T,7.83,N,A*1C
$IIRMC,221752.00,A,3753.87,N,12224.20,W,4.80,132,,015,E,N*0E
$IIHDG,129,,,015,E*2C
$IIVHW,145,T,130,M,5.59,N,10.36,K*6A
$IIMWV,020,R,12.61,N,A*25
$IIRMC,221754.00,A,3753.87,N,12224.19,W,4.80,133,,015,E,N*03
$IIHDG,129,,,015,E*2C
$IIVHW,144,T,129,M,5.61,N,10.40,K*69
$IIMWV,020,R,12.61,N,A*25
$IIRMC,221754.00,A,3753.87,N,12224.19,W,4.80,133,,015,E,N*03
$IIHDG,130,,,015,E*24
$IIVHW,145,T,130,M,5.61,N,10.40,K*60
$IIMWV,031,T,7.81,N,A*19
$IIRMC,221758.00,A,3753.86,N,12224.19,W,4.74,134,,015,E,N*02
$IIHDG,128,,,015,E*2D
$IIVHW,145,T,130,M,5.61,N,10.40,K*60
$IIMWV,016,R,12.22,N,A*27
$IIRMC,221800.00,A,3753.86,N,12224.19,W,4.70,135,,015,E,N*05
$IIHDG,128,,,015,E*2D
$IIVHW,143,T,128,M,5.53,N,10.26,K*6E
$IIMWV,016,R,12.22,N,A*27
$IIRMC,221800.00,A,3753.86,N,12224.19,W,4.70,135,,015,E,N*05
$IIHDG,127,,,015,E*22
$IIVHW,142,T,127,M,5.52,N,10.22,K*65
$IIMWV,031,T,7.25,N,A*17
$IIRMC,221802.00,A,3753.86,N,12224.18,W,4.70,134,,015,E,N*07
$IIHDG,125,,,015,E*20
$IIVHW,142,T,127,M,5.52,N,10.22,K*65
$IIMWV,018,R,11.85,N,A*27
$IIRMC,221802.00,A,3753.86,N,12224.18,W,4.70,134,,015,E,N*07
$IIHDG,125,,,015,E*20
$IIVHW,139,T,124,M,5.38,N,9.97,K*50
$IIMWV,018,R,11.85,N,A*27
$IIRMC,221806.00,A,3753.86,N,12224.18,W,4.60,133,,015,E,N*05
$IIHDG,123,,,015,E*26
$IIVHW,138,T,123,M,5.38,N,9.97,K*56
$IIMWV,034,T,6.90,N,A*1D
$IIRMC,221808.00,A,3753.85,N,12224.18,W,4.60,130,,015,E,N*0B
$IIHDG,124,,,015,E*21
$IIVHW,138,T,123,M,5.38,N,9.97,K*56
$IIMWV,021,R,12.63,N,A*26
$IIRMC,221808.00,A,3753.85,N,12224.18,W,4.60,130,,015,E,N*0B
$IIHDG,124,,,015,E*21
$IIVHW,140,T,125,M,5.42,N,10.04,K*60
$IIMWV,021,R,12.63,N,A*26
$IIRMC,221810.00,A,3753.85,N,12224.17,W,4.60,128,,015,E,N*04
$IIHDG,123,,,015,E*26
$IIVHW,138,T,123,M,5.50,N,10.18,K*67
$IIMWV,037,T,7.32,N,A*17
$IIRMC,221812.00,A,3753.85,N,12224.17,W,4.60,128,,015,E,N*06
$IIHDG,123,,,015,E*26
$IIVHW,138,T,123,M,5.50,N,10.18,K*67
$IIMWV,024,R,11.87,N,A*2A
$IIRMC,221812.00,A,3753.85,N,12224.17,W,4.60,128,,015,E,N*06
$IIHDG,123,,,015,E*26
$IIVHW,138,T,123,M,5.65,N,10.47,K*6B
$IIMWV,024,R,11.87,N,A*2A
$IIRMC,221816.00,A,3753.85,N,12224.16,W,4.80,127,,015,E,N*02
$IIHDG,125,,,015,E*20
$IIVHW,141,T,126,M,5.85,N,10.83,K*66
$IIMWV,044,T,7.71,N,A*14
$IIRMC,221818.00,A,3753.85,N,12224.16,W,4.89,125,,015,E,N*07
$IIHDG,127,,,015,E*22
$IIVHW,141,T,126,M,5.85,N,10.83,K*66
$IIMWV,044,T,7.71,N,A*14
$IIRMC,221818.00,A,3753.85,N,12224.16,W,4.89,125,,015,E,N*07
$IIHDG,127,,,015,E*22
