$IIHDG,199,,,015,E*27
$IIVHW,214,T,199,M,0.00,N,0.00,K*53
$IIMWV,342,R,10.08,N,A*2F
$IIRMC,202924.00,A,3754.47,N,12222.99,W,0.69,025,,015,E,N*0B
$IIHDG,199,,,015,E*27
$IIVHW,213,T,198,M,0.00,N,0.00,K*55
$IIMWV,340,T,10.26,N,A*27
$IIRMC,202926.00,A,3754.47,N,12222.99,W,0.79,026,,015,E,N*0B
$IIHDG,194,,,015,E*2A
$IIVHW,208,T,193,M,0.00,N,0.00,K*54
$IIMWV,346,R,10.18,N,A*2A
$IIRMC,202930.00,A,3754.47,N,12222.99,W,0.89,021,,015,E,N*04
$IIHDG,183,,,015,E*2C
$IIVHW,198,T,183,M,0.00,N,0.00,K*5F
$IIMWV,354,T,10.16,N,A*21
$IIRMC,202932.00,A,3754.47,N,12222.99,W,0.99,000,,015,E,N*04
$IIHDG,170,,,015,E*20
$IIVHW,198,T,183,M,0.00,N,0.00,K*5F
$IIMWV,003,R,10.03,N,A*22
$IIRMC,202934.00,A,3754.47,N,12222.99,W,0.99,348,,015,E,N*0D
$IIHDG,170,,,015,E*20
$IIVHW,185,T,170,M,0.00,N,0.00,K*5F
$IIMWV,003,R,10.03,N,A*22
$IIRMC,202934.00,A,3754.47,N,12222.99,W,0.99,348,,015,E,N*0D
$IIHDG,153,,,015,E*21
$IIVHW,164,T,149,M,0.00,N,0.00,K*5A
$IIMWV,021,T,10.26,N,A*23
$IIRMC,202936.00,A,3754.47,N,12222.99,W,0.99,337,,015,E,N*07
$IIHDG,135,,,015,E*21
$IIVHW,164,T,149,M,0.00,N,0.00,K*5A
$IIMWV,039,R,10.45,N,A*29
$IIRMC,202936.00,A,3754.47,N,12222.99,W,0.99,337,,015,E,N*07
$IIHDG,135,,,015,E*21
$IIVHW,146,T,131,M,0.00,N,0.00,K*55
$IIMWV,039,R,10.45,N,A*29
$IIRMC,202940.00,A,3754.47,N,12222.99,W,0.79,323,,015,E,N*0D
$IIHDG,123,,,015,E*26
$IIVHW,137,T,122,M,0.00,N,0.00,K*51
$IIMWV,046,T,10.92,N,A*2D
$IIRMC,202942.00,A,3754.47,N,12222.99,W,0.09,333,,015,E,N*09
$IIHDG,118,,,015,E*2E
$IIVHW,137,T,122,M,0.00,N,0.00,K*51
$IIMWV,050,R,11.74,N,A*25
$IIRMC,202942.00,A,3754.47,N,12222.99,W,0.09,333,,015,E,N*09
$IIHDG,118,,,015,E*2E
$IIVHW,132,T,117,M,0.00,N,0.00,K*52
$IIMWV,050,R,11.74,N,A*25
$IIRMC,202944.00,A,3754.47,N,12222.99,W,0.50,118,,015,E,N*08
$IIHDG,112,,,015,E*24
$IIVHW,127,T,112,M,0.00,N,0.00,K*53
$IIMWV,052,T,12.24,N,A*27
$IIRMC,202946.00,A,3754.47,N,12222.99,W,1.10,123,,015,E,N*07
$IIHDG,103,,,015,E*24
$IIVHW,127,T,112,M,0.00,N,0.00,K*53
$IIMWV,062,R,12.30,N,A*27
$IIRMC,202946.00,A,3754.47,N,12222.99,W,1.10,123,,015,E,N*07
$IIHDG,103,,,015,E*24
$IIVHW,118,T,103,M,0.00,N,0.00,K*5F
$IIMWV,062,R,12.30,N,A*27
$IIRMC,202950.00,A,3754.47,N,12222.99,W,2.27,129,,015,E,N*0D
$IIHDG,090,,,015,E*2F
$IIVHW,105,T,090,M,1.55,N,2.88,K*5B
$IIMWV,077,T,11.77,N,A*25
$IIRMC,202952.00,A,3754.47,N,12222.98,W,2.79,125,,015,E,N*09
$IIHDG,078,,,015,E*29
$IIVHW,105,T,090,M,1.55,N,2.88,K*5B
$IIMWV,077,T,11.77,N,A*25
$IIRMC,202952.00,A,3754.47,N,12222.98,W,2.79,125,,015,E,N*09
$IIHDG,078,,,015,E*29
$IIVHW,091,T,076,M,3.59,N,6.65,K*56
$IIMWV,084,R,11.56,N,A*2C
$IIRMC,202954.00,A,3754.47,N,12222.98,W,3.30,118,,015,E,N*0D
$IIHDG,073,,,015,E*22
$IIVHW,091,T,076,M,3.59,N,6.65,K*56
$IIMWV,108,T,12.07,N,A*28
$IIRMC,202958.00,A,3754.47,N,12222.97,W,3.59,108,,015,E,N*00
$IIHDG,073,,,015,E*22
$IIVHW,089,T,074,M,4.95,N,9.18,K*5F
$IIMWV,108,T,12.07,N,A*28
$IIRMC,202958.00,A,3754.47,N,12222.97,W,3.59,108,,015,E,N*00
$IIHDG,079,,,015,E*28
$IIVHW,096,T,081,M,5.77,N,10.69,K*68
$IIMWV,064,R,11.29,N,A*2A
$IIRMC,203000.00,A,3754.47,N,12222.97,W,4.19,093,,015,E,N*05
$IIHDG,092,,,015,E*2D
$IIVHW,110,T,095,M,6.45,N,11.95,K*62
$IIMWV,077,T,9.25,N,A*1B
$IIRMC,203002.00,A,3754.47,N,12222.97,W,4.39,094,,015,E,N*02
$IIHDG,111,,,015,E*27
$IIVHW,126,T,111,M,6.86,N,12.70,K*6D
$IIMWV,030,R,13.82,N,A*28
$IIRMC,203004.00,A,3754.46,N,12222.96,W,4.60,097,,015,E,N*0B
$IIHDG,129,,,015,E*2C
$IIVHW,126,T,111,M,6.86,N,12.70,K*6D
$IIMWV,032,T,8.18,N,A*15
$IIRMC,203004.00,A,3754.46,N,12222.96,W,4.60,097,,015,E,N*0B
$IIHDG,129,,,015,E*2C
$IIVHW,144,T,129,M,7.05,N,13.06,K*68
$IIMWV,032,T,8.18,N,A*15
$IIRMC,203008.00,A,3754.46,N,12222.96,W,4.58,115,,015,E,N*07
$IIHDG,147,,,015,E*24
$IIVHW,166,T,151,M,7.25,N,13.42,K*65
$IIMWV,010,R,15.84,N,A*2A
$IIRMC,203010.00,A,3754.46,N,12222.96,W,4.50,125,,015,E,N*05
$IIHDG,161,,,015,E*20
$IIVHW,166,T,151,M,7.25,N,13.42,K*65
$IIMWV,006,T,8.80,N,A*13
$IIRMC,203010.00,A,3754.46,N,12222.96,W,4.50,125,,015,E,N*05
$IIHDG,161,,,015,E*20
$IIVHW,178,T,163,M,7.36,N,13.64,K*6D
$IIMWV,006,T,8.80,N,A*13
$IIRMC,203012.00,A,3754.46,N,12222.95,W,4.39,138,,015,E,N*07
$IIHDG,169,,,015,E*28
$IIVHW,185,T,170,M,7.36,N,13.64,K*6D
$IIMWV,000,R,15.53,N,A*21
$IIRMC,203014.00,A,3754.45,N,12222.95,W,4.29,152,,015,E,N*0F
$IIHDG,173,,,015,E*23
$IIVHW,189,T,174,M,7.50,N,13.89,K*66
$IIMWV,354,T,7.85,N,A*1D
$IIRMC,203018.00,A,3754.45,N,12222.95,W,4.60,170,,015,E,N*0E
$IIHDG,176,,,015,E*26
$IIVHW,192,T,177,M,7.54,N,13.96,K*65
$IIMWV,358,R,16.17,N,A*2C
$IIRMC,203020.00,A,3754.44,N,12222.96,W,4.70,176,,015,E,N*00
$IIHDG,179,,,015,E*29
$IIVHW,194,T,179,M,7.65,N,14.18,K*6E
$IIMWV,352,T,8.98,N,A*18
$IIRMC,203022.00,A,3754.44,N,12222.96,W,4.80,180,,015,E,N*04
$IIHDG,180,,,015,E*2F
$IIVHW,195,T,180,M,7.65,N,14.18,K*69
$IIMWV,355,R,16.77,N,A*27
$IIRMC,203026.00,A,3754.44,N,12222.96,W,5.01,185,,015,E,N*0D
$IIHDG,179,,,015,E*29
$IIVHW,193,T,178,M,7.71,N,14.29,K*6F
$IIMWV,351,T,9.83,N,A*10
$IIRMC,203028.00,A,3754.43,N,12222.96,W,5.09,187,,015,E,N*0E
$IIHDG,178,,,015,E*28
$IIVHW,193,T,178,M,7.71,N,14.29,K*6F
$IIMWV,355,R,17.78,N,A*29
$IIRMC,203028.00,A,3754.43,N,12222.96,W,5.09,187,,015,E,N*0E
$IIHDG,178,,,015,E*28
$IIVHW,193,T,178,M,7.87,N,14.58,K*60
$IIMWV,355,R,17.78,N,A*29
$IIRMC,203030.00,A,3754.43,N,12222.96,W,5.20,187,,015,E,N*0C
$IIHDG,179,,,015,E*29
$IIVHW,194,T,179,M,7.93,N,14.68,K*60
$IIMWV,350,T,10.10,N,A*23
$IIRMC,203032.00,A,3754.43,N,12222.96,W,5.30,187,,015,E,N*0F
$IIHDG,180,,,015,E*2F
$IIVHW,194,T,179,M,7.93,N,14.68,K*60
$IIMWV,354,R,18.19,N,A*20
$IIRMC,203036.00,A,3754.42,N,12222.96,W,5.40,189,,015,E,N*03
$IIHDG,180,,,015,E*2F
$IIVHW,195,T,180,M,7.98,N,14.79,K*6C
$IIMWV,354,R,18.19,N,A*20
$IIRMC,203036.00,A,3754.42,N,12222.96,W,5.40,189,,015,E,N*03
$IIHDG,180,,,015,E*2F
$IIVHW,194,T,179,M,8.08,N,14.97,K*6D
$IIMWV,350,T,10.08,N,A*2A
$IIRMC,203038.00,A,3754.42,N,12222.96,W,5.50,189,,015,E,N*0C
$IIHDG,170,,,015,E*20
$IIVHW,194,T,179,M,8.08,N,14.97,K*6D
$IIMWV,359,R,17.98,N,A*2B
$IIRMC,203038.00,A,3754.42,N,12222.96,W,5.50,189,,015,E,N*0C
$IIHDG,170,,,015,E*20
$IIVHW,185,T,170,M,8.24,N,15.26,K*61
$IIMWV,359,R,17.98,N,A*2B
$IIRMC,203040.00,A,3754.41,N,12222.96,W,5.59,190,,015,E,N*01
$IIHDG,158,,,015,E*2A
$IIVHW,173,T,158,M,8.35,N,15.48,K*6A
$IIMWV,014,T,9.23,N,A*18
$IIRMC,203044.00,A,3754.41,N,12222.96,W,5.59,189,,015,E,N*0D
$IIHDG,143,,,015,E*20
$IIVHW,173,T,158,M,8.35,N,15.48,K*6A
$IIMWV,014,T,9.23,N,A*18
$IIRMC,203044.00,A,3754.41,N,12222.96,W,5.59,189,,015,E,N*0D
$IIHDG,143,,,015,E*20
$IIVHW,155,T,140,M,8.47,N,15.69,K*61
$IIMWV,016,R,16.91,N,A*2B
$IIRMC,203046.00,A,3754.40,N,12222.96,W,5.59,180,,015,E,N*07
$IIHDG,127,,,015,E*22
$IIVHW,138,T,123,M,8.43,N,15.62,K*60
$IIMWV,053,T,10.16,N,A*25
$IIRMC,203048.00,A,3754.40,N,12222.96,W,5.59,171,,015,E,N*07
$IIHDG,113,,,015,E*25
$IIVHW,127,T,112,M,8.53,N,15.80,K*61
$IIMWV,035,R,15.02,N,A*23
$IIRMC,203050.00,A,3754.40,N,12222.96,W,5.40,161,,015,E,N*07
$IIHDG,107,,,015,E*20
$IIVHW,120,T,105,M,8.57,N,15.87,K*63
$IIMWV,075,T,10.34,N,A*21
$IIRMC,203054.00,A,3754.40,N,12222.95,W,5.19,140,,015,E,N*0F
$IIHDG,101,,,015,E*26
$IIVHW,115,T,100,M,8.76,N,16.23,K*6E
$IIMWV,051,R,14.55,N,A*22
$IIRMC,203056.00,A,3754.40,N,12222.95,W,5.30,134,,015,E,N*05
$IIHDG,097,,,015,E*28
$IIVHW,115,T,100,M,8.76,N,16.23,K*6E
$IIMWV,093,T,12.53,N,A*2A
$IIRMC,203056.00,A,3754.40,N,12222.95,W,5.30,134,,015,E,N*05
$IIHDG,097,,,015,E*28
$IIVHW,112,T,097,M,8.90,N,16.48,K*63
$IIMWV,093,T,12.53,N,A*2A
$IIRMC,203058.00,A,3754.39,N,12222.94,W,5.40,128,,015,E,N*0E
$IIHDG,096,,,015,E*29
$IIVHW,111,T,096,M,8.90,N,16.48,K*61
$IIMWV,059,R,15.55,N,A*2B
$IIRMC,203100.00,A,3754.39,N,12222.94,W,5.50,122,,015,E,N*09
$IIHDG,096,,,015,E*29
$IIVHW,111,T,096,M,8.90,N,16.48,K*61
$IIMWV,093,T,13.58,N,A*20
$IIRMC,203100.00,A,3754.39,N,12222.94,W,5.50,122,,015,E,N*09
$IIHDG,096,,,015,E*29
$IIVHW,111,T,096,M,9.01,N,16.70,K*63
$IIMWV,093,T,13.58,N,A*20
$IIRMC,203104.00,A,3754.39,N,12222.93,W,5.59,116,,015,E,N*04
$IIHDG,097,,,015,E*28
$IIVHW,112,T,097,M,9.13,N,16.92,K*6E
$IIMWV,058,R,16.32,N,A*28
$IIRMC,203106.00,A,3754.39,N,12222.93,W,5.69,115,,015,E,N*06
$IIHDG,098,,,015,E*27
$IIVHW,112,T,097,M,9.13,N,16.92,K*6E
$IIMWV,092,T,13.74,N,A*2F
$IIRMC,203106.00,A,3754.39,N,12222.93,W,5.69,115,,015,E,N*06
$IIHDG,098,,,015,E*27
$IIVHW,113,T,098,M,9.19,N,17.02,K*62
$IIMWV,092,T,13.74,N,A*2F
$IIRMC,203108.00,A,3754.39,N,12222.92,W,5.79,115,,015,E,N*08
$IIHDG,097,,,015,E*28
$IIVHW,112,T,097,M,9.23,N,17.10,K*66
$IIMWV,059,R,16.40,N,A*2C
$IIRMC,203112.00,A,3754.38,N,12222.92,W,5.90,115,,015,E,N*05
$IIHDG,097,,,015,E*28
$IIVHW,112,T,097,M,9.23,N,17.10,K*66
$IIMWV,059,R,16.40,N,A*2C
$IIRMC,203112.00,A,3754.38,N,12222.92,W,5.90,115,,015,E,N*05
$IIHDG,097,,,015,E*28
$IIVHW,111,T,096,M,9.38,N,17.38,K*64
$IIMWV,092,T,13.66,N,A*2C
$IIRMC,203114.00,A,3754.38,N,12222.91,W,5.90,115,,015,E,N*00
$IIHDG,095,,,015,E*2A
$IIVHW,110,T,095,M,9.36,N,17.35,K*65
$IIMWV,059,R,14.88,N,A*2A
$IIRMC,203116.00,A,3754.38,N,12222.91,W,6.00,115,,015,E,N*08
$IIHDG,094,,,015,E*2B
$IIVHW,108,T,093,M,9.17,N,16.99,K*6E
$IIMWV,100,T,13.56,N,A*25
$IIRMC,203118.00,A,3754.38,N,12222.91,W,6.00,115,,015,E,N*06
$IIHDG,093,,,015,E*2C
$IIVHW,108,T,093,M,9.17,N,16.99,K*6E
$IIMWV,060,R,14.63,N,A*25
$IIRMC,203122.00,A,3754.38,N,12222.90,W,5.98,112,,015,E,N*0B
$IIHDG,093,,,015,E*2C
$IIVHW,108,T,093,M,9.07,N,16.81,K*66
$IIMWV,060,R,14.63,N,A*25
$IIRMC,203122.00,A,3754.38,N,12222.90,W,5.98,112,,015,E,N*0B
$IIHDG,094,,,015,E*2B
$IIVHW,109,T,094,M,9.13,N,16.92,K*67
$IIMWV,096,T,13.39,N,A*22
$IIRMC,203124.00,A,3754.38,N,12222.89,W,6.00,112,,015,E,N*07
$IIHDG,094,,,015,E*2B
$IIVHW,109,T,094,M,9.13,N,16.92,K*67
$IIMWV,061,R,16.03,N,A*20
$IIRMC,203126.00,A,3754.38,N,12222.89,W,6.00,112,,015,E,N*05
$IIHDG,094,,,015,E*2B
$IIVHW,109,T,094,M,9.19,N,17.02,K*65
$IIMWV,061,R,16.03,N,A*20
$IIRMC,203126.00,A,3754.38,N,12222.89,W,6.00,112,,015,E,N*05
$IIHDG,095,,,015,E*2A
$IIVHW,109,T,094,M,9.17,N,16.99,K*68
$IIMWV,093,T,14.13,N,A*28
$IIRMC,203130.00,A,3754.37,N,12222.88,W,6.00,112,,015,E,N*0C
$IIHDG,094,,,015,E*2B
$IIVHW,109,T,094,M,9.17,N,16.99,K*68
$IIMWV,062,R,15.97,N,A*2D
$IIRMC,203130.00,A,3754.37,N,12222.88,W,6.00,112,,015,E,N*0C
$IIHDG,094,,,015,E*2B
$IIVHW,109,T,094,M,9.03,N,16.73,K*69
$IIMWV,062,R,15.97,N,A*2D
$IIRMC,203132.00,A,3754.37,N,12222.88,W,6.00,112,,015,E,N*0E
$IIHDG,095,,,015,E*2A
$IIVHW,110,T,095,M,9.23,N,17.10,K*66
$IIMWV,097,T,14.63,N,A*2B
$IIRMC,203134.00,A,3754.37,N,12222.87,W,6.00,112,,015,E,N*07
$IIHDG,095,,,015,E*2A
$IIVHW,110,T,095,M,9.23,N,17.10,K*66
$IIMWV,097,T,14.63,N,A*2B
$IIRMC,203134.00,A,3754.37,N,12222.87,W,6.00,112,,015,E,N*07
$IIHDG,095,,,015,E*2A
$IIVHW,110,T,095,M,9.23,N,17.10,K*66
$IIMWV,062,R,16.58,N,A*2D
$IIRMC,203136.00,A,3754.37,N,12222.87,W,6.00,112,,015,E,N*05
$IIHDG,094,,,015,E*2B
$IIVHW,109,T,094,M,9.19,N,17.02,K*65
$IIMWV,097,T,15.27,N,A*2A
$IIRMC,203140.00,A,3754.37,N,12222.86,W,5.98,112,,015,E,N*07
$IIHDG,094,,,015,E*2B
$IIVHW,109,T,094,M,9.15,N,16.95,K*66
$IIMWV,064,R,16.56,N,A*25
$IIRMC,203142.00,A,3754.37,N,12222.86,W,6.00,112,,015,E,N*07
$IIHDG,094,,,015,E*2B
$IIVHW,109,T,094,M,9.07,N,16.81,K*60
$IIMWV,096,T,15.00,N,A*2E
$IIRMC,203144.00,A,3754.36,N,12222.85,W,6.00,112,,015,E,N*03
$IIHDG,094,,,015,E*2B
$IIVHW,109,T,094,M,9.00,N,16.66,K*6E
$IIMWV,064,R,16.61,N,A*21
$IIRMC,203146.00,A,3754.36,N,12222.85,W,5.90,111,,015,E,N*08
$IIHDG,094,,,015,E*2B
$IIVHW,109,T,094,M,9.00,N,16.66,K*6E
$IIMWV,097,T,15.18,N,A*26
$IIRMC,203150.00,A,3754.36,N,12222.84,W,5.94,111,,015,E,N*0A
$IIHDG,094,,,015,E*2B
$IIVHW,109,T,094,M,9.01,N,16.70,K*68
$IIMWV,097,T,15.18,N,A*26
$IIRMC,203150.00,A,3754.36,N,12222.84,W,5.94,111,,015,E,N*0A
$IIHDG,094,,,015,E*2B
$IIVHW,108,T,093,M,9.07,N,16.81,K*66
$IIMWV,064,R,16.65,N,A*25
$IIRMC,203152.00,A,3754.36,N,12222.84,W,6.00,112,,015,E,N*05
$IIHDG,093,,,015,E*2C
$IIVHW,108,T,093,M,9.07,N,16.81,K*66
$IIMWV,096,T,14.57,N,A*2D
$IIRMC,203152.00,A,3754.36,N,12222.84,W,6.00,112,,015,E,N*05
$IIHDG,093,,,015,E*2C
$IIVHW,108,T,093,M,9.15,N,16.95,K*60
$IIMWV,096,T,14.57,N,A*2D
$IIRMC,203154.00,A,3754.36,N,12222.83,W,6.00,112,,015,E,N*04
$IIHDG,092,,,015,E*2D
$IIVHW,107,T,092,M,9.17,N,16.99,K*60
$IIMWV,066,R,15.93,N,A*2D
$IIRMC,203158.00,A,3754.36,N,12222.83,W,6.00,111,,015,E,N*0B
$IIHDG,091,,,015,E*2E
$IIVHW,107,T,092,M,9.17,N,16.99,K*60
$IIMWV,102,T,14.55,N,A*23
$IIRMC,203158.00,A,3754.36,N,12222.83,W,6.00,111,,015,E,N*0B
$IIHDG,091,,,015,E*2E
$IIVHW,106,T,091,M,9.09,N,16.84,K*61
$IIMWV,102,T,14.55,N,A*23
$IIRMC,203200.00,A,3754.36,N,12222.82,W,6.00,111,,015,E,N*04
$IIHDG,090,,,015,E*2F
$IIVHW,105,T,090,M,9.15,N,16.95,K*6E
$IIMWV,071,R,16.03,N,A*21
$IIRMC,203202.00,A,3754.35,N,12222.82,W,6.10,110,,015,E,N*05
$IIHDG,089,,,015,E*27
$IIVHW,105,T,090,M,9.15,N,16.95,K*6E
$IIMWV,105,T,15.68,N,A*2B
$IIRMC,203202.00,A,3754.35,N,12222.82,W,6.10,110,,015,E,N*05
$IIHDG,089,,,015,E*27
$IIVHW,103,T,088,M,9.09,N,16.84,K*6C
$IIMWV,105,T,15.68,N,A*2B
$IIRMC,203204.00,A,3754.35,N,12222.82,W,6.10,109,,015,E,N*0B
$IIHDG,089,,,015,E*27
$IIVHW,104,T,089,M,9.07,N,16.81,K*61
$IIMWV,105,T,15.68,N,A*2B
$IIRMC,203208.00,A,3754.35,N,12222.81,W,5.98,107,,015,E,N*09
$IIHDG,090,,,015,E*2F
$IIVHW,105,T,090,M,9.13,N,16.92,K*6F
$IIMWV,104,T,15.29,N,A*2F
$IIRMC,203210.00,A,3754.35,N,12222.80,W,6.00,107,,015,E,N*03
$IIHDG,089,,,015,E*27
$IIVHW,104,T,089,M,9.09,N,16.84,K*6A
$IIMWV,069,R,15.74,N,A*2B
$IIRMC,203212.00,A,3754.35,N,12222.80,W,6.00,107,,015,E,N*01
$IIHDG,088,,,015,E*26
$IIVHW,104,T,089,M,9.09,N,16.84,K*6A
$IIMWV,069,R,15.74,N,A*2B
$IIRMC,203212.00,A,3754.35,N,12222.80,W,6.00,107,,015,E,N*01
$IIHDG,088,,,015,E*26
$IIVHW,103,T,088,M,9.03,N,16.73,K*6E
$IIMWV,104,T,15.08,N,A*2C
$IIRMC,203216.00,A,3754.35,N,12222.79,W,6.00,108,,015,E,N*0C
$IIHDG,088,,,015,E*26
$IIVHW,103,T,088,M,9.03,N,16.73,K*6E
$IIMWV,069,R,15.82,N,A*22
$IIRMC,203218.00,A,3754.35,N,12222.79,W,6.10,107,,015,E,N*0C
$IIHDG,088,,,015,E*26
$IIVHW,103,T,088,M,9.15,N,16.95,K*61
$IIMWV,069,R,15.82,N,A*22
$IIRMC,203218.00,A,3754.35,N,12222.79,W,6.10,107,,015,E,N*0C
$IIHDG,088,,,015,E*26
$IIVHW,103,T,088,M,9.23,N,17.10,K*68
$IIMWV,104,T,15.70,N,A*23
$IIRMC,203220.00,A,3754.34,N,12222.78,W,6.10,107,,015,E,N*07
$IIHDG,087,,,015,E*29
$IIVHW,102,T,087,M,9.27,N,17.17,K*65
$IIMWV,068,R,15.68,N,A*27
$IIRMC,203222.00,A,3754.34,N,12222.78,W,6.10,107,,015,E,N*05
$IIHDG,088,,,015,E*26
$IIVHW,103,T,088,M,9.21,N,17.06,K*6D
$IIMWV,102,T,15.02,N,A*20
$IIRMC,203226.00,A,3754.34,N,12222.77,W,6.10,105,,015,E,N*0C
$IIHDG,090,,,015,E*2F
$IIVHW,103,T,088,M,9.21,N,17.06,K*6D
$IIMWV,067,R,16.21,N,A*26
$IIRMC,203226.00,A,3754.34,N,12222.77,W,6.10,105,,015,E,N*0C
$IIHDG,090,,,015,E*2F
$IIVHW,105,T,090,M,9.15,N,16.95,K*6E
$IIMWV,067,R,16.21,N,A*26
$IIRMC,203228.00,A,3754.34,N,12222.77,W,6.10,106,,015,E,N*01
$IIHDG,092,,,015,E*2D
$IIVHW,107,T,092,M,9.07,N,16.81,K*68
$IIMWV,096,T,15.08,N,A*26
$IIRMC,203230.00,A,3754.34,N,12222.76,W,6.10,107,,015,E,N*08
$IIHDG,094,,,015,E*2B
$IIVHW,107,T,092,M,9.07,N,16.81,K*68
$IIMWV,096,T,15.08,N,A*26
$IIRMC,203230.00,A,3754.34,N,12222.76,W,6.10,107,,015,E,N*08
$IIHDG,094,,,015,E*2B
$IIVHW,109,T,094,M,9.13,N,16.92,K*67
$IIMWV,061,R,16.40,N,A*27
$IIRMC,203232.00,A,3754.34,N,12222.76,W,6.10,108,,015,E,N*05
$IIHDG,096,,,015,E*29
$IIVHW,111,T,096,M,9.21,N,17.06,K*61
$IIMWV,091,T,14.24,N,A*2E
$IIRMC,203236.00,A,3754.34,N,12222.75,W,6.10,110,,015,E,N*0B
$IIHDG,098,,,015,E*27
$IIVHW,111,T,096,M,9.21,N,17.06,K*61
$IIMWV,091,T,14.24,N,A*2E
$IIRMC,203236.00,A,3754.34,N,12222.75,W,6.10,110,,015,E,N*0B
$IIHDG,098,,,015,E*27
$IIVHW,113,T,098,M,9.13,N,16.92,K*60
$IIMWV,054,R,16.91,N,A*2D
$IIRMC,203238.00,A,3754.34,N,12222.75,W,6.10,112,,015,E,N*07
$IIHDG,100,,,015,E*27
$IIVHW,115,T,100,M,9.15,N,16.95,K*67
$IIMWV,082,T,12.47,N,A*2F
$IIRMC,203240.00,A,3754.33,N,12222.74,W,6.10,113,,015,E,N*0F
$IIHDG,103,,,015,E*24
$IIVHW,118,T,103,M,9.13,N,16.92,K*68
$IIMWV,048,R,16.58,N,A*25
$IIRMC,203244.00,A,3754.33,N,12222.74,W,6.10,115,,015,E,N*0D
$IIHDG,107,,,015,E*20
$IIVHW,122,T,107,M,8.98,N,16.63,K*69
$IIMWV,071,T,12.69,N,A*2F
$IIRMC,203246.00,A,3754.33,N,12222.73,W,6.10,116,,015,E,N*0B
$IIHDG,109,,,015,E*2E
$IIVHW,124,T,109,M,9.03,N,16.73,K*63
$IIMWV,040,R,17.68,N,A*2F
$IIRMC,203248.00,A,3754.33,N,12222.73,W,6.10,119,,015,E,N*0A
$IIHDG,109,,,015,E*2E
$IIVHW,124,T,109,M,9.03,N,16.73,K*63
$IIMWV,070,T,12.14,N,A*24
$IIRMC,203250.00,A,3754.32,N,12222.72,W,6.00,121,,015,E,N*09
$IIHDG,109,,,015,E*2E
$IIVHW,123,T,108,M,9.15,N,16.95,K*6A
$IIMWV,070,T,12.14,N,A*24
$IIRMC,203250.00,A,3754.32,N,12222.72,W,6.00,121,,015,E,N*09
$IIHDG,104,,,015,E*23
$IIVHW,118,T,103,M,9.15,N,16.95,K*69
$IIMWV,048,R,17.47,N,A*2A
$IIRMC,203254.00,A,3754.32,N,12222.72,W,6.10,124,,015,E,N*09
$IIHDG,098,,,015,E*27
$IIVHW,118,T,103,M,9.15,N,16.95,K*69
$IIMWV,087,T,13.43,N,A*2F
$IIRMC,203254.00,A,3754.32,N,12222.72,W,6.10,124,,015,E,N*09
$IIHDG,098,,,015,E*27
$IIVHW,112,T,097,M,9.15,N,16.95,K*6F
$IIMWV,087,T,13.43,N,A*2F
$IIRMC,203256.00,A,3754.32,N,12222.71,W,6.10,121,,015,E,N*0D
$IIHDG,095,,,015,E*2A
$IIVHW,110,T,095,M,9.11,N,16.88,K*67
$IIMWV,059,R,16.28,N,A*22
$IIRMC,203258.00,A,3754.32,N,12222.71,W,6.10,117,,015,E,N*06
$IIHDG,093,,,015,E*2C
$IIVHW,110,T,095,M,9.11,N,16.88,K*67
$IIMWV,059,R,16.28,N,A*22
$IIRMC,203258.00,A,3754.32,N,12222.71,W,6.10,117,,015,E,N*06
$IIHDG,093,,,015,E*2C
$IIVHW,108,T,093,M,9.03,N,16.73,K*6F
$IIMWV,095,T,14.48,N,A*20
$IIRMC,203302.00,A,3754.32,N,12222.70,W,6.10,115,,015,E,N*0B
$IIHDG,093,,,015,E*2C
$IIVHW,108,T,093,M,9.05,N,16.77,K*6D
$IIMWV,060,R,16.73,N,A*26
$IIRMC,203304.00,A,3754.31,N,12222.70,W,6.10,113,,015,E,N*08
$IIHDG,094,,,015,E*2B
$IIVHW,108,T,093,M,9.05,N,16.77,K*6D
$IIMWV,092,T,14.57,N,A*29
$IIRMC,203304.00,A,3754.31,N,12222.70,W,6.10,113,,015,E,N*08
$IIHDG,094,,,015,E*2B
$IIVHW,109,T,094,M,9.09,N,16.84,K*6B
$IIMWV,092,T,14.57,N,A*29
$IIRMC,203306.00,A,3754.31,N,12222.69,W,6.10,112,,015,E,N*03
$IIHDG,095,,,015,E*2A
$IIVHW,110,T,095,M,9.21,N,17.06,K*63
$IIMWV,057,R,16.60,N,A*20
$IIRMC,203308.00,A,3754.31,N,12222.69,W,6.10,111,,015,E,N*0E
$IIHDG,094,,,015,E*2B
$IIVHW,109,T,094,M,9.36,N,17.35,K*6C
$IIMWV,095,T,14.34,N,A*2B
$IIRMC,203312.00,A,3754.31,N,12222.68,W,6.16,112,,015,E,N*01
$IIHDG,092,,,015,E*2D
$IIVHW,109,T,094,M,9.36,N,17.35,K*6C
$IIMWV,062,R,16.03,N,A*23
$IIRMC,203314.00,A,3754.31,N,12222.68,W,6.20,112,,015,E,N*02
$IIHDG,092,,,015,E*2D
$IIVHW,107,T,092,M,9.36,N,17.35,K*64
$IIMWV,062,R,16.03,N,A*23
$IIRMC,203314.00,A,3754.31,N,12222.68,W,6.20,112,,015,E,N*02
$IIHDG,090,,,015,E*2F
$IIVHW,105,T,090,M,9.34,N,17.31,K*62
$IIMWV,100,T,14.81,N,A*28
$IIRMC,203316.00,A,3754.31,N,12222.67,W,6.10,110,,015,E,N*0E
$IIHDG,089,,,015,E*27
$IIVHW,105,T,090,M,9.34,N,17.31,K*62
$IIMWV,065,R,15.84,N,A*28
$IIRMC,203318.00,A,3754.31,N,12222.67,W,6.10,109,,015,E,N*08
$IIHDG,089,,,015,E*27
$IIVHW,104,T,089,M,9.31,N,17.24,K*6A
$IIMWV,065,R,15.84,N,A*28
$IIRMC,203318.00,A,3754.31,N,12222.67,W,6.10,109,,015,E,N*08
$IIHDG,089,,,015,E*27
$IIVHW,104,T,089,M,9.31,N,17.24,K*6A
$IIMWV,097,T,14.24,N,A*28
$IIRMC,203322.00,A,3754.30,N,12222.66,W,6.04,107,,015,E,N*0A
$IIHDG,089,,,015,E*27
$IIVHW,104,T,089,M,9.31,N,17.24,K*6A
$IIMWV,055,R,15.92,N,A*2C
$IIRMC,203322.00,A,3754.30,N,12222.66,W,6.04,107,,015,E,N*0A
$IIHDG,089,,,015,E*27
$IIVHW,105,T,090,M,9.38,N,17.38,K*67
$IIMWV,055,R,15.92,N,A*2C
$IIRMC,203324.00,A,3754.30,N,12222.66,W,6.10,106,,015,E,N*08
$IIHDG,090,,,015,E*2F
$IIVHW,105,T,090,M,9.33,N,17.28,K*6D
$IIMWV,097,T,14.34,N,A*29
$IIRMC,203326.00,A,3754.30,N,12222.65,W,6.10,106,,015,E,N*09
$IIHDG,091,,,015,E*2E
$IIVHW,105,T,090,M,9.33,N,17.28,K*6D
$IIMWV,062,R,16.07,N,A*27
$IIRMC,203326.00,A,3754.30,N,12222.65,W,6.10,106,,015,E,N*09
$IIHDG,091,,,015,E*2E
$IIVHW,106,T,091,M,9.25,N,17.13,K*60
$IIMWV,062,R,16.07,N,A*27
$IIRMC,203330.00,A,3754.30,N,12222.64,W,6.00,107,,015,E,N*0F
$IIHDG,091,,,015,E*2E
$IIVHW,106,T,091,M,9.25,N,17.13,K*60
$IIMWV,097,T,14.30,N,A*2D
$IIRMC,203332.00,A,3754.30,N,12222.64,W,6.00,108,,015,E,N*02
$IIHDG,091,,,015,E*2E
$IIVHW,106,T,091,M,9.25,N,17.13,K*60
$IIMWV,097,T,14.30,N,A*2D
$IIRMC,203332.00,A,3754.30,N,12222.64,W,6.00,108,,015,E,N*02
$IIHDG,091,,,015,E*2E
$IIVHW,106,T,091,M,9.21,N,17.06,K*60
$IIMWV,062,R,16.26,N,A*24
$IIRMC,203334.00,A,3754.30,N,12222.64,W,6.00,108,,015,E,N*04
$IIHDG,091,,,015,E*2E
$IIVHW,106,T,091,M,9.23,N,17.10,K*65
$IIMWV,097,T,15.10,N,A*2E
$IIRMC,203336.00,A,3754.30,N,12222.63,W,5.90,107,,015,E,N*04
$IIHDG,090,,,015,E*2F
$IIVHW,106,T,091,M,9.23,N,17.10,K*65
$IIMWV,097,T,15.10,N,A*2E
$IIRMC,203336.00,A,3754.30,N,12222.63,W,5.90,107,,015,E,N*04
$IIHDG,090,,,015,E*2F
$IIVHW,105,T,090,M,9.17,N,16.99,K*60
$IIMWV,062,R,16.87,N,A*2F
$IIRMC,203340.00,A,3754.30,N,12222.63,W,5.94,107,,015,E,N*01
$IIHDG,089,,,015,E*27
$IIVHW,104,T,089,M,9.21,N,17.06,K*6B
$IIMWV,095,T,14.59,N,A*20
$IIRMC,203342.00,A,3754.29,N,12222.62,W,5.90,107,,015,E,N*0E
$IIHDG,088,,,015,E*26
$IIVHW,103,T,088,M,9.25,N,17.13,K*6D
$IIMWV,059,R,16.38,N,A*23
$IIRMC,203344.00,A,3754.29,N,12222.62,W,5.90,107,,015,E,N*08
$IIHDG,088,,,015,E*26
$IIVHW,103,T,088,M,9.23,N,17.10,K*68
$IIMWV,094,T,13.89,N,A*2B
$IIRMC,203348.00,A,3754.29,N,12222.61,W,6.00,106,,015,E,N*0C
$IIHDG,087,,,015,E*29
$IIVHW,102,T,087,M,9.29,N,17.20,K*6F
$IIMWV,062,R,16.30,N,A*23
$IIRMC,203350.00,A,3754.29,N,12222.60,W,5.98,105,,015,E,N*05
$IIHDG,087,,,015,E*29
$IIVHW,102,T,087,M,9.29,N,17.20,K*6F
$IIMWV,097,T,14.67,N,A*2F
$IIRMC,203350.00,A,3754.29,N,12222.60,W,5.98,105,,015,E,N*05
$IIHDG,087,,,015,E*29
$IIVHW,102,T,087,M,9.25,N,17.13,K*63
$IIMWV,097,T,14.67,N,A*2F
$IIRMC,203352.00,A,3754.29,N,12222.60,W,6.00,105,,015,E,N*05
$IIHDG,087,,,015,E*29
$IIVHW,102,T,087,M,9.27,N,17.17,K*65
$IIMWV,066,R,16.36,N,A*21
$IIRMC,203354.00,A,3754.29,N,12222.60,W,6.00,105,,015,E,N*03
$IIHDG,086,,,015,E*28
$IIVHW,102,T,087,M,9.27,N,17.17,K*65
$IIMWV,104,T,15.31,N,A*26
$IIRMC,203354.00,A,3754.29,N,12222.60,W,6.00,105,,015,E,N*03
$IIHDG,086,,,015,E*28
$IIVHW,101,T,086,M,9.27,N,17.17,K*67
$IIMWV,104,T,15.31,N,A*26
$IIRMC,203358.00,A,3754.29,N,12222.59,W,6.00,105,,015,E,N*05
$IIHDG,085,,,015,E*2B
$IIVHW,100,T,085,M,9.34,N,17.31,K*63
$IIMWV,071,R,16.73,N,A*26
$IIRMC,203400.00,A,3754.29,N,12222.58,W,6.00,103,,015,E,N*08
$IIHDG,085,,,015,E*2B
$IIVHW,100,T,085,M,9.34,N,17.31,K*63
$IIMWV,071,R,16.73,N,A*26
$IIRMC,203400.00,A,3754.29,N,12222.58,W,6.00,103,,015,E,N*08
$IIHDG,085,,,015,E*2B
$IIVHW,100,T,085,M,9.34,N,17.31,K*63
$IIMWV,104,T,15.80,N,A*2C
$IIRMC,203402.00,A,3754.29,N,12222.58,W,6.00,102,,015,E,N*0B
$IIHDG,085,,,015,E*2B
$IIVHW,100,T,085,M,9.29,N,17.20,K*6F
$IIMWV,071,R,15.74,N,A*22
$IIRMC,203406.00,A,3754.28,N,12222.57,W,6.00,102,,015,E,N*01
$IIHDG,085,,,015,E*2B
$IIVHW,100,T,085,M,9.29,N,17.20,K*6F
$IIMWV,101,T,14.81,N,A*29
$IIRMC,203406.00,A,3754.28,N,12222.57,W,6.00,102,,015,E,N*01
$IIHDG,085,,,015,E*2B
$IIVHW,100,T,085,M,9.27,N,17.17,K*65
$IIMWV,101,T,14.81,N,A*29
$IIRMC,203408.00,A,3754.28,N,12222.57,W,5.98,103,,015,E,N*0C
$IIHDG,085,,,015,E*2B
$IIVHW,100,T,085,M,9.33,N,17.28,K*6C
$IIMWV,065,R,16.15,N,A*23
$IIRMC,203410.00,A,3754.28,N,12222.56,W,6.00,102,,015,E,N*07
$IIHDG,085,,,015,E*2B
$IIVHW,100,T,085,M,9.34,N,17.31,K*63
$IIMWV,104,T,15.58,N,A*29
$IIRMC,203412.00,A,3754.28,N,12222.56,W,6.00,102,,015,E,N*05
$IIHDG,085,,,015,E*2B
$IIVHW,100,T,085,M,9.29,N,17.20,K*6F
$IIMWV,069,R,15.70,N,A*2F
$IIRMC,203416.00,A,3754.28,N,12222.55,W,6.00,102,,015,E,N*02
$IIHDG,084,,,015,E*2A
$IIVHW,099,T,084,M,9.31,N,17.24,K*62
$IIMWV,105,T,15.68,N,A*2B
$IIRMC,203418.00,A,3754.28,N,12222.55,W,5.90,102,,015,E,N*06
$IIHDG,084,,,015,E*2A
$IIVHW,099,T,084,M,9.31,N,17.24,K*62
$IIMWV,074,R,16.40,N,A*23
$IIRMC,203420.00,A,3754.28,N,12222.54,W,5.90,102,,015,E,N*0C
$IIHDG,084,,,015,E*2A
$IIVHW,099,T,084,M,9.34,N,17.31,K*63
$IIMWV,074,R,16.40,N,A*23
$IIRMC,203420.00,A,3754.28,N,12222.54,W,5.90,102,,015,E,N*0C
$IIHDG,083,,,015,E*2D
$IIVHW,098,T,083,M,9.40,N,17.42,K*62
$IIMWV,109,T,17.08,N,A*23
$IIRMC,203422.00,A,3754.28,N,12222.54,W,5.90,102,,015,E,N*0E
$IIHDG,083,,,015,E*2D
$IIVHW,098,T,083,M,9.40,N,17.42,K*62
$IIMWV,076,R,16.26,N,A*21
$IIRMC,203426.00,A,3754.28,N,12222.53,W,5.98,102,,015,E,N*05
$IIHDG,083,,,015,E*2D
$IIVHW,098,T,083,M,9.38,N,17.38,K*60
$IIMWV,076,R,16.26,N,A*21
$IIRMC,203426.00,A,3754.28,N,12222.53,W,5.98,102,,015,E,N*05
$IIHDG,083,,,015,E*2D
$IIVHW,097,T,082,M,9.29,N,17.20,K*67
$IIMWV,107,T,15.99,N,A*27
$IIRMC,203428.00,A,3754.28,N,12222.53,W,6.00,101,,015,E,N*0A
$IIHDG,082,,,015,E*2C
$IIVHW,097,T,082,M,9.29,N,17.20,K*67
$IIMWV,072,R,15.43,N,A*25
$IIRMC,203428.00,A,3754.28,N,12222.53,W,6.00,101,,015,E,N*0A
$IIHDG,082,,,015,E*2C
$IIVHW,097,T,082,M,9.33,N,17.28,K*64
$IIMWV,072,R,15.43,N,A*25
$IIRMC,203430.00,A,3754.28,N,12222.52,W,6.00,101,,015,E,N*02
$IIHDG,082,,,015,E*2C
$IIVHW,097,T,082,M,9.34,N,17.31,K*6B
$IIMWV,111,T,16.26,N,A*27
$IIRMC,203434.00,A,3754.27,N,12222.51,W,6.00,100,,015,E,N*0B
$IIHDG,083,,,015,E*2D
$IIVHW,098,T,083,M,9.33,N,17.28,K*6A
$IIMWV,073,R,15.55,N,A*23
$IIRMC,203436.00,A,3754.27,N,12222.51,W,6.00,100,,015,E,N*09
$IIHDG,085,,,015,E*2B
$IIVHW,100,T,085,M,9.31,N,17.24,K*62
$IIMWV,103,T,15.20,N,A*21
$IIRMC,203438.00,A,3754.27,N,12222.50,W,6.00,100,,015,E,N*06
$IIHDG,086,,,015,E*28
$IIVHW,101,T,086,M,9.13,N,16.92,K*6C
$IIMWV,071,R,15.86,N,A*2F
$IIRMC,203440.00,A,3754.27,N,12222.50,W,6.00,101,,015,E,N*08
$IIHDG,088,,,015,E*26
$IIVHW,103,T,088,M,9.15,N,16.95,K*61
$IIMWV,103,T,15.35,N,A*25
$IIRMC,203444.00,A,3754.27,N,12222.49,W,5.98,104,,015,E,N*03
$IIHDG,089,,,015,E*27
$IIVHW,103,T,088,M,9.15,N,16.95,K*61
$IIMWV,103,T,15.35,N,A*25
$IIRMC,203444.00,A,3754.27,N,12222.49,W,5.98,104,,015,E,N*03
$IIHDG,089,,,015,E*27
$IIVHW,104,T,089,M,9.05,N,16.77,K*6A
$IIMWV,066,R,16.13,N,A*26
$IIRMC,203446.00,A,3754.27,N,12222.49,W,6.00,105,,015,E,N*02
$IIHDG,090,,,015,E*2F
$IIVHW,104,T,089,M,9.05,N,16.77,K*6A
$IIMWV,096,T,14.53,N,A*29
$IIRMC,203448.00,A,3754.27,N,12222.48,W,6.00,106,,015,E,N*0E
$IIHDG,090,,,015,E*2F
$IIVHW,106,T,091,M,9.21,N,17.06,K*60
$IIMWV,096,T,14.53,N,A*29
$IIRMC,203448.00,A,3754.27,N,12222.48,W,6.00,106,,015,E,N*0E
$IIHDG,092,,,015,E*2D
$IIVHW,107,T,092,M,9.27,N,17.17,K*64
$IIMWV,063,R,16.38,N,A*2A
$IIRMC,203452.00,A,3754.27,N,12222.48,W,6.00,107,,015,E,N*04
$IIHDG,093,,,015,E*2C
$IIVHW,107,T,092,M,9.27,N,17.17,K*64
$IIMWV,096,T,14.63,N,A*2A
$IIRMC,203454.00,A,3754.27,N,12222.47,W,5.98,109,,015,E,N*01
$IIHDG,093,,,015,E*2C
$IIVHW,108,T,093,M,9.29,N,17.20,K*60
$IIMWV,096,T,14.63,N,A*2A
$IIRMC,203454.00,A,3754.27,N,12222.47,W,5.98,109,,015,E,N*01
$IIHDG,093,,,015,E*2C
$IIVHW,108,T,093,M,9.29,N,17.20,K*60
$IIMWV,061,R,16.28,N,A*29
$IIRMC,203456.00,A,3754.26,N,12222.47,W,6.00,110,,015,E,N*08
$IIHDG,090,,,015,E*2F
$IIVHW,108,T,093,M,9.29,N,17.20,K*60
$IIMWV,061,R,16.28,N,A*29
$IIRMC,203456.00,A,3754.26,N,12222.47,W,6.00,110,,015,E,N*08
$IIHDG,090,,,015,E*2F
$IIVHW,105,T,090,M,9.27,N,17.17,K*64
$IIMWV,100,T,14.98,N,A*20
$IIRMC,203458.00,A,3754.26,N,12222.47,W,6.00,111,,015,E,N*07
$IIHDG,088,,,015,E*26
$IIVHW,103,T,088,M,9.29,N,17.20,K*61
$IIMWV,068,R,16.09,N,A*23
$IIRMC,203502.00,A,3754.26,N,12222.46,W,6.00,111,,015,E,N*08
$IIHDG,086,,,015,E*28
$IIVHW,101,T,086,M,9.36,N,17.35,K*67
$IIMWV,107,T,15.90,N,A*2E
$IIRMC,203504.00,A,3754.26,N,12222.45,W,6.00,108,,015,E,N*05
$IIHDG,085,,,015,E*2B
$IIVHW,100,T,085,M,9.31,N,17.24,K*62
$IIMWV,068,R,15.49,N,A*24
$IIRMC,203506.00,A,3754.26,N,12222.45,W,6.00,107,,015,E,N*08
$IIHDG,084,,,015,E*2A
$IIVHW,099,T,084,M,9.31,N,17.24,K*62
$IIMWV,106,T,14.46,N,A*25
$IIRMC,203510.00,A,3754.26,N,12222.44,W,6.00,106,,015,E,N*0F
$IIHDG,083,,,015,E*2D
$IIVHW,099,T,084,M,9.31,N,17.24,K*62
$IIMWV,072,R,15.10,N,A*23
$IIRMC,203510.00,A,3754.26,N,12222.44,W,6.00,106,,015,E,N*0F
$IIHDG,083,,,015,E*2D
$IIVHW,098,T,083,M,9.21,N,17.06,K*65
$IIMWV,072,R,15.10,N,A*23
$IIRMC,203512.00,A,3754.26,N,12222.44,W,5.98,104,,015,E,N*0D
$IIHDG,083,,,015,E*2D
$IIVHW,098,T,083,M,9.21,N,17.06,K*65
$IIMWV,072,R,15.10,N,A*23
$IIRMC,203512.00,A,3754.26,N,12222.44,W,5.98,104,,015,E,N*0D
$IIHDG,083,,,015,E*2D
$IIVHW,098,T,083,M,9.31,N,17.24,K*64
$IIMWV,108,T,14.88,N,A*29
$IIRMC,203514.00,A,3754.26,N,12222.43,W,6.00,103,,015,E,N*09
$IIHDG,082,,,015,E*2C
$IIVHW,097,T,082,M,9.31,N,17.24,K*6A
$IIMWV,074,R,15.10,N,A*25
$IIRMC,203516.00,A,3754.25,N,12222.43,W,6.00,102,,015,E,N*09
$IIHDG,082,,,015,E*2C
$IIVHW,097,T,082,M,9.19,N,17.02,K*64
$IIMWV,109,T,15.23,N,A*28
$IIRMC,203520.00,A,3754.25,N,12222.42,W,6.00,101,,015,E,N*0E
$IIHDG,082,,,015,E*2C
$IIVHW,097,T,082,M,9.19,N,17.02,K*64
$IIMWV,074,R,15.22,N,A*24
$IIRMC,203520.00,A,3754.25,N,12222.42,W,6.00,101,,015,E,N*0E
$IIHDG,082,,,015,E*2C
$IIVHW,097,T,082,M,9.29,N,17.20,K*67
$IIMWV,074,R,15.22,N,A*24
$IIRMC,203522.00,A,3754.25,N,12222.41,W,6.00,101,,015,E,N*0F
$IIHDG,081,,,015,E*2F
$IIVHW,096,T,081,M,9.31,N,17.24,K*68
$IIMWV,108,T,15.90,N,A*21
$IIRMC,203524.00,A,3754.25,N,12222.41,W,6.00,100,,015,E,N*08
$IIHDG,081,,,015,E*2F
$IIVHW,096,T,081,M,9.31,N,17.24,K*68
$IIMWV,074,R,14.77,N,A*25
$IIRMC,203526.00,A,3754.25,N,12222.41,W,6.00,100,,015,E,N*0A
$IIHDG,081,,,015,E*2F
$IIVHW,096,T,081,M,9.33,N,17.28,K*66
$IIMWV,074,R,14.77,N,A*25
$IIRMC,203526.00,A,3754.25,N,12222.41,W,6.00,100,,015,E,N*0A
$IIHDG,081,,,015,E*2F
$IIVHW,096,T,081,M,9.31,N,17.24,K*68
$IIMWV,113,T,15.31,N,A*20
$IIRMC,203530.00,A,3754.25,N,12222.40,W,5.98,101,,015,E,N*0F
$IIHDG,080,,,015,E*2E
$IIVHW,096,T,081,M,9.31,N,17.24,K*68
$IIMWV,078,R,14.55,N,A*29
$IIRMC,203532.00,A,3754.25,N,12222.40,W,6.00,099,,015,E,N*0F
$IIHDG,080,,,015,E*2E
$IIVHW,095,T,080,M,9.33,N,17.28,K*64
$IIMWV,078,R,14.55,N,A*29
$IIRMC,203532.00,A,3754.25,N,12222.40,W,6.00,099,,015,E,N*0F
$IIHDG,080,,,015,E*2E
$IIVHW,095,T,080,M,9.44,N,17.49,K*63
$IIMWV,112,T,15.41,N,A*26
$IIRMC,203534.00,A,3754.25,N,12222.39,W,6.00,099,,015,E,N*07
$IIHDG,080,,,015,E*2E
$IIVHW,095,T,080,M,9.44,N,17.49,K*63
$IIMWV,071,R,14.22,N,A*20
$IIRMC,203534.00,A,3754.25,N,12222.39,W,6.00,099,,015,E,N*07
$IIHDG,080,,,015,E*2E
$IIVHW,095,T,080,M,9.33,N,17.28,K*64
$IIMWV,071,R,14.22,N,A*20
$IIRMC,203536.00,A,3754.25,N,12222.39,W,6.00,099,,015,E,N*05
$IIHDG,080,,,015,E*2E
$IIVHW,095,T,080,M,9.27,N,17.17,K*6D
$IIMWV,110,T,15.02,N,A*23
$IIRMC,203540.00,A,3754.25,N,12222.38,W,6.00,099,,015,E,N*05
$IIHDG,080,,,015,E*2E
$IIVHW,095,T,080,M,9.23,N,17.10,K*6E
$IIMWV,076,R,14.73,N,A*23
$IIRMC,203542.00,A,3754.25,N,12222.37,W,6.00,098,,015,E,N*09
$IIHDG,080,,,015,E*2E
$IIVHW,095,T,080,M,9.29,N,17.20,K*67
$IIMWV,116,T,15.74,N,A*24
$IIRMC,203544.00,A,3754.25,N,12222.37,W,6.00,098,,015,E,N*0F
$IIHDG,081,,,015,E*2F
$IIVHW,096,T,081,M,9.36,N,17.35,K*6F
$IIMWV,079,R,14.53,N,A*2E
$IIRMC,203548.00,A,3754.25,N,12222.36,W,6.00,098,,015,E,N*02
$IIHDG,082,,,015,E*2C
$IIVHW,097,T,082,M,9.40,N,17.42,K*6C
$IIMWV,116,T,16.07,N,A*23
$IIRMC,203550.00,A,3754.24,N,12222.36,W,6.00,099,,015,E,N*0B
$IIHDG,081,,,015,E*2F
$IIVHW,096,T,081,M,9.38,N,17.38,K*6C
$IIMWV,085,R,14.77,N,A*2B
$IIRMC,203552.00,A,3754.24,N,12222.35,W,6.00,099,,015,E,N*0A
$IIHDG,080,,,015,E*2E
$IIVHW,096,T,081,M,9.38,N,17.38,K*6C
$IIMWV,121,T,17.43,N,A*26
$IIRMC,203552.00,A,3754.24,N,12222.35,W,6.00,099,,015,E,N*0A
$IIHDG,080,,,015,E*2E
$IIVHW,095,T,080,M,9.36,N,17.35,K*6D
$IIMWV,121,T,17.43,N,A*26
$IIRMC,203554.00,A,3754.24,N,12222.35,W,6.00,099,,015,E,N*0C
$IIHDG,078,,,015,E*29
$IIVHW,093,T,078,M,9.33,N,17.28,K*65
$IIMWV,088,R,14.24,N,A*20
$IIRMC,203558.00,A,3754.24,N,12222.34,W,6.04,099,,015,E,N*05
$IIHDG,077,,,015,E*26
$IIVHW,093,T,078,M,9.33,N,17.28,K*65
$IIMWV,088,R,14.24,N,A*20
$IIRMC,203558.00,A,3754.24,N,12222.34,W,6.04,099,,015,E,N*05
$IIHDG,077,,,015,E*26
$IIVHW,092,T,077,M,9.29,N,17.20,K*68
$IIMWV,126,T,17.92,N,A*2D
$IIRMC,203600.00,A,3754.24,N,12222.34,W,6.00,097,,015,E,N*01
$IIHDG,076,,,015,E*27
$IIVHW,091,T,076,M,9.29,N,17.20,K*6A
$IIMWV,094,R,15.08,N,A*22
$IIRMC,203602.00,A,3754.24,N,12222.33,W,6.00,096,,015,E,N*05
$IIHDG,076,,,015,E*27
$IIVHW,091,T,076,M,9.29,N,17.20,K*6A
$IIMWV,094,R,15.08,N,A*22
$IIRMC,203602.00,A,3754.24,N,12222.33,W,6.00,096,,015,E,N*05
$IIHDG,076,,,015,E*27
$IIVHW,091,T,076,M,9.25,N,17.13,K*66
$IIMWV,122,T,18.25,N,A*2A
$IIRMC,203606.00,A,3754.24,N,12222.32,W,6.00,095,,015,E,N*03
$IIHDG,078,,,015,E*29
$IIVHW,093,T,078,M,9.23,N,17.10,K*6F
$IIMWV,090,R,15.45,N,A*2F
$IIRMC,203608.00,A,3754.24,N,12222.32,W,6.10,094,,015,E,N*0D
$IIHDG,081,,,015,E*2F
$IIVHW,096,T,081,M,9.25,N,17.13,K*69
$IIMWV,120,T,18.46,N,A*2D
$IIRMC,203610.00,A,3754.24,N,12222.32,W,6.10,095,,015,E,N*05
$IIHDG,083,,,015,E*2D
$IIVHW,099,T,084,M,9.19,N,17.02,K*6C
$IIMWV,084,R,15.51,N,A*2F
$IIRMC,203612.00,A,3754.24,N,12222.31,W,6.00,096,,015,E,N*06
$IIHDG,083,,,015,E*2D
$IIVHW,098,T,083,M,9.23,N,17.10,K*60
$IIMWV,117,T,16.73,N,A*21
$IIRMC,203616.00,A,3754.24,N,12222.30,W,6.04,100,,015,E,N*09
$IIHDG,081,,,015,E*2F
$IIVHW,098,T,083,M,9.23,N,17.10,K*60
$IIMWV,086,R,14.15,N,A*2C
$IIRMC,203616.00,A,3754.24,N,12222.30,W,6.04,100,,015,E,N*09
$IIHDG,081,,,015,E*2F
$IIVHW,096,T,081,M,9.33,N,17.28,K*66
$IIMWV,086,R,14.15,N,A*2C
$IIRMC,203618.00,A,3754.24,N,12222.30,W,6.10,100,,015,E,N*02
$IIHDG,079,,,015,E*28
$IIVHW,094,T,079,M,9.38,N,17.38,K*69
$IIMWV,124,T,16.89,N,A*24
$IIRMC,203620.00,A,3754.24,N,12222.29,W,6.10,099,,015,E,N*00
$IIHDG,077,,,015,E*26
$IIVHW,094,T,079,M,9.38,N,17.38,K*69
$IIMWV,091,R,13.80,N,A*21
$IIRMC,203620.00,A,3754.24,N,12222.29,W,6.10,099,,015,E,N*00
$IIHDG,077,,,015,E*26
$IIVHW,092,T,077,M,9.38,N,17.38,K*61
$IIMWV,091,R,13.80,N,A*21
$IIRMC,203624.00,A,3754.24,N,12222.29,W,6.10,098,,015,E,N*05
$IIHDG,076,,,015,E*27
$IIVHW,091,T,076,M,9.42,N,17.45,K*64
$IIMWV,126,T,17.66,N,A*26
$IIRMC,203626.00,A,3754.24,N,12222.28,W,6.10,096,,015,E,N*08
$IIHDG,076,,,015,E*27
$IIVHW,091,T,076,M,9.42,N,17.45,K*64
$IIMWV,126,T,17.66,N,A*26
$IIRMC,203626.00,A,3754.24,N,12222.28,W,6.10,096,,015,E,N*08
$IIHDG,076,,,015,E*27
$IIVHW,091,T,076,M,9.36,N,17.35,K*60
$IIMWV,093,R,14.55,N,A*2C
$IIRMC,203628.00,A,3754.24,N,12222.28,W,6.10,094,,015,E,N*04
$IIHDG,079,,,015,E*28
$IIVHW,091,T,076,M,9.36,N,17.35,K*60
$IIMWV,121,T,16.28,N,A*2A
$IIRMC,203628.00,A,3754.24,N,12222.28,W,6.10,094,,015,E,N*04
$IIHDG,079,,,015,E*28
$IIVHW,095,T,080,M,9.42,N,17.45,K*69
$IIMWV,121,T,16.28,N,A*2A
$IIRMC,203630.00,A,3754.24,N,12222.27,W,6.10,094,,015,E,N*02
$IIHDG,082,,,015,E*2C
$IIVHW,095,T,080,M,9.42,N,17.45,K*69
$IIMWV,085,R,14.22,N,A*2B
$IIRMC,203630.00,A,3754.24,N,12222.27,W,6.10,094,,015,E,N*02
$IIHDG,082,,,015,E*2C
$IIVHW,097,T,082,M,9.38,N,17.38,K*6E
$IIMWV,085,R,14.22,N,A*2B
$IIRMC,203634.00,A,3754.23,N,12222.26,W,6.10,094,,015,E,N*00
$IIHDG,081,,,015,E*2F
$IIVHW,096,T,081,M,9.36,N,17.35,K*6F
$IIMWV,120,T,17.70,N,A*27
$IIRMC,203636.00,A,3754.23,N,12222.26,W,6.10,098,,015,E,N*0E
$IIHDG,079,,,015,E*28
$IIVHW,096,T,081,M,9.36,N,17.35,K*6F
$IIMWV,120,T,17.70,N,A*27
$IIRMC,203636.00,A,3754.23,N,12222.26,W,6.10,098,,015,E,N*0E
$IIHDG,079,,,015,E*28
$IIVHW,094,T,079,M,9.36,N,17.35,K*6A
$IIMWV,089,R,15.02,N,A*24
$IIRMC,203638.00,A,3754.23,N,12222.25,W,6.20,098,,015,E,N*00
$IIHDG,079,,,015,E*28
$IIVHW,094,T,079,M,9.46,N,17.53,K*6D
$IIMWV,122,T,18.15,N,A*29
$IIRMC,203640.00,A,3754.23,N,12222.25,W,6.20,098,,015,E,N*0F
$IIHDG,078,,,015,E*29
$IIVHW,093,T,078,M,9.48,N,17.56,K*60
$IIMWV,089,R,15.53,N,A*20
$IIRMC,203644.00,A,3754.23,N,12222.24,W,6.25,098,,015,E,N*0F
$IIHDG,078,,,015,E*29
$IIVHW,093,T,078,M,9.54,N,17.67,K*6F
$IIMWV,118,T,17.96,N,A*24
$IIRMC,203646.00,A,3754.23,N,12222.24,W,6.29,097,,015,E,N*0E
$IIHDG,078,,,015,E*29
$IIVHW,093,T,078,M,9.60,N,17.78,K*66
$IIMWV,085,R,15.90,N,A*23
$IIRMC,203648.00,A,3754.23,N,12222.23,W,6.29,097,,015,E,N*07
$IIHDG,079,,,015,E*28
$IIVHW,093,T,078,M,9.60,N,17.78,K*66
$IIMWV,117,T,18.01,N,A*2A
$IIRMC,203652.00,A,3754.23,N,12222.22,W,6.39,097,,015,E,N*0C
$IIHDG,079,,,015,E*28
$IIVHW,094,T,079,M,9.56,N,17.71,K*6C
$IIMWV,117,T,18.01,N,A*2A
$IIRMC,203652.00,A,3754.23,N,12222.22,W,6.39,097,,015,E,N*0C
$IIHDG,079,,,015,E*28
$IIVHW,094,T,079,M,9.58,N,17.74,K*67
$IIMWV,081,R,15.80,N,A*26
$IIRMC,203654.00,A,3754.23,N,12222.22,W,6.39,097,,015,E,N*0A
$IIHDG,079,,,015,E*28
$IIVHW,094,T,079,M,9.58,N,17.74,K*67
$IIMWV,081,R,15.80,N,A*26
$IIRMC,203654.00,A,3754.23,N,12222.22,W,6.39,097,,015,E,N*0A
$IIHDG,079,,,015,E*28
$IIVHW,093,T,078,M,9.60,N,17.78,K*66
$IIMWV,116,T,17.26,N,A*21
$IIRMC,203656.00,A,3754.23,N,12222.21,W,6.39,098,,015,E,N*04
$IIHDG,078,,,015,E*29
$IIVHW,093,T,078,M,9.64,N,17.85,K*60
$IIMWV,084,R,15.27,N,A*2E
$IIRMC,203658.00,A,3754.23,N,12222.21,W,6.39,098,,015,E,N*0A
$IIHDG,077,,,015,E*26
$IIVHW,093,T,078,M,9.64,N,17.85,K*60
$IIMWV,121,T,17.76,N,A*20
$IIRMC,203658.00,A,3754.23,N,12222.21,W,6.39,098,,015,E,N*0A
$IIHDG,077,,,015,E*26
$IIVHW,091,T,076,M,9.66,N,17.89,K*62
$IIMWV,121,T,17.76,N,A*20
$IIRMC,203702.00,A,3754.23,N,12222.20,W,6.37,098,,015,E,N*0B
$IIHDG,075,,,015,E*24
$IIVHW,090,T,075,M,9.71,N,18.00,K*68
$IIMWV,091,R,14.28,N,A*24
$IIRMC,203704.00,A,3754.23,N,12222.20,W,6.39,096,,015,E,N*0D
$IIHDG,076,,,015,E*27
$IIVHW,091,T,076,M,9.66,N,17.89,K*62
$IIMWV,124,T,17.24,N,A*22
$IIRMC,203706.00,A,3754.23,N,12222.19,W,6.49,095,,015,E,N*01
$IIHDG,078,,,015,E*29
$IIVHW,093,T,078,M,9.69,N,17.96,K*6F
$IIMWV,088,R,15.04,N,A*23
$IIRMC,203708.00,A,3754.23,N,12222.19,W,6.49,094,,015,E,N*0E
$IIHDG,080,,,015,E*2E
$IIVHW,095,T,080,M,9.91,N,18.36,K*6C
$IIMWV,120,T,17.61,N,A*27
$IIRMC,203712.00,A,3754.22,N,12222.18,W,6.49,096,,015,E,N*07
$IIHDG,081,,,015,E*2F
$IIVHW,095,T,080,M,9.91,N,18.36,K*6C
$IIMWV,082,R,14.94,N,A*21
$IIRMC,203712.00,A,3754.22,N,12222.18,W,6.49,096,,015,E,N*07
$IIHDG,081,,,015,E*2F
$IIVHW,096,T,081,M,9.95,N,18.43,K*68
$IIMWV,082,R,14.94,N,A*21
$IIRMC,203714.00,A,3754.22,N,12222.17,W,6.49,097,,015,E,N*0F
$IIHDG,081,,,015,E*2F
$IIVHW,096,T,081,M,9.89,N,18.32,K*63
$IIMWV,119,T,17.12,N,A*29
$IIRMC,203716.00,A,3754.22,N,12222.17,W,6.60,098,,015,E,N*09
$IIHDG,081,,,015,E*2F
$IIVHW,096,T,081,M,9.89,N,18.32,K*63
$IIMWV,086,R,15.86,N,A*27
$IIRMC,203720.00,A,3754.22,N,12222.16,W,6.60,099,,015,E,N*0C
$IIHDG,081,,,015,E*2F
$IIVHW,096,T,081,M,9.83,N,18.21,K*6B
$IIMWV,086,R,15.86,N,A*27
$IIRMC,203720.00,A,3754.22,N,12222.16,W,6.60,099,,015,E,N*0C
$IIHDG,081,,,015,E*2F
$IIVHW,096,T,081,M,9.77,N,18.10,K*62
$IIMWV,119,T,17.63,N,A*2F
$IIRMC,203722.00,A,3754.22,N,12222.16,W,6.49,099,,015,E,N*05
$IIHDG,081,,,015,E*2F
$IIVHW,096,T,081,M,9.77,N,18.10,K*62
$IIMWV,086,R,15.20,N,A*2B
$IIRMC,203722.00,A,3754.22,N,12222.16,W,6.49,099,,015,E,N*05
$IIHDG,081,,,015,E*2F
$IIVHW,096,T,081,M,9.66,N,17.89,K*6D
$IIMWV,086,R,15.20,N,A*2B
$IIRMC,203724.00,A,3754.22,N,12222.15,W,6.49,099,,015,E,N*00
$IIHDG,082,,,015,E*2C
$IIVHW,098,T,083,M,9.62,N,17.81,K*6D
$IIMWV,119,T,17.51,N,A*2E
$IIRMC,203726.00,A,3754.22,N,12222.15,W,6.49,099,,015,E,N*02
$IIHDG,087,,,015,E*29
$IIVHW,098,T,083,M,9.62,N,17.81,K*6D
$IIMWV,082,R,15.39,N,A*27
$IIRMC,203726.00,A,3754.22,N,12222.15,W,6.49,099,,015,E,N*02
$IIHDG,087,,,015,E*29
$IIVHW,103,T,088,M,9.62,N,17.81,K*65
$IIMWV,082,R,15.39,N,A*27
$IIRMC,203730.00,A,3754.22,N,12222.14,W,6.43,101,,015,E,N*0E
$IIHDG,090,,,015,E*2F
$IIVHW,105,T,090,M,9.42,N,17.45,K*60
$IIMWV,112,T,17.26,N,A*25
$IIRMC,203732.00,A,3754.22,N,12222.13,W,6.39,102,,015,E,N*05
$IIHDG,088,,,015,E*26
$IIVHW,105,T,090,M,9.42,N,17.45,K*60
$IIMWV,112,T,17.26,N,A*25
$IIRMC,203732.00,A,3754.22,N,12222.13,W,6.39,102,,015,E,N*05
$IIHDG,088,,,015,E*26
$IIVHW,102,T,087,M,9.73,N,18.03,K*6E
$IIMWV,087,R,15.86,N,A*26
$IIRMC,203734.00,A,3754.22,N,12222.13,W,6.39,106,,015,E,N*07
$IIHDG,083,,,015,E*2D
$IIVHW,097,T,082,M,9.89,N,18.32,K*61
$IIMWV,123,T,18.48,N,A*20
$IIRMC,203738.00,A,3754.21,N,12222.12,W,6.39,107,,015,E,N*08
$IIHDG,078,,,015,E*29
$IIVHW,093,T,078,M,9.97,N,18.46,K*6C
$IIMWV,094,R,14.73,N,A*2F
$IIRMC,203740.00,A,3754.21,N,12222.12,W,6.29,103,,015,E,N*02
$IIHDG,076,,,015,E*27
$IIVHW,093,T,078,M,9.97,N,18.46,K*6C
$IIMWV,129,T,19.28,N,A*2D
$IIRMC,203740.00,A,3754.21,N,12222.12,W,6.29,103,,015,E,N*02
$IIHDG,076,,,015,E*27
$IIVHW,091,T,076,M,9.97,N,18.46,K*60
$IIMWV,129,T,19.28,N,A*2D
$IIRMC,203742.00,A,3754.21,N,12222.11,W,6.20,100,,015,E,N*09
$IIHDG,074,,,015,E*25
$IIVHW,089,T,074,M,9.91,N,18.36,K*6A
$IIMWV,101,R,15.06,N,A*21
$IIRMC,203744.00,A,3754.21,N,12222.11,W,6.20,097,,015,E,N*00
$IIHDG,072,,,015,E*23
$IIVHW,089,T,074,M,9.91,N,18.36,K*6A
$IIMWV,132,T,20.11,N,A*27
$IIRMC,203744.00,A,3754.21,N,12222.11,W,6.20,097,,015,E,N*00
$IIHDG,072,,,015,E*23
$IIVHW,086,T,071,M,9.97,N,18.46,K*61
$IIMWV,132,T,20.11,N,A*27
$IIRMC,203748.00,A,3754.21,N,12222.10,W,6.10,096,,015,E,N*0F
$IIHDG,067,,,015,E*27
$IIVHW,081,T,066,M,9.97,N,18.46,K*60
$IIMWV,105,R,14.69,N,A*2D
$IIRMC,203750.00,A,3754.21,N,12222.10,W,6.10,093,,015,E,N*03
$IIHDG,062,,,015,E*22
$IIVHW,081,T,066,M,9.97,N,18.46,K*60
$IIMWV,105,R,14.69,N,A*2D
$IIRMC,203750.00,A,3754.21,N,12222.10,W,6.10,093,,015,E,N*03
$IIHDG,062,,,015,E*22
$IIVHW,076,T,061,M,9.93,N,18.39,K*63
$IIMWV,136,T,19.90,N,A*20
$IIRMC,203752.00,A,3754.21,N,12222.09,W,6.10,091,,015,E,N*0B
$IIHDG,057,,,015,E*24
$IIVHW,071,T,056,M,9.89,N,18.32,K*60
$IIMWV,111,R,14.07,N,A*20
$IIRMC,203756.00,A,3754.21,N,12222.08,W,6.10,087,,015,E,N*09
$IIHDG,055,,,015,E*26
$IIVHW,071,T,056,M,9.89,N,18.32,K*60
$IIMWV,138,T,19.55,N,A*27
$IIRMC,203756.00,A,3754.21,N,12222.08,W,6.10,087,,015,E,N*09
$IIHDG,055,,,015,E*26
$IIVHW,070,T,055,M,9.85,N,18.25,K*68
$IIMWV,138,T,19.55,N,A*27
$IIRMC,203758.00,A,3754.22,N,12222.08,W,6.00,078,,015,E,N*05
$IIHDG,056,,,015,E*25
$IIVHW,071,T,056,M,9.91,N,18.36,K*6D
$IIMWV,109,R,13.93,N,A*23
$IIRMC,203800.00,A,3754.22,N,12222.08,W,6.00,076,,015,E,N*09
$IIHDG,060,,,015,E*20
$IIVHW,071,T,056,M,9.91,N,18.36,K*6D
$IIMWV,109,R,13.93,N,A*23
$IIRMC,203800.00,A,3754.22,N,12222.08,W,6.00,076,,015,E,N*09
$IIHDG,060,,,015,E*20
$IIVHW,075,T,060,M,9.89,N,18.32,K*61
$IIMWV,137,T,20.27,N,A*27
$IIRMC,203802.00,A,3754.22,N,12222.07,W,6.00,076,,015,E,N*04
$IIHDG,061,,,015,E*21
$IIVHW,077,T,062,M,9.87,N,18.28,K*64
$IIMWV,107,R,14.44,N,A*20
$IIRMC,203806.00,A,3754.22,N,12222.06,W,5.98,079,,015,E,N*0C
$IIHDG,063,,,015,E*23
$IIVHW,078,T,063,M,9.83,N,18.21,K*67
$IIMWV,136,T,19.16,N,A*2E
$IIRMC,203808.00,A,3754.22,N,12222.06,W,6.00,079,,015,E,N*00
$IIHDG,064,,,015,E*24
$IIVHW,079,T,064,M,9.87,N,18.28,K*6C
$IIMWV,105,R,13.14,N,A*20
$IIRMC,203810.00,A,3754.22,N,12222.05,W,6.10,081,,015,E,N*0C
$IIHDG,066,,,015,E*26
$IIVHW,081,T,066,M,9.77,N,18.10,K*6D
$IIMWV,135,T,18.40,N,A*2F
$IIRMC,203812.00,A,3754.22,N,12222.05,W,6.10,082,,015,E,N*0D
$IIHDG,067,,,015,E*27
$IIVHW,081,T,066,M,9.77,N,18.10,K*6D
$IIMWV,103,R,14.73,N,A*20
$IIRMC,203816.00,A,3754.22,N,12222.04,W,6.10,084,,015,E,N*0E
$IIHDG,067,,,015,E*27
$IIVHW,082,T,067,M,9.81,N,18.18,K*6E
$IIMWV,103,R,14.73,N,A*20
$IIRMC,203816.00,A,3754.22,N,12222.04,W,6.10,084,,015,E,N*0E
$IIHDG,068,,,015,E*28
$IIVHW,083,T,068,M,9.85,N,18.25,K*6A
$IIMWV,133,T,19.39,N,A*26
$IIRMC,203818.00,A,3754.22,N,12222.04,W,6.10,085,,015,E,N*01
$IIHDG,069,,,015,E*29
$IIVHW,083,T,068,M,9.85,N,18.25,K*6A
$IIMWV,101,R,14.63,N,A*23
$IIRMC,203818.00,A,3754.22,N,12222.04,W,6.10,085,,015,E,N*01
$IIHDG,069,,,015,E*29
$IIVHW,085,T,070,M,9.79,N,18.14,K*64
$IIMWV,101,R,14.63,N,A*23
$IIRMC,203820.00,A,3754.22,N,12222.03,W,6.10,086,,015,E,N*0E
$IIHDG,071,,,015,E*20
$IIVHW,086,T,071,M,9.81,N,18.18,K*6D
$IIMWV,130,T,19.49,N,A*22
$IIRMC,203824.00,A,3754.22,N,12222.03,W,6.10,087,,015,E,N*0B
$IIHDG,073,,,015,E*22
$IIVHW,086,T,071,M,9.81,N,18.18,K*6D
$IIMWV,095,R,14.32,N,A*2B
$IIRMC,203824.00,A,3754.22,N,12222.03,W,6.10,087,,015,E,N*0B
$IIHDG,073,,,015,E*22
$IIVHW,088,T,073,M,9.75,N,18.07,K*64
$IIMWV,095,R,14.32,N,A*2B
$IIRMC,203826.00,A,3754.22,N,12222.02,W,6.00,089,,015,E,N*07
$IIHDG,074,,,015,E*25
$IIVHW,090,T,075,M,7.85,N,14.54,K*60
$IIMWV,121,T,18.42,N,A*28
$IIRMC,203828.00,A,3754.22,N,12222.02,W,6.00,090,,015,E,N*01
$IIHDG,076,,,015,E*27
$IIVHW,090,T,075,M,7.85,N,14.54,K*60
$IIMWV,096,R,16.48,N,A*27
$IIRMC,203828.00,A,3754.22,N,12222.02,W,6.00,090,,015,E,N*01
$IIHDG,076,,,015,E*27
$IIVHW,091,T,076,M,5.42,N,10.04,K*6A
$IIMWV,096,R,16.48,N,A*27
$IIRMC,203830.00,A,3754.22,N,12222.01,W,6.00,091,,015,E,N*0A
$IIHDG,077,,,015,E*26
$IIVHW,092,T,077,M,4.72,N,8.74,K*54
$IIMWV,107,T,18.25,N,A*2D
$IIRMC,203834.00,A,3754.22,N,12222.00,W,6.04,092,,015,E,N*08
$IIHDG,078,,,015,E*29
$IIVHW,093,T,078,M,4.58,N,8.49,K*5C
$IIMWV,093,R,17.26,N,A*2B
$IIRMC,203836.00,A,3754.22,N,12222.00,W,6.10,093,,015,E,N*0E
$IIHDG,078,,,015,E*29
$IIVHW,093,T,078,M,4.47,N,8.27,K*5A
$IIMWV,105,T,16.89,N,A*27
$IIRMC,203838.00,A,3754.22,N,12222.00,W,6.10,094,,015,E,N*07
$IIHDG,078,,,015,E*29
$IIVHW,093,T,078,M,4.49,N,8.31,K*53
$IIMWV,093,R,16.44,N,A*2E
$IIRMC,203842.00,A,3754.22,N,12221.99,W,6.00,094,,015,E,N*08
$IIHDG,078,,,015,E*29
$IIVHW,093,T,078,M,4.49,N,8.31,K*53
$IIMWV,110,T,17.80,N,A*2B
$IIRMC,203844.00,A,3754.22,N,12221.98,W,6.00,095,,015,E,N*0E
$IIHDG,078,,,015,E*29
$IIVHW,093,T,078,M,4.47,N,8.27,K*5A
$IIMWV,110,T,17.80,N,A*2B
$IIRMC,203844.00,A,3754.22,N,12221.98,W,6.00,095,,015,E,N*0E
$IIHDG,078,,,015,E*29
$IIVHW,093,T,078,M,4.45,N,8.24,K*5B
$IIMWV,097,R,16.75,N,A*28
$IIRMC,203846.00,A,3754.22,N,12221.98,W,6.00,095,,015,E,N*0C
$IIHDG,075,,,015,E*24
$IIVHW,093,T,078,M,4.45,N,8.24,K*5B
$IIMWV,113,T,18.17,N,A*29
$IIRMC,203848.00,A,3754.22,N,12221.98,W,6.00,095,,015,E,N*02
$IIHDG,075,,,015,E*24
$IIVHW,090,T,075,M,4.39,N,8.13,K*5A
$IIMWV,113,T,18.17,N,A*29
$IIRMC,203848.00,A,3754.22,N,12221.98,W,6.00,095,,015,E,N*02
$IIHDG,072,,,015,E*23
$IIVHW,087,T,072,M,4.33,N,8.02,K*51
$IIMWV,101,R,16.05,N,A*21
$IIRMC,203852.00,A,3754.22,N,12221.97,W,5.94,094,,015,E,N*09
$IIHDG,071,,,015,E*20
$IIVHW,087,T,072,M,4.33,N,8.02,K*51
$IIMWV,115,T,16.79,N,A*29
$IIRMC,203852.00,A,3754.22,N,12221.97,W,5.94,094,,015,E,N*09
$IIHDG,071,,,015,E*20
$IIVHW,086,T,071,M,4.35,N,8.06,K*51
$IIMWV,115,T,16.79,N,A*29
$IIRMC,203854.00,A,3754.22,N,12221.96,W,5.90,092,,015,E,N*0C
$IIHDG,071,,,015,E*20
$IIVHW,086,T,071,M,4.33,N,8.02,K*53
$IIMWV,098,R,15.51,N,A*22
$IIRMC,203856.00,A,3754.22,N,12221.96,W,5.90,091,,015,E,N*0D
$IIHDG,072,,,015,E*23
$IIVHW,086,T,071,M,4.33,N,8.02,K*53
$IIMWV,098,R,15.51,N,A*22
$IIRMC,203856.00,A,3754.22,N,12221.96,W,5.90,091,,015,E,N*0D
$IIHDG,072,,,015,E*23
$IIVHW,087,T,072,M,4.35,N,8.06,K*53
$IIMWV,111,T,16.48,N,A*2F
$IIRMC,203858.00,A,3754.22,N,12221.95,W,5.90,091,,015,E,N*00
$IIHDG,073,,,015,E*22
$IIVHW,088,T,073,M,4.35,N,8.06,K*5D
$IIMWV,093,R,15.74,N,A*2E
$IIRMC,203902.00,A,3754.22,N,12221.95,W,5.83,091,,015,E,N*0C
$IIHDG,074,,,015,E*25
$IIVHW,088,T,073,M,4.35,N,8.06,K*5D
$IIMWV,109,T,16.46,N,A*28
$IIRMC,203902.00,A,3754.22,N,12221.95,W,5.83,091,,015,E,N*0C
$IIHDG,074,,,015,E*25
$IIVHW,090,T,075,M,4.50,N,8.35,K*51
$IIMWV,109,T,16.46,N,A*28
$IIRMC,203904.00,A,3754.22,N,12221.94,W,5.90,092,,015,E,N*0A
$IIHDG,076,,,015,E*27
$IIVHW,091,T,076,M,7.28,N,13.50,K*66
$IIMWV,092,R,16.01,N,A*2E
$IIRMC,203906.00,A,3754.22,N,12221.94,W,5.90,092,,015,E,N*08
$IIHDG,078,,,015,E*29
$IIVHW,091,T,076,M,7.28,N,13.50,K*66
$IIMWV,092,R,16.01,N,A*2E
$IIRMC,203906.00,A,3754.22,N,12221.94,W,5.90,092,,015,E,N*08
$IIHDG,078,,,015,E*29
$IIVHW,093,T,078,M,8.41,N,15.58,K*64
$IIMWV,120,T,20.07,N,A*23
$IIRMC,203910.00,A,3754.22,N,12221.93,W,5.90,093,,015,E,N*09
$IIHDG,080,,,015,E*2E
$IIVHW,095,T,080,M,6.41,N,11.88,K*62
$IIMWV,092,R,17.88,N,A*2E
$IIRMC,203912.00,A,3754.21,N,12221.93,W,5.90,096,,015,E,N*0D
$IIHDG,081,,,015,E*2F
$IIVHW,096,T,081,M,5.11,N,9.46,K*5D
$IIMWV,106,T,18.97,N,A*25
$IIRMC,203914.00,A,3754.21,N,12221.92,W,5.90,097,,015,E,N*0B
$IIHDG,082,,,015,E*2C
$IIVHW,097,T,082,M,5.09,N,9.43,K*53
$IIMWV,093,R,17.10,N,A*2E
$IIRMC,203916.00,A,3754.21,N,12221.92,W,5.90,098,,015,E,N*06
$IIHDG,083,,,015,E*2D
$IIVHW,098,T,083,M,5.22,N,9.68,K*5D
$IIMWV,107,T,17.43,N,A*22
$IIRMC,203920.00,A,3754.21,N,12221.91,W,5.83,100,,015,E,N*02
$IIHDG,084,,,015,E*2A
$IIVHW,098,T,083,M,5.22,N,9.68,K*5D
$IIMWV,088,R,16.32,N,A*25
$IIRMC,203920.00,A,3754.21,N,12221.91,W,5.83,100,,015,E,N*02
$IIHDG,084,,,015,E*2A
$IIVHW,099,T,084,M,5.28,N,9.79,K*51
$IIMWV,088,R,16.32,N,A*25
$IIRMC,203922.00,A,3754.21,N,12221.91,W,5.79,100,,015,E,N*05
$IIHDG,085,,,015,E*2B
$IIVHW,100,T,085,M,5.28,N,9.79,K*51
$IIMWV,107,T,17.59,N,A*29
$IIRMC,203924.00,A,3754.21,N,12221.90,W,5.90,101,,015,E,N*04
$IIHDG,085,,,015,E*2B
$IIVHW,100,T,085,M,5.28,N,9.79,K*51
$IIMWV,107,T,17.59,N,A*29
$IIRMC,203924.00,A,3754.21,N,12221.90,W,5.90,101,,015,E,N*04
$IIHDG,085,,,015,E*2B
$IIVHW,100,T,085,M,5.22,N,9.68,K*5B
$IIMWV,090,R,17.37,N,A*28
$IIRMC,203928.00,A,3754.21,N,12221.89,W,5.90,102,,015,E,N*03
$IIHDG,086,,,015,E*28
$IIVHW,101,T,086,M,5.24,N,9.72,K*54
$IIMWV,107,T,18.34,N,A*2D
$IIRMC,203930.00,A,3754.21,N,12221.89,W,5.90,103,,015,E,N*0B
$IIHDG,086,,,015,E*28
$IIVHW,101,T,086,M,5.24,N,9.72,K*54
$IIMWV,107,T,18.34,N,A*2D
$IIRMC,203930.00,A,3754.21,N,12221.89,W,5.90,103,,015,E,N*0B
$IIHDG,086,,,015,E*28
$IIVHW,101,T,086,M,5.24,N,9.72,K*54
$IIMWV,092,R,18.77,N,A*21
$IIRMC,203932.00,A,3754.21,N,12221.88,W,5.90,103,,015,E,N*08
$IIHDG,086,,,015,E*28
$IIVHW,101,T,086,M,5.26,N,9.75,K*51
$IIMWV,107,T,20.07,N,A*26
$IIRMC,203934.00,A,3754.21,N,12221.88,W,5.90,105,,015,E,N*08
$IIHDG,085,,,015,E*2B
$IIVHW,100,T,085,M,5.22,N,9.68,K*5B
$IIMWV,092,R,18.66,N,A*21
$IIRMC,203938.00,A,3754.20,N,12221.87,W,5.94,106,,015,E,N*0D
$IIHDG,084,,,015,E*2A
$IIVHW,098,T,083,M,5.24,N,9.72,K*50
$IIMWV,108,T,17.76,N,A*2B
$IIRMC,203940.00,A,3754.20,N,12221.87,W,6.00,106,,015,E,N*0C
$IIHDG,076,,,015,E*27
$IIVHW,091,T,076,M,5.24,N,9.72,K*53
$IIMWV,096,R,15.64,N,A*2A
$IIRMC,203942.00,A,3754.20,N,12221.86,W,6.00,106,,015,E,N*0F
$IIHDG,065,,,015,E*25
$IIVHW,091,T,076,M,5.24,N,9.72,K*53
$IIMWV,123,T,14.36,N,A*25
$IIRMC,203942.00,A,3754.20,N,12221.86,W,6.00,106,,015,E,N*0F
$IIHDG,065,,,015,E*25
$IIVHW,080,T,065,M,5.19,N,9.61,K*5D
$IIMWV,123,T,14.36,N,A*25
$IIRMC,203944.00,A,3754.20,N,12221.86,W,6.00,103,,015,E,N*0C
$IIHDG,053,,,015,E*20
$IIVHW,066,T,051,M,5.22,N,9.68,K*53
$IIMWV,110,R,11.76,N,A*22
$IIRMC,203948.00,A,3754.20,N,12221.85,W,5.94,092,,015,E,N*04
$IIHDG,042,,,015,E*20
$IIVHW,066,T,051,M,5.22,N,9.68,K*53
$IIMWV,137,T,14.77,N,A*25
$IIRMC,203950.00,A,3754.20,N,12221.85,W,5.90,083,,015,E,N*09
$IIHDG,042,,,015,E*20
$IIVHW,055,T,040,M,5.34,N,9.89,K*5B
$IIMWV,137,T,14.77,N,A*25
$IIRMC,203950.00,A,3754.20,N,12221.85,W,5.90,083,,015,E,N*09
$IIHDG,035,,,015,E*20
$IIVHW,049,T,034,M,5.40,N,10.00,K*6F
$IIMWV,123,R,11.15,N,A*27
$IIRMC,203952.00,A,3754.21,N,12221.84,W,5.79,073,,015,E,N*03
$IIHDG,030,,,015,E*25
$IIVHW,049,T,034,M,5.40,N,10.00,K*6F
$IIMWV,143,T,15.35,N,A*21
$IIRMC,203952.00,A,3754.21,N,12221.84,W,5.79,073,,015,E,N*03
$IIHDG,030,,,015,E*25
$IIVHW,044,T,029,M,5.44,N,10.07,K*6D
$IIMWV,143,T,15.35,N,A*21
$IIRMC,203956.00,A,3754.21,N,12221.84,W,5.79,067,,015,E,N*02
$IIHDG,027,,,015,E*23
$IIVHW,041,T,026,M,5.44,N,10.07,K*67
$IIMWV,128,R,12.12,N,A*28
$IIRMC,203958.00,A,3754.21,N,12221.83,W,6.00,055,,015,E,N*07
$IIHDG,024,,,015,E*20
$IIVHW,039,T,024,M,5.44,N,10.07,K*6A
$IIMWV,146,T,16.40,N,A*25
$IIRMC,204000.00,A,3754.22,N,12221.83,W,6.10,052,,015,E,N*01
$IIHDG,023,,,015,E*27
$IIVHW,038,T,023,M,5.44,N,10.07,K*6C
$IIMWV,132,R,12.71,N,A*26
$IIRMC,204002.00,A,3754.22,N,12221.83,W,6.10,049,,015,E,N*09
$IIHDG,022,,,015,E*26
$IIVHW,037,T,022,M,5.46,N,10.11,K*67
$IIMWV,146,T,16.93,N,A*2B
$IIRMC,204006.00,A,3754.22,N,12221.82,W,6.20,046,,015,E,N*00
$IIHDG,021,,,015,E*25
$IIVHW,037,T,022,M,5.46,N,10.11,K*67
$IIMWV,136,R,12.98,N,A*25
$IIRMC,204008.00,A,3754.23,N,12221.82,W,6.20,046,,015,E,N*0F
$IIHDG,021,,,015,E*25
$IIVHW,035,T,020,M,5.52,N,10.22,K*62
$IIMWV,136,R,12.98,N,A*25
$IIRMC,204008.00,A,3754.23,N,12221.82,W,6.20,046,,015,E,N*0F
$IIHDG,019,,,015,E*2E
$IIVHW,034,T,019,M,5.52,N,10.22,K*69
$IIMWV,153,T,17.57,N,A*26
$IIRMC,204010.00,A,3754.23,N,12221.82,W,6.29,045,,015,E,N*0C
$IIHDG,017,,,015,E*20
$IIVHW,034,T,019,M,5.52,N,10.22,K*69
$IIMWV,146,R,12.53,N,A*25
$IIRMC,204014.00,A,3754.24,N,12221.81,W,6.29,043,,015,E,N*0A
$IIHDG,017,,,015,E*20
$IIVHW,032,T,017,M,5.50,N,10.18,K*6A
$IIMWV,146,R,12.53,N,A*25
$IIRMC,204014.00,A,3754.24,N,12221.81,W,6.29,043,,015,E,N*0A
$IIHDG,015,,,015,E*22
$IIVHW,030,T,015,M,5.52,N,10.22,K*61
$IIMWV,156,T,16.30,N,A*23
$IIRMC,204016.00,A,3754.24,N,12221.81,W,6.29,039,,015,E,N*05
$IIHDG,014,,,015,E*23
$IIVHW,030,T,015,M,5.52,N,10.22,K*61
$IIMWV,145,R,11.46,N,A*21
$IIRMC,204016.00,A,3754.24,N,12221.81,W,6.29,039,,015,E,N*05
$IIHDG,014,,,015,E*23
$IIVHW,029,T,014,M,5.52,N,10.22,K*68
$IIMWV,145,R,11.46,N,A*21
$IIRMC,204018.00,A,3754.24,N,12221.80,W,6.29,038,,015,E,N*0B
$IIHDG,012,,,015,E*25
$IIVHW,027,T,012,M,5.53,N,10.26,K*65
$IIMWV,157,T,15.64,N,A*20
$IIRMC,204020.00,A,3754.24,N,12221.80,W,6.39,037,,015,E,N*0E
$IIHDG,010,,,015,E*27
$IIVHW,025,T,010,M,5.48,N,10.15,K*6F
$IIMWV,150,R,10.45,N,A*27
$IIRMC,204024.00,A,3754.25,N,12221.80,W,6.37,034,,015,E,N*06
$IIHDG,008,,,015,E*2E
$IIVHW,023,T,008,M,5.48,N,10.15,K*60
$IIMWV,163,T,15.29,N,A*2E
$IIRMC,204026.00,A,3754.25,N,12221.80,W,6.39,032,,015,E,N*0C
$IIHDG,007,,,015,E*21
$IIVHW,023,T,008,M,5.48,N,10.15,K*60
$IIMWV,163,T,15.29,N,A*2E
$IIRMC,204026.00,A,3754.25,N,12221.80,W,6.39,032,,015,E,N*0C
$IIHDG,007,,,015,E*21
$IIVHW,022,T,007,M,5.48,N,10.15,K*6E
$IIMWV,155,R,9.99,N,A*1B
$IIRMC,204028.00,A,3754.26,N,12221.79,W,6.29,030,,015,E,N*04
$IIHDG,007,,,015,E*21
$IIVHW,022,T,007,M,5.48,N,10.15,K*6E
$IIMWV,163,T,14.26,N,A*20
$IIRMC,204030.00,A,3754.26,N,12221.79,W,6.29,029,,015,E,N*05
$IIHDG,007,,,015,E*21
$IIVHW,023,T,008,M,5.50,N,10.18,K*64
$IIMWV,163,T,14.26,N,A*20
$IIRMC,204030.00,A,3754.26,N,12221.79,W,6.29,029,,015,E,N*05
$IIHDG,008,,,015,E*2E
$IIVHW,024,T,009,M,5.46,N,10.11,K*6C
$IIMWV,155,R,9.07,N,A*1C
$IIRMC,204034.00,A,3754.27,N,12221.79,W,6.29,028,,015,E,N*01
$IIHDG,009,,,015,E*2F
$IIVHW,024,T,009,M,5.63,N,10.43,K*6C
$IIMWV,164,T,14.50,N,A*26
$IIRMC,204036.00,A,3754.27,N,12221.78,W,6.29,029,,015,E,N*03
$IIHDG,009,,,015,E*2F
$IIVHW,024,T,009,M,6.90,N,12.77,K*66
$IIMWV,153,R,8.76,N,A*1D
$IIRMC,204038.00,A,3754.27,N,12221.78,W,6.29,029,,015,E,N*0D
$IIHDG,008,,,015,E*2E
$IIVHW,024,T,009,M,6.90,N,12.77,K*66
$IIMWV,166,T,16.03,N,A*20
$IIRMC,204038.00,A,3754.27,N,12221.78,W,6.29,029,,015,E,N*0D
$IIHDG,008,,,015,E*2E
$IIVHW,023,T,008,M,7.93,N,14.68,K*6A
$IIMWV,166,T,16.03,N,A*20
$IIRMC,204042.00,A,3754.28,N,12221.78,W,6.29,029,,015,E,N*0F
$IIHDG,007,,,015,E*21
$IIVHW,022,T,007,M,8.49,N,15.73,K*67
$IIMWV,151,R,7.67,N,A*10
$IIRMC,204044.00,A,3754.28,N,12221.78,W,6.29,029,,015,E,N*09
$IIHDG,006,,,015,E*20
$IIVHW,022,T,007,M,8.49,N,15.73,K*67
$IIMWV,167,T,17.00,N,A*23
$IIRMC,204046.00,A,3754.28,N,12221.77,W,6.39,028,,015,E,N*04
$IIHDG,006,,,015,E*20
$IIVHW,021,T,006,M,8.84,N,16.38,K*68
$IIMWV,167,T,17.00,N,A*23
$IIRMC,204046.00,A,3754.28,N,12221.77,W,6.39,028,,015,E,N*04
$IIHDG,006,,,015,E*20
$IIVHW,021,T,006,M,9.03,N,16.73,K*69
$IIMWV,151,R,8.84,N,A*12
$IIRMC,204048.00,A,3754.29,N,12221.77,W,6.39,028,,015,E,N*0B
$IIHDG,005,,,015,E*23
$IIVHW,021,T,006,M,9.03,N,16.73,K*69
$IIMWV,164,T,17.41,N,A*25
$IIRMC,204048.00,A,3754.29,N,12221.77,W,6.39,028,,015,E,N*0B
$IIHDG,005,,,015,E*23
$IIVHW,020,T,005,M,9.11,N,16.88,K*6C
$IIMWV,164,T,17.41,N,A*25
$IIRMC,204052.00,A,3754.29,N,12221.77,W,6.37,028,,015,E,N*0E
$IIHDG,005,,,015,E*23
$IIVHW,019,T,004,M,9.29,N,17.20,K*6F
$IIMWV,150,R,9.21,N,A*1D
$IIRMC,204054.00,A,3754.30,N,12221.76,W,6.39,026,,015,E,N*01
$IIHDG,004,,,015,E*22
$IIVHW,019,T,004,M,9.29,N,17.20,K*6F
$IIMWV,167,T,19.28,N,A*27
$IIRMC,204054.00,A,3754.30,N,12221.76,W,6.39,026,,015,E,N*01
$IIHDG,004,,,015,E*22
$IIVHW,019,T,004,M,9.27,N,17.17,K*65
$IIMWV,167,T,19.28,N,A*27
$IIRMC,204056.00,A,3754.30,N,12221.76,W,6.39,026,,015,E,N*03
$IIHDG,003,,,015,E*25
$IIVHW,018,T,003,M,9.25,N,17.13,K*65
$IIMWV,153,R,10.22,N,A*25
$IIRMC,204100.00,A,3754.31,N,12221.76,W,6.39,025,,015,E,N*03
$IIHDG,002,,,015,E*24
$IIVHW,018,T,003,M,9.25,N,17.13,K*65
$IIMWV,153,R,10.22,N,A*25
$IIRMC,204100.00,A,3754.31,N,12221.76,W,6.39,025,,015,E,N*03
$IIHDG,002,,,015,E*24
$IIVHW,017,T,002,M,9.21,N,17.06,K*6B
$IIMWV,168,T,19.14,N,A*27
$IIRMC,204102.00,A,3754.31,N,12221.76,W,6.37,024,,015,E,N*0E
$IIHDG,001,,,015,E*27
$IIVHW,016,T,001,M,9.19,N,17.02,K*66
$IIMWV,153,R,10.20,N,A*27
$IIRMC,204104.00,A,3754.31,N,12221.75,W,6.39,023,,015,E,N*02
$IIHDG,000,,,015,E*26
$IIVHW,016,T,001,M,9.19,N,17.02,K*66
$IIMWV,153,R,10.20,N,A*27
$IIRMC,204104.00,A,3754.31,N,12221.75,W,6.39,023,,015,E,N*02
$IIHDG,000,,,015,E*26
$IIVHW,015,T,000,M,9.15,N,16.95,K*67
$IIMWV,167,T,19.57,N,A*2F
$IIRMC,204106.00,A,3754.32,N,12221.75,W,6.39,023,,015,E,N*03
$IIHDG,000,,,015,E*26
$IIVHW,014,T,000,M,9.05,N,16.77,K*6B
$IIMWV,165,R,11.15,N,A*25
$IIRMC,204110.00,A,3754.32,N,12221.75,W,6.39,023,,015,E,N*04
$IIHDG,359,,,015,E*29
$IIVHW,014,T,359,M,9.03,N,16.73,K*66
$IIMWV,173,T,19.18,N,A*21
$IIRMC,204112.00,A,3754.33,N,12221.75,W,6.49,022,,015,E,N*01
$IIHDG,358,,,015,E*28
$IIVHW,014,T,359,M,9.03,N,16.73,K*66
$IIMWV,174,R,9.68,N,A*16
$IIRMC,204112.00,A,3754.33,N,12221.75,W,6.49,022,,015,E,N*01
$IIHDG,358,,,015,E*28
$IIVHW,013,T,358,M,9.11,N,16.88,K*67
$IIMWV,174,R,9.68,N,A*16
$IIRMC,204114.00,A,3754.33,N,12221.75,W,6.49,021,,015,E,N*04
$IIHDG,357,,,015,E*27
$IIVHW,012,T,357,M,9.07,N,16.81,K*67
$IIMWV,176,T,18.15,N,A*28
$IIRMC,204116.00,A,3754.33,N,12221.75,W,6.49,020,,015,E,N*07
$IIHDG,357,,,015,E*27
$IIVHW,012,T,357,M,9.07,N,16.81,K*67
$IIMWV,184,R,8.18,N,A*1F
$IIRMC,204120.00,A,3754.34,N,12221.74,W,6.53,019,,015,E,N*05
$IIHDG,357,,,015,E*27
$IIVHW,012,T,357,M,9.07,N,16.81,K*67
$IIMWV,184,R,8.18,N,A*1F
$IIRMC,204120.00,A,3754.34,N,12221.74,W,6.53,019,,015,E,N*05
$IIHDG,356,,,015,E*26
$IIVHW,011,T,356,M,9.60,N,17.78,K*63
$IIMWV,177,T,16.96,N,A*2C
$IIRMC,204122.00,A,3754.34,N,12221.74,W,6.49,019,,015,E,N*0C
$IIHDG,355,,,015,E*25
$IIVHW,011,T,356,M,9.60,N,17.78,K*63
$IIMWV,177,T,16.96,N,A*2C
$IIRMC,204122.00,A,3754.34,N,12221.74,W,6.49,019,,015,E,N*0C
$IIHDG,355,,,015,E*25
$IIVHW,010,T,355,M,12.57,N,23.29,K*5C
$IIMWV,181,R,7.56,N,A*1F
$IIRMC,204124.00,A,3754.35,N,12221.74,W,6.60,018,,015,E,N*01
$IIHDG,354,,,015,E*24
$IIVHW,009,T,354,M,14.30,N,26.49,K*51
$IIMWV,180,T,24.04,N,A*2E
$IIRMC,204128.00,A,3754.35,N,12221.74,W,6.60,017,,015,E,N*02
$IIHDG,353,,,015,E*23
$IIVHW,008,T,353,M,15.47,N,28.65,K*56
$IIMWV,195,R,8.00,N,A*16
$IIRMC,204130.00,A,3754.36,N,12221.74,W,6.70,015,,015,E,N*0B
$IIHDG,352,,,015,E*22
$IIVHW,007,T,352,M,16.15,N,29.91,K*56
$IIMWV,185,T,24.55,N,A*2F
$IIRMC,204132.00,A,3754.36,N,12221.74,W,6.70,014,,015,E,N*08
$IIHDG,351,,,015,E*21
$IIVHW,005,T,350,M,16.54,N,30.63,K*56
$IIMWV,197,R,7.95,N,A*17
$IIRMC,204134.00,A,3754.37,N,12221.73,W,6.70,013,,015,E,N*0F
$IIHDG,349,,,015,E*28
$IIVHW,005,T,350,M,16.54,N,30.63,K*56
$IIMWV,185,T,25.01,N,A*2F
$IIRMC,204138.00,A,3754.37,N,12221.73,W,6.80,010,,015,E,N*0F
$IIHDG,349,,,015,E*28
$IIVHW,004,T,349,M,16.87,N,31.24,K*53
$IIMWV,185,T,25.01,N,A*2F
$IIRMC,204138.00,A,3754.37,N,12221.73,W,6.80,010,,015,E,N*0F
$IIHDG,348,,,015,E*29
$IIVHW,003,T,348,M,17.16,N,31.78,K*55
$IIMWV,199,R,7.77,N,A*15
$IIRMC,204140.00,A,3754.38,N,12221.73,W,6.80,009,,015,E,N*07
$IIHDG,347,,,015,E*26
$IIVHW,003,T,348,M,17.16,N,31.78,K*55
$IIMWV,186,T,24.43,N,A*2B
$IIRMC,204140.00,A,3754.38,N,12221.73,W,6.80,009,,015,E,N*07
$IIHDG,347,,,015,E*26
$IIVHW,002,T,347,M,17.08,N,31.64,K*59
$IIMWV,186,T,24.43,N,A*2B
$IIRMC,204142.00,A,3754.38,N,12221.73,W,6.90,008,,015,E,N*05
$IIHDG,346,,,015,E*27
$IIVHW,001,T,346,M,17.20,N,31.86,K*5D
$IIMWV,202,R,7.01,N,A*15
$IIRMC,204146.00,A,3754.39,N,12221.73,W,6.90,007,,015,E,N*0F
$IIHDG,345,,,015,E*24
$IIVHW,001,T,346,M,17.20,N,31.86,K*5D
$IIMWV,190,T,24.10,N,A*2A
$IIRMC,204146.00,A,3754.39,N,12221.73,W,6.90,007,,015,E,N*0F
$IIHDG,345,,,015,E*24
$IIVHW,000,T,345,M,17.18,N,31.82,K*50
$IIMWV,190,T,24.10,N,A*2A
$IIRMC,204148.00,A,3754.39,N,12221.73,W,6.95,005,,015,E,N*06
$IIHDG,345,,,015,E*24
$IIVHW,000,T,345,M,17.41,N,32.25,K*52
$IIMWV,205,R,8.35,N,A*1A
$IIRMC,204150.00,A,3754.40,N,12221.73,W,6.99,003,,015,E,N*0B
$IIHDG,345,,,015,E*24
$IIVHW,000,T,345,M,17.74,N,32.86,K*5D
$IIMWV,187,T,25.63,N,A*29
$IIRMC,204152.00,A,3754.40,N,12221.73,W,6.99,003,,015,E,N*09
$IIHDG,345,,,015,E*24
$IIVHW,001,T,346,M,17.72,N,32.83,K*5C
$IIMWV,210,R,8.02,N,A*1A
$IIRMC,204156.00,A,3754.41,N,12221.73,W,6.99,003,,015,E,N*0C
$IIHDG,346,,,015,E*27
$IIVHW,001,T,346,M,17.72,N,32.83,K*5C
$IIMWV,210,R,8.02,N,A*1A
$IIRMC,204156.00,A,3754.41,N,12221.73,W,6.99,003,,015,E,N*0C
$IIHDG,346,,,015,E*27
$IIVHW,001,T,346,M,18.17,N,33.65,K*59
$IIMWV,188,T,25.38,N,A*28
$IIRMC,204158.00,A,3754.41,N,12221.73,W,6.90,004,,015,E,N*0C
$IIHDG,346,,,015,E*27
$IIVHW,001,T,346,M,18.17,N,33.65,K*59
$IIMWV,203,R,7.75,N,A*17
$IIRMC,204200.00,A,3754.42,N,12221.73,W,6.90,004,,015,E,N*01
$IIHDG,346,,,015,E*27
$IIVHW,001,T,346,M,18.00,N,33.33,K*5C
$IIMWV,203,R,7.75,N,A*17
$IIRMC,204200.00,A,3754.42,N,12221.73,W,6.90,004,,015,E,N*01
$IIHDG,346,,,015,E*27
$IIVHW,001,T,346,M,17.98,N,33.29,K*59
$IIMWV,184,T,25.75,N,A*2D
$IIRMC,204202.00,A,3754.42,N,12221.73,W,6.80,004,,015,E,N*02
$IIHDG,347,,,015,E*26
$IIVHW,001,T,346,M,17.98,N,33.29,K*59
