$IIMWV,010,R,12.6,N,A*17
$IIMWV,010,T,12.8,N,A*1F
$IIRMB,A,0.23,R,,BAYBDG  ,,,,,008.10,001,,V,A*7B
$IIRMC,000610,A,3739.852,N,12222.813,W,,,290310,15,E,A*30
$IIVHW,,,271,M,00.0,N,,*60
$IIVLW,00000,N,000.0,N*53
$IIVWR,010,R,12.6,N,,,,*65
$IIGLL,3739.852,N,12222.813,W,000610,A,A*4F
$IIHDG,271,,,15,E*12
$IIMTW,+15.5,C*39
$IIMWV,009,R,12.5,N,A*1C
$IIMWV,010,T,12.6,N,A*11
$IIRMC,000611,A,3739.852,N,12222.813,W,,,290310,15,E,A*31
$IIVHW,,,271,M,00.0,N,,*60
$IIVLW,00000,N,000.0,N*53
$IIVWR,009,R,12.5,N,,,,*6E
$IIGLL,3739.852,N,12222.813,W,000611,A,A*4E
$IIHDG,271,,,15,E*12
$IIMTW,+15.5,C*39
$IIMWV,006,R,12.4,N,A*12
$IIMWV,009,T,12.5,N,A*1A
$IIRMB,A,0.23,R,,BAYBDG  ,,,,,008.10,001,,V,A*7B
$IIRMC,000612,A,3739.852,N,12222.813,W,,,290310,15,E,A*32
$IIVHW,,,271,M,00.0,N,,*60
$IIVLW,00000,N,000.0,N*53
$IIVWR,006,R,12.4,N,,,,*60
$IIGLL,3739.852,N,12222.814,W,000613,A,A*4B
$IIHDG,271,,,15,E*12
$IIMTW,+15.5,C*39
$IIMWV,005,R,12.3,N,A*16
$IIMWV,006,T,12.4,N,A*14
$IIRMC,000613,A,3739.852,N,12222.814,W,,,290310,15,E,A*34
$IIVHW,,,271,M,00.0,N,,*60
$IIVLW,00000,N,000.0,N*53
$IIVWR,005,R,12.3,N,,,,*64
$IIGLL,3739.852,N,12222.814,W,000614,A,A*4C
$IIHDG,271,,,15,E*12
$IIMTW,+15.5,C*39
$IIMWV,005,R,12.3,N,A*16
$IIMWV,005,T,12.3,N,A*10
$IIRMB,A,0.23,R,,BAYBDG  ,,,,,008.10,001,,V,A*7B
$IIRMC,000614,A,3739.852,N,12222.814,W,,,290310,15,E,A*33
$IIVHW,,,271,M,00.0,N,,*60
$IIVLW,00000,N,000.0,N*53
$IIVWR,003,R,11.8,N,,,,*6A
$IIGLL,3739.852,N,12222.814,W,000615,A,A*4D
$IIHDG,271,,,15,E*12
$IIMTW,+15.5,C*39
$IIMWV,003,R,11.8,N,A*18
$IIMWV,005,T,12.3,N,A*10
$IIRMC,000615,A,3739.852,N,12222.814,W,,,290310,15,E,A*32
$IIVHW,,,271,M,00.0,N,,*60
$IIVLW,00000,N,000.0,N*53
$IIVWR,000,R,11.6,N,,,,*67
$IIGLL,3739.852,N,12222.814,W,000616,A,A*4E
$IIHDG,271,,,15,E*12
$IIMTW,+15.5,C*39
$IIMWV,000,R,11.6,N,A*15
$IIMWV,003,T,11.8,N,A*1E
$IIRMB,A,0.23,R,,BAYBDG  ,,,,,008.10,001,,V,A*7B
$IIRMC,000617,A,3739.852,N,12222.814,W,,,290310,15,E,A*30
$IIVHW,,,271,M,00.0,N,,*60
$IIVLW,00000,N,000.0,N*53
$IIVWR,000,R,11.2,N,,,,*63
$IIGLL,3739.852,N,12222.814,W,000617,A,A*4F
$IIHDG,271,,,15,E*12
$IIMTW,+15.5,C*39
$IIMWV,000,R,11.2,N,A*11
$IIMWV,000,T,11.6,N,A*13
$IIRMB,A,0.23,R,,BAYBDG  ,,,,,008.10,001,,V,A*7B
$IIRMC,000618,A,3739.852,N,12222.814,W,,,290310,15,E,A*3F
$IIVHW,,,271,M,00.0,N,,*60
$IIVLW,00000,N,000.0,N*53
$IIVWR,002,L,10.9,N,,,,*75
$IIGLL,3739.852,N,12222.814,W,000618,A,A*40
$IIHDG,271,,,15,E*12
$IIMTW,+15.5,C*39
$IIMWV,000,R,10.6,N,A*14
$IIMWV,358,T,10.9,N,A*13
$IIRMC,000619,A,3739.852,N,12222.814,W,,,290310,15,E,A*3E
$IIVHW,,,271,M,00.0,N,,*60
$IIVLW,00000,N,000.0,N*53
$IIVWR,000,R,10.6,N,,,,*66
$IIGLL,3739.852,N,12222.814,W,000619,A,A*41
$IIHDG,271,,,15,E*12
$IIMTW,+15.5,C*39
$IIMWV,359,R,09.9,N,A*1C
$IIMWV,000,T,10.6,N,A*12
$IIRMB,A,0.23,R,,BAYBDG  ,,,,,008.10,001,,V,A*7B
$IIRMC,000620,A,3739.852,N,12222.814,W,,,290310,15,E,A*34
$IIVHW,,,271,M,00.0,N,,*60
$IIVLW,00000,N,000.0,N*53
$IIVWR,001,L,09.9,N,,,,*7E
$IIGLL,3739.852,N,12222.814,W,000620,A,A*4B
$IIHDG,271,,,15,E*12
$IIMTW,+15.5,C*39
$IIMWV,357,R,09.6,N,A*1D
$IIMWV,359,T,09.9,N,A*1A
$IIRMC,000621,A,3739.852,N,12222.814,W,,,290310,15,E,A*35
$IIVHW,,,271,M,00.0,N,,*60
$IIVLW,00000,N,000.0,N*53
$IIVWR,003,L,09.6,N,,,,*73
$IIGLL,3739.852,N,12222.814,W,000621,A,A*4A
$IIHDG,271,,,15,E*12
$IIMTW,+15.5,C*39
$IIMWV,352,R,09.2,N,A*1C
$IIMWV,357,T,09.6,N,A*1B
$IIRMB,A,0.23,R,,BAYBDG  ,,,,,008.10,001,,V,A*7B
$IIRMC,000622,A,3739.852,N,12222.814,W,,,290310,15,E,A*36
$IIVHW,,,271,M,00.0,N,,*60
$IIVLW,00000,N,000.0,N*53
$IIVWR,008,L,09.2,N,,,,*7C
$IIGLL,3739.852,N,12222.814,W,000623,A,A*48
$IIHDG,271,,,15,E*12
$IIMTW,+15.5,C*39
$IIMWV,349,R,08.6,N,A*13
$IIMWV,352,T,09.2,N,A*1A
$IIRMC,000623,A,3739.852,N,12222.814,W,,,290310,15,E,A*37
$IIVHW,,,271,M,00.0,N,,*60
$IIVLW,00000,N,000.0,N*53
$IIVWR,011,L,08.6,N,,,,*71
$IIGLL,3739.852,N,12222.813,W,000624,A,A*48
$IIHDG,271,,,15,E*12
$IIMTW,+15.5,C*39
$IIMWV,351,R,08.6,N,A*1A
$IIMWV,349,T,08.6,N,A*15
$IIRMB,A,0.23,R,,BAYBDG  ,,,,,008.10,001,,V,A*7B
$IIRMC,000624,A,3739.852,N,12222.813,W,,,290310,15,E,A*37
$IIVHW,,,271,M,00.0,N,,*60
$IIVLW,00000,N,000.0,N*53
$IIVWR,009,L,07.8,N,,,,*79
$IIGLL,3739.852,N,12222.813,W,000625,A,A*49
$IIHDG,271,,,15,E*12
$IIMTW,+15.5,C*39
$IIMWV,351,R,07.8,N,A*1B
$IIMWV,351,T,08.6,N,A*1C
$IIRMC,000625,A,3739.852,N,12222.813,W,,,290310,15,E,A*36
$IIVHW,,,271,M,00.0,N,,*60
$IIVLW,00000,N,000.0,N*53
$IIVWR,002,L,08.2,N,,,,*77
$IIGLL,3739.852,N,12222.814,W,000628,A,A*43
$IIHDG,271,,,15,E*12
$IIMTW,+15.5,C*39
$IIMWV,358,R,08.2,N,A*17
$IIMWV,355,T,08.0,N,A*1E
$IIRMB,A,0.23,R,,BAYBDG  ,,,,,008.10,001,,V,A*7B
$IIRMC,000629,A,3739.851,N,12222.814,W,,,290310,15,E,A*3E
$IIVHW,,,271,M,00.0,N,,*60
$IIVLW,00000,N,000.0,N*53
$IIVWR,000,R,08.4,N,,,,*6D
$IIGLL,3739.851,N,12222.814,W,000629,A,A*41
$IIHDG,271,,,15,E*12
$IIMTW,+15.5,C*39
$IIMWV,000,R,08.4,N,A*1F
$IIMWV,358,T,08.2,N,A*11
$IIRMB,A,0.23,R,,BAYBDG  ,,,,,008.10,001,,V,A*7B
$IIRMC,000630,A,3739.851,N,12222.814,W,,,290310,15,E,A*36
$IIVHW,,,271,M,00.0,N,,*60
$IIVLW,00000,N,000.0,N*53
$IIVWR,002,R,08.5,N,,,,*6E
$IIGLL,3739.851,N,12222.814,W,000630,A,A*49
$IIHDG,271,,,15,E*12
$IIMTW,+15.5,C*39
$IIMWV,002,R,08.2,N,A*1B
$IIMWV,002,T,08.5,N,A*1A
$IIRMC,000631,A,3739.850,N,12222.814,W,,,290310,15,E,A*36
$IIVHW,,,271,M,00.0,N,,*60
$IIVLW,00000,N,000.0,N*53
$IIVWR,002,R,08.2,N,,,,*69
$IIGLL,3739.850,N,12222.814,W,000631,A,A*49
$IIHDG,271,,,15,E*12
$IIMTW,+15.5,C*39
$IIMWV,005,R,08.4,N,A*1A
$IIMWV,002,T,08.2,N,A*1D
$IIRMB,A,0.23,R,,BAYBDG  ,,,,,008.10,001,,V,A*7B
$IIRMC,000632,A,3739.850,N,12222.814,W,,,290310,15,E,A*35
$IIVHW,,,271,M,00.0,N,,*60
$IIVLW,00000,N,000.0,N*53
$IIVWR,005,R,08.4,N,,,,*68
$IIGLL,3739.850,N,12222.814,W,000632,A,A*4A
$IIHDG,271,,,15,E*12
$IIMTW,+15.5,C*39
$IIMWV,005,R,08.4,N,A*1A
$IIMWV,005,T,08.4,N,A*1C
$IIRMC,000633,A,3739.851,N,12222.814,W,,,290310,15,E,A*35
$IIVHW,,,271,M,00.0,N,,*60
$IIVLW,00000,N,000.0,N*53
$IIVWR,005,R,08.4,N,,,,*68
$IIGLL,3739.851,N,12222.814,W,000633,A,A*4A
$IIHDG,271,,,15,E*12
$IIMTW,+15.5,C*39
$IIMWV,008,R,08.5,N,A*16
$IIMWV,005,T,08.4,N,A*1C
$IIRMB,A,0.23,R,,BAYBDG  ,,,,,008.10,001,,V,A*7B
$IIRMC,000634,A,3739.850,N,12222.815,W,,,290310,15,E,A*32
$IIVHW,,,271,M,00.0,N,,*60
$IIVLW,00000,N,000.0,N*53
$IIVWR,008,R,08.5,N,,,,*64
$IIGLL,3739.850,N,12222.815,W,000635,A,A*4C
$IIHDG,271,,,15,E*12
$IIMTW,+15.5,C*39
$IIMWV,011,R,09.3,N,A*19
$IIMWV,008,T,08.5,N,A*10
$IIRMC,000635,A,3739.850,N,12222.815,W,,,290310,15,E,A*33
$IIVHW,,,271,M,00.0,N,,*60
$IIVLW,00000,N,000.0,N*53
$IIVWR,011,R,09.3,N,,,,*6B
$IIGLL,3739.849,N,12222.815,W,000636,A,A*47
$IIHDG,271,,,15,E*12
$IIMTW,+15.5,C*39
$IIMWV,005,R,09.8,N,A*17
$IIMWV,011,T,09.3,N,A*1F
$IIRMB,A,0.23,R,,BAYBDG  ,,,,,008.10,001,,V,A*7B
$IIRMC,000636,A,3739.849,N,12222.815,W,,,290310,15,E,A*38
$IIVHW,,,271,M,00.0,N,,*60
$IIVLW,00000,N,000.0,N*53
$IIVWR,003,R,10.0,N,,,,*63
$IIGLL,3739.849,N,12222.815,W,000637,A,A*46
$IIHDG,271,,,15,E*12
$IIMTW,+15.5,C*39
$IIMWV,003,R,10.0,N,A*11
$IIMWV,005,T,09.8,N,A*11
$IIRMC,000637,A,3739.849,N,12222.815,W,,,290310,15,E,A*39
$IIVHW,,,271,M,00.0,N,,*60
$IIVLW,00000,N,000.0,N*53
$IIVWR,005,R,10.2,N,,,,*67
$IIGLL,3739.849,N,12222.815,W,000638,A,A*49
$IIHDG,271,,,15,E*12
$IIMTW,+15.5,C*39
$IIMWV,005,R,10.2,N,A*15
$IIMWV,003,T,10.0,N,A*17
$IIRMB,A,0.23,R,,BAYBDG  ,,,,,008.10,001,,V,A*7B
$IIRMC,000639,A,3739.848,N,12222.815,W,,,290310,15,E,A*36
$IIVHW,,,271,M,00.0,N,,*60
$IIVLW,00000,N,000.0,N*53
$IIVWR,009,R,10.0,N,,,,*69
$IIGLL,3739.848,N,12222.815,W,000639,A,A*49
$IIHDG,271,,,15,E*12
$IIMTW,+15.5,C*39
$IIMWV,009,R,10.0,N,A*1B
$IIMWV,005,T,10.2,N,A*13
$IIRMB,A,0.23,R,,BAYBDG  ,,,,,008.10,001,,V,A*7B
$IIRMC,000640,A,3739.848,N,12222.815,W,,,290310,15,E,A*38
$IIVHW,,,271,M,00.0,N,,*60
$IIVLW,00000,N,000.0,N*53
$IIVWR,012,R,09.4,N,,,,*6F
$IIGLL,3739.848,N,12222.815,W,000640,A,A*47
$IIHDG,271,,,15,E*12
$IIMTW,+15.5,C*39
$IIMWV,012,R,09.4,N,A*1D
$IIMWV,012,T,09.4,N,A*1B
$IIRMC,000641,A,3739.848,N,12222.816,W,,,290310,15,E,A*3A
$IIVHW,,,271,M,00.0,N,,*60
$IIVLW,00000,N,000.0,N*53
$IIVWR,012,R,09.4,N,,,,*6F
$IIGLL,3739.848,N,12222.816,W,000641,A,A*45
$IIHDG,271,,,15,E*12
$IIMTW,+15.5,C*39
$IIMWV,012,R,08.7,N,A*1F
$IIMWV,012,T,09.4,N,A*1B
$IIRMB,A,0.23,R,,BAYBDG  ,,,,,008.10,001,,V,A*7B
$IIRMC,000642,A,3739.848,N,12222.816,W,,,290310,15,E,A*39
$IIVHW,,,271,M,00.0,N,,*60
$IIVLW,00000,N,000.0,N*53
$IIVWR,012,R,08.7,N,,,,*6D
$IIGLL,3739.848,N,12222.816,W,000642,A,A*46
$IIHDG,271,,,15,E*12
$IIMTW,+15.5,C*39
$IIMWV,005,R,08.1,N,A*1F
$IIMWV,012,T,08.7,N,A*19
$IIRMC,000643,A,3739.848,N,12222.815,W,,,290310,15,E,A*3B
$IIVHW,,,271,M,00.0,N,,*60
$IIVLW,00000,N,000.0,N*53
$IIVWR,005,R,08.1,N,,,,*6D
$IIGLL,3739.848,N,12222.815,W,000643,A,A*44
$IIHDG,271,,,15,E*12
$IIMTW,+15.5,C*39
$IIMWV,000,R,07.9,N,A*1D
$IIMWV,005,T,08.1,N,A*19
$IIRMB,A,0.23,R,,BAYBDG  ,,,,,008.10,001,,V,A*7B
$IIRMC,000644,A,3739.848,N,12222.815,W,,,290310,15,E,A*3C
$IIVHW,,,271,M,00.0,N,,*60
$IIVLW,00000,N,000.0,N*53
$IIVWR,000,R,07.9,N,,,,*6F
$IIGLL,3739.848,N,12222.815,W,000645,A,A*42
$IIHDG,271,,,15,E*12
$IIMTW,+15.5,C*39
$IIMWV,001,R,07.7,N,A*12
$IIMWV,000,T,07.9,N,A*1B
$IIRMC,000645,A,3739.848,N,12222.815,W,,,290310,15,E,A*3D
$IIVHW,,,271,M,00.0,N,,*60
$IIVLW,00000,N,000.0,N*53
$IIVWR,001,R,07.7,N,,,,*60
$IIGLL,3739.848,N,12222.815,W,000646,A,A*41
$IIHDG,271,,,15,E*12
$IIMTW,+15.5,C*39
$IIMWV,002,R,08.0,N,A*19
$IIMWV,001,T,07.7,N,A*14
$IIRMB,A,0.23,R,,BAYBDG  ,,,,,008.10,001,,V,A*7B
$IIRMC,000646,A,3739.848,N,12222.815,W,,,290310,15,E,A*3E
$IIVHW,,,271,M,00.0,N,,*60
$IIVLW,00000,N,000.0,N*53
$IIVWR,006,R,08.2,N,,,,*6D
$IIGLL,3739.847,N,12222.815,W,000647,A,A*4F
$IIHDG,270,,,15,E*13
$IIMTW,+15.5,C*39
$IIMWV,006,R,08.2,N,A*1F
$IIMWV,002,T,08.0,N,A*1F
$IIRMC,000647,A,3739.847,N,12222.815,W,,,290310,15,E,A*30
$IIVHW,,,270,M,00.0,N,,*61
$IIVLW,00000,N,000.0,N*53
$IIVWR,006,R,09.1,N,,,,*6F
$IIGLL,3739.847,N,12222.815,W,000649,A,A*41
$IIHDG,271,,,15,E*12
$IIMTW,+15.5,C*39
$IIMWV,006,R,09.1,N,A*1D
$IIMWV,004,T,08.4,N,A*1D
$IIRMB,A,0.23,R,,BAYBDG  ,,,,,008.10,001,,V,A*7B
$IIRMC,000650,A,3739.847,N,12222.815,W,,,290310,15,E,A*36
$IIVHW,,,271,M,00.0,N,,*60
$IIVLW,00000,N,000.0,N*53
$IIVWR,009,R,09.3,N,,,,*62
$IIGLL,3739.847,N,12222.815,W,000650,A,A*49
$IIHDG,271,,,15,E*12
$IIMTW,+15.5,C*39
$IIMWV,009,R,09.3,N,A*10
$IIMWV,006,T,09.1,N,A*1B
$IIRMC,000650,A,3739.847,N,12222.815,W,,,290310,15,E,A*36
$IIVHW,,,271,M,00.0,N,,*60
$IIVLW,00000,N,000.0,N*53
$IIVWR,010,R,09.8,N,,,,*61
$IIGLL,3739.847,N,12222.815,W,000650,A,A*49
$IIHDG,271,,,15,E*12
$IIMTW,+15.5,C*39
$IIMWV,010,R,09.8,N,A*13
$IIMWV,009,T,09.3,N,A*16
$IIRMB,A,0.23,R,,BAYBDG  ,,,,,008.10,001,,V,A*7B
$IIRMC,000652,A,3739.847,N,12222.815,W,,,290310,15,E,A*34
$IIVHW,,,271,M,00.0,N,,*60
$IIVLW,00000,N,000.0,N*53
$IIVWR,010,R,09.7,N,,,,*6E
$IIGLL,3739.847,N,12222.815,W,000652,A,A*4B
$IIHDG,271,,,15,E*12
$IIMTW,+15.5,C*39
$IIMWV,010,R,09.2,N,A*19
$IIMWV,010,T,09.7,N,A*1A
$IIRMC,000653,A,3739.847,N,12222.815,W,,,290310,15,E,A*35
$IIVHW,,,271,M,00.0,N,,*60
$IIVLW,00000,N,000.0,N*53
$IIVWR,010,R,09.2,N,,,,*6B
$IIGLL,3739.847,N,12222.815,W,000653,A,A*4A
$IIHDG,271,,,15,E*12
$IIMTW,+15.5,C*39
$IIMWV,004,R,08.5,N,A*1A
$IIMWV,010,T,09.2,N,A*1F
$IIRMB,A,0.23,R,,BAYBDG  ,,,,,008.10,001,,V,A*7B
$IIRMC,000654,A,3739.848,N,12222.815,W,,,290310,15,E,A*3D
$IIVHW,,,271,M,00.0,N,,*60
$IIVLW,00000,N,000.0,N*53
$IIVWR,004,R,08.5,N,,,,*68
$IIGLL,3739.848,N,12222.815,W,000654,A,A*42
$IIHDG,271,,,15,E*12
$IIMTW,+15.5,C*39
$IIMWV,004,R,08.1,N,A*1E
$IIMWV,004,T,08.5,N,A*1C
$IIRMC,000655,A,3739.847,N,12222.815,W,,,290310,15,E,A*33
$IIVHW,,,271,M,00.0,N,,*60
$IIVLW,00000,N,000.0,N*53
$IIVWR,004,R,08.1,N,,,,*6C
$IIGLL,3739.847,N,12222.815,W,000655,A,A*4C
$IIHDG,271,,,15,E*12
$IIMTW,+15.5,C*39
$IIMWV,004,R,08.3,N,A*1C
$IIMWV,004,T,08.1,N,A*18
$IIRMB,A,0.23,R,,BAYBDG  ,,,,,008.10,001,,V,A*7B
$IIRMC,000656,A,3739.847,N,12222.815,W,,,290310,15,E,A*30
$IIVHW,,,271,M,00.0,N,,*60
$IIVLW,00000,N,000.0,N*53
$IIVWR,004,R,08.3,N,,,,*6E
$IIGLL,3739.846,N,12222.816,W,000657,A,A*4C
$IIHDG,271,,,15,E*12
$IIMTW,+15.5,C*39
$IIMWV,005,R,09.2,N,A*1D
$IIMWV,004,T,08.3,N,A*1A
$IIRMC,000657,A,3739.846,N,12222.816,W,,,290310,15,E,A*33
$IIVHW,,,271,M,00.0,N,,*60
$IIVLW,00000,N,000.0,N*53
$IIVWR,005,R,09.2,N,,,,*6F
$IIGLL,3739.846,N,12222.816,W,000658,A,A*43
$IIHDG,270,,,15,E*13
$IIMTW,+15.5,C*39
$IIMWV,007,R,09.3,N,A*1E
$IIMWV,005,T,09.2,N,A*1B
$IIRMB,A,0.23,R,,BAYBDG  ,,,,,008.10,001,,V,A*7B
$IIRMC,000658,A,3739.846,N,12222.816,W,,,290310,15,E,A*3C
$IIVHW,,,270,M,00.0,N,,*61
$IIVLW,00000,N,000.0,N*53
$IIVWR,011,R,10.3,N,,,,*63
$IIGLL,3739.846,N,12222.816,W,000700,A,A*4F
$IIHDG,270,,,15,E*13
$IIMTW,+15.5,C*39
$IIMWV,011,R,10.3,N,A*11
$IIMWV,008,T,10.2,N,A*1E
$IIRMB,A,0.23,R,,BAYBDG  ,,,,,008.10,001,,V,A*7B
$IIRMC,000701,A,3739.847,N,12222.816,W,,,290310,15,E,A*30
$IIVHW,,,270,M,00.0,N,,*61
$IIVLW,00000,N,000.0,N*53
$IIVWR,014,R,10.7,N,,,,*62
$IIGLL,3739.847,N,12222.816,W,000701,A,A*4F
$IIHDG,270,,,15,E*13
$IIMTW,+15.5,C*39
$IIMWV,014,R,10.7,N,A*10
$IIMWV,011,T,10.3,N,A*17
$IIRMB,A,0.23,R,,BAYBDG  ,,,,,008.10,001,,V,A*7B
$IIRMC,000702,A,3739.847,N,12222.815,W,,,290310,15,E,A*30
$IIVHW,,,271,M,00.0,N,,*60
$IIVLW,00000,N,000.0,N*53
$IIVWR,011,R,10.9,N,,,,*69
$IIGLL,3739.847,N,12222.815,W,000702,A,A*4F
$IIHDG,271,,,15,E*12
$IIMTW,+15.5,C*39
$IIMWV,010,R,11.0,N,A*12
$IIMWV,011,T,10.9,N,A*1D
$IIRMC,000703,A,3739.848,N,12222.815,W,,,290310,15,E,A*3E
$IIVHW,,,271,M,00.0,N,,*60
$IIVLW,00000,N,000.0,N*53
$IIVWR,010,R,11.0,N,,,,*60
$IIGLL,3739.848,N,12222.815,W,000703,A,A*41
$IIHDG,271,,,15,E*12
$IIMTW,+15.5,C*39
$IIMWV,008,R,11.1,N,A*1A
$IIMWV,010,T,11.0,N,A*14
$IIRMB,A,0.23,R,,BAYBDG  ,,,,,008.10,001,,V,A*7B
$IIRMC,000704,A,3739.848,N,12222.815,W,,,290310,15,E,A*39
$IIVHW,,,271,M,00.0,N,,*60
$IIVLW,00000,N,000.0,N*53
$IIVWR,008,R,11.1,N,,,,*68
$IIGLL,3739.848,N,12222.815,W,000704,A,A*46
$IIHDG,271,,,15,E*12
$IIMTW,+15.5,C*39
$IIMWV,009,R,10.8,N,A*13
$IIMWV,008,T,11.1,N,A*1C
$IIRMC,000704,A,3739.848,N,12222.815,W,,,290310,15,E,A*39
$IIVHW,,,271,M,00.0,N,,*60
$IIVLW,00000,N,000.0,N*53
$IIVWR,009,R,10.8,N,,,,*61
$IIGLL,3739.848,N,12222.815,W,000704,A,A*46
$IIHDG,271,,,15,E*12
$IIMTW,+15.5,C*39
$IIMWV,007,R,10.6,N,A*13
$IIMWV,009,T,10.8,N,A*15
$IIRMB,A,0.23,R,,BAYBDG  ,,,,,008.10,001,,V,A*7B
$IIRMC,000706,A,3739.848,N,12222.815,W,,,290310,15,E,A*3B
$IIVHW,,,271,M,00.0,N,,*60
$IIVLW,00000,N,000.0,N*53
$IIVWR,007,R,10.6,N,,,,*61
$IIGLL,3739.848,N,12222.815,W,000707,A,A*45
$IIHDG,271,,,15,E*12
$IIMTW,+15.5,C*39
$IIMWV,008,R,10.4,N,A*1E
$IIMWV,007,T,10.6,N,A*15
$IIRMC,000707,A,3739.848,N,12222.815,W,,,290310,15,E,A*3A
$IIVHW,,,271,M,00.0,N,,*60
$IIVLW,00000,N,000.0,N*53
$IIVWR,008,R,10.4,N,,,,*6C
$IIGLL,3739.848,N,12222.815,W,000708,A,A*4A
$IIHDG,271,,,15,E*12
$IIMTW,+15.5,C*39
$IIMWV,012,R,10.8,N,A*19
$IIMWV,008,T,10.4,N,A*18
$IIRMB,A,0.23,R,,BAYBDG  ,,,,,008.10,001,,V,A*7B
$IIRMC,000708,A,3739.848,N,12222.815,W,,,290310,15,E,A*35
$IIVHW,,,271,M,00.0,N,,*60
$IIVLW,00000,N,000.0,N*53
$IIVWR,011,R,10.5,N,,,,*65
$IIGLL,3739.848,N,12222.816,W,000709,A,A*48
$IIHDG,271,,,15,E*12
$IIMTW,+15.5,C*39
$IIMWV,011,R,10.5,N,A*17
$IIMWV,012,T,10.8,N,A*1F
$IIRMC,000709,A,3739.848,N,12222.816,W,,,290310,15,E,A*37
$IIVHW,,,271,M,00.0,N,,*60
$IIVLW,00000,N,000.0,N*53
$IIVWR,014,R,10.9,N,,,,*6C
$IIGLL,3739.848,N,12222.816,W,000710,A,A*40
$IIHDG,271,,,15,E*12
$IIMTW,+15.5,C*39
$IIMWV,014,R,10.9,N,A*1E
$IIMWV,011,T,10.5,N,A*11
$IIRMB,A,0.23,R,,BAYBDG  ,,,,,008.10,001,,V,A*7B
$IIRMC,000711,A,3739.847,N,12222.816,W,,,290310,15,E,A*31
$IIVHW,,,270,M,00.0,N,,*61
$IIVLW,00000,N,000.0,N*53
$IIVWR,017,R,11.2,N,,,,*65
$IIGLL,3739.847,N,12222.816,W,000711,A,A*4E
$IIHDG,270,,,15,E*13
$IIMTW,+15.5,C*39
$IIMWV,017,R,11.2,N,A*17
$IIMWV,014,T,10.9,N,A*18
$IIRMB,A,0.23,R,,BAYBDG  ,,,,,008.10,001,,V,A*7B
$IIRMC,000712,A,3739.847,N,12222.816,W,,,290310,15,E,A*32
$IIVHW,,,271,M,00.0,N,,*60
$IIVLW,00000,N,000.0,N*53
$IIVWR,019,R,10.8,N,,,,*60
$IIGLL,3739.847,N,12222.816,W,000712,A,A*4D
$IIHDG,271,,,15,E*12
$IIMTW,+15.5,C*39
$IIMWV,019,R,11.1,N,A*1A
$IIMWV,019,T,10.8,N,A*14
$IIRMC,000712,A,3739.847,N,12222.816,W,,,290310,15,E,A*32
$IIVHW,,,271,M,00.0,N,,*60
$IIVLW,00000,N,000.0,N*53
$IIVWR,019,R,11.1,N,,,,*68
$IIGLL,3739.847,N,12222.816,W,000712,A,A*4D
$IIHDG,271,,,15,E*12
$IIMTW,+15.5,C*39
$IIMWV,017,R,10.8,N,A*1C
$IIMWV,019,T,11.1,N,A*1C
$IIRMB,A,0.23,R,,BAYBDG  ,,,,,008.10,001,,V,A*7B
$IIRMC,000714,A,3739.848,N,12222.816,W,,,290310,15,E,A*3B
$IIVHW,,,270,M,00.0,N,,*61
$IIVLW,00000,N,000.0,N*53
$IIVWR,017,R,10.8,N,,,,*6E
$IIGLL,3739.848,N,12222.816,W,000714,A,A*44
$IIHDG,271,,,15,E*12
$IIMTW,+15.5,C*39
$IIMWV,011,R,10.7,N,A*15
$IIMWV,017,T,10.8,N,A*1A
$IIRMC,000714,A,3739.848,N,12222.816,W,,,290310,15,E,A*3B
$IIVHW,,,271,M,00.0,N,,*60
$IIVLW,00000,N,000.0,N*53
$IIVWR,011,R,10.7,N,,,,*67
$IIGLL,3739.848,N,12222.816,W,000714,A,A*44
$IIHDG,271,,,15,E*12
$IIMTW,+15.5,C*39
$IIMWV,003,R,10.1,N,A*10
$IIMWV,011,T,10.7,N,A*13
$IIRMB,A,0.23,R,,BAYBDG  ,,,,,008.10,001,,V,A*7B
$IIRMC,000716,A,3739.849,N,12222.816,W,,,290310,15,E,A*38
$IIVHW,,,271,M,00.0,N,,*60
$IIVLW,00000,N,000.0,N*53
$IIVWR,003,R,10.1,N,,,,*62
$IIGLL,3739.849,N,12222.816,W,000716,A,A*47
$IIHDG,271,,,15,E*12
$IIMTW,+15.5,C*39
$IIMWV,358,R,10.2,N,A*1E
$IIMWV,003,T,10.1,N,A*16
$IIRMC,000716,A,3739.849,N,12222.816,W,,,290310,15,E,A*38
$IIVHW,,,271,M,00.0,N,,*60
$IIVLW,00000,N,000.0,N*53
$IIVWR,002,L,10.2,N,,,,*7E
$IIGLL,3739.849,N,12222.816,W,000718,A,A*49
$IIHDG,271,,,15,E*12
$IIMTW,+15.5,C*39
$IIMWV,354,R,09.2,N,A*1A
$IIMWV,358,T,10.2,N,A*18
$IIRMB,A,0.23,R,,BAYBDG  ,,,,,008.10,001,,V,A*7B
$IIRMC,000718,A,3739.849,N,12222.816,W,,,290310,15,E,A*36
$IIVHW,,,271,M,00.0,N,,*60
$IIVLW,00000,N,000.0,N*53
$IIVWR,011,L,08.9,N,,,,*7E
$IIGLL,3739.849,N,12222.816,W,000718,A,A*49
$IIHDG,271,,,15,E*12
$IIMTW,+15.5,C*39
$IIMWV,349,R,08.9,N,A*1C
$IIMWV,354,T,09.2,N,A*1C
$IIRMC,000718,A,3739.849,N,12222.816,W,,,290310,15,E,A*36
$IIVHW,,,271,M,00.0,N,,*60
$IIVLW,00000,N,000.0,N*53
$IIVWR,012,L,08.2,N,,,,*76
$IIGLL,3739.851,N,12222.814,W,000720,A,A*49
$IIHDG,271,,,15,E*12
$IIMTW,+15.5,C*39
$IIMWV,348,R,08.2,N,A*16
$IIMWV,349,T,08.9,N,A*1A
$IIRMB,A,0.23,R,,BAYBDG  ,,,,,008.10,001,,V,A*7B
$IIRMC,000720,A,3739.851,N,12222.814,W,,,290310,15,E,A*36
$IIVHW,,,271,M,00.0,N,,*60
$IIVLW,00000,N,000.0,N*53
$IIVWR,005,L,08.5,N,,,,*77
$IIGLL,3739.851,N,12222.814,W,000720,A,A*49
$IIHDG,271,,,15,E*12
$IIMTW,+15.5,C*39
$IIMWV,355,R,08.5,N,A*1D
$IIMWV,348,T,08.2,N,A*10
$IIRMB,A,0.23,R,,BAYBDG  ,,,,,008.10,001,,V,A*7B
$IIRMC,000722,A,3739.851,N,12222.814,W,,,290310,15,E,A*34
$IIVHW,,,271,M,00.0,N,,*60
$IIVLW,00000,N,000.0,N*53
$IIVWR,002,R,09.1,N,,,,*6B
$IIGLL,3739.851,N,12222.814,W,000722,A,A*4B
$IIHDG,271,,,15,E*12
$IIMTW,+15.5,C*39
$IIMWV,000,R,09.1,N,A*1B
$IIMWV,002,T,09.1,N,A*1F
$IIRMC,000722,A,3739.851,N,12222.814,W,,,290310,15,E,A*34
$IIVHW,,,271,M,00.0,N,,*60
$IIVLW,00000,N,000.0,N*53
$IIVWR,000,R,09.1,N,,,,*69
$IIGLL,3739.851,N,12222.814,W,000722,A,A*4B
$IIHDG,271,,,15,E*12
$IIMTW,+15.5,C*39
$IIMWV,358,R,08.8,N,A*1D
$IIMWV,000,T,09.1,N,A*1D
$IIRMB,A,0.23,R,,BAYBDG  ,,,,,008.10,001,,V,A*7B
$IIRMC,000724,A,3739.851,N,12222.814,W,,,290310,15,E,A*32
$IIVHW,,,271,M,00.0,N,,*60
$IIVLW,00000,N,000.0,N*53
$IIVWR,002,L,08.8,N,,,,*7D
$IIGLL,3739.851,N,12222.814,W,000724,A,A*4D
$IIHDG,271,,,15,E*12
$IIMTW,+15.5,C*39
$IIMWV,359,R,08.7,N,A*13
$IIMWV,358,T,08.8,N,A*1B
$IIRMC,000724,A,3739.851,N,12222.814,W,,,290310,15,E,A*32
$IIVHW,,,271,M,00.0,N,,*60
$IIVLW,00000,N,000.0,N*53
$IIVWR,001,L,08.7,N,,,,*71
$IIGLL,3739.851,N,12222.814,W,000724,A,A*4D
$IIHDG,271,,,15,E*12
$IIMTW,+15.5,C*39
$IIMWV,357,R,08.6,N,A*1C
$IIMWV,359,T,08.7,N,A*15
$IIRMB,A,0.23,R,,BAYBDG  ,,,,,008.10,001,,V,A*7B
$IIRMC,000726,A,3739.852,N,12222.814,W,,,290310,15,E,A*33
$IIVHW,,,271,M,00.0,N,,*60
$IIVLW,00000,N,000.0,N*53
$IIVWR,003,L,08.6,N,,,,*72
$IIGLL,3739.852,N,12222.814,W,000726,A,A*4C
$IIHDG,271,,,15,E*12
$IIMTW,+15.5,C*39
$IIMWV,356,R,08.6,N,A*1D
$IIMWV,357,T,08.6,N,A*1A
$IIRMC,000726,A,3739.852,N,12222.814,W,,,290310,15,E,A*33
$IIVHW,,,271,M,00.0,N,,*60
$IIVLW,00000,N,000.0,N*53
$IIVWR,004,L,08.6,N,,,,*75
$IIGLL,3739.852,N,12222.814,W,000728,A,A*42
$IIHDG,271,,,15,E*12
$IIMTW,+15.5,C*39
$IIMWV,353,R,07.8,N,A*19
$IIMWV,356,T,08.6,N,A*1B
$IIRMB,A,0.23,R,,BAYBDG  ,,,,,008.10,001,,V,A*7B
$IIRMC,000728,A,3739.852,N,12222.814,W,,,290310,15,E,A*3D
$IIVHW,,,271,M,00.0,N,,*60
$IIVLW,00000,N,000.0,N*53
$IIVWR,011,L,08.2,N,,,,*75
$IIGLL,3739.852,N,12222.814,W,000728,A,A*42
$IIHDG,270,,,15,E*13
$IIMTW,+15.5,C*39
$IIMWV,349,R,08.2,N,A*17
$IIMWV,353,T,07.8,N,A*1F
$IIRMC,000728,A,3739.852,N,12222.814,W,,,290310,15,E,A*3D
$IIVHW,,,270,M,00.0,N,,*61
$IIVLW,00000,N,000.0,N*53
$IIVWR,015,L,07.9,N,,,,*75
$IIGLL,3739.852,N,12222.814,W,000730,A,A*4B
$IIHDG,270,,,15,E*13
$IIMTW,+15.5,C*39
$IIMWV,345,R,07.9,N,A*1F
$IIMWV,349,T,08.2,N,A*11
$IIRMB,A,0.23,R,,BAYBDG  ,,,,,008.10,001,,V,A*7B
$IIRMC,000730,A,3739.852,N,12222.814,W,,,290310,15,E,A*34
$IIVHW,,,270,M,00.0,N,,*61
$IIVLW,00000,N,000.0,N*53
$IIVWR,015,L,07.1,N,,,,*7D
$IIGLL,3739.852,N,12222.814,W,000730,A,A*4B
$IIHDG,270,,,15,E*13
$IIMTW,+15.5,C*39
$IIMWV,345,R,07.1,N,A*17
$IIMWV,345,T,07.9,N,A*19
$IIRMB,A,0.23,R,,BAYBDG  ,,,,,008.10,001,,V,A*7B
$IIRMC,000732,A,3739.851,N,12222.814,W,,,290310,15,E,A*35
$IIVHW,,,271,M,00.0,N,,*60
$IIVLW,00000,N,000.0,N*53
$IIVWR,012,L,08.1,N,,,,*75
$IIGLL,3739.851,N,12222.814,W,000732,A,A*4A
$IIHDG,271,,,15,E*12
$IIMTW,+15.5,C*39
$IIMWV,352,R,09.0,N,A*1E
$IIMWV,348,T,08.1,N,A*13
$IIRMC,000732,A,3739.851,N,12222.814,W,,,290310,15,E,A*35
$IIVHW,,,271,M,00.0,N,,*60
$IIVLW,00000,N,000.0,N*53
$IIVWR,008,L,09.0,N,,,,*7E
$IIGLL,3739.851,N,12222.814,W,000732,A,A*4A
$IIHDG,271,,,15,E*12
$IIMTW,+15.5,C*39
$IIMWV,355,R,10.1,N,A*10
$IIMWV,352,T,09.0,N,A*18
$IIRMB,A,0.23,R,,BAYBDG  ,,,,,008.10,001,,V,A*7B
$IIRMC,000734,A,3739.851,N,12222.814,W,,,290310,15,E,A*33
$IIVHW,,,271,M,00.0,N,,*60
$IIVLW,00000,N,000.0,N*53
$IIVWR,005,L,10.1,N,,,,*7A
$IIGLL,3739.851,N,12222.814,W,000734,A,A*4C
$IIHDG,271,,,15,E*12
$IIMTW,+15.5,C*39
$IIMWV,359,R,09.1,N,A*14
$IIMWV,355,T,10.1,N,A*16
$IIRMC,000734,A,3739.851,N,12222.814,W,,,290310,15,E,A*33
$IIVHW,,,271,M,00.0,N,,*60
$IIVLW,00000,N,000.0,N*53
$IIVWR,001,L,09.1,N,,,,*76
$IIGLL,3739.851,N,12222.814,W,000734,A,A*4C
$IIHDG,271,,,15,E*12
$IIMTW,+15.5,C*39
$IIMWV,357,R,08.7,N,A*1D
$IIMWV,359,T,09.1,N,A*12
$IIRMB,A,0.23,R,,BAYBDG  ,,,,,008.10,001,,V,A*7B
$IIRMC,000736,A,3739.851,N,12222.814,W,,,290310,15,E,A*31
$IIVHW,,,271,M,00.0,N,,*60
$IIVLW,00000,N,000.0,N*53
$IIVWR,003,L,08.7,N,,,,*73
$IIGLL,3739.851,N,12222.814,W,000736,A,A*4E
$IIHDG,271,,,15,E*12
$IIMTW,+15.5,C*39
$IIMWV,348,R,08.0,N,A*14
$IIMWV,357,T,08.7,N,A*1B
$IIRMC,000736,A,3739.851,N,12222.814,W,,,290310,15,E,A*31
$IIVHW,,,271,M,00.0,N,,*60
$IIVLW,00000,N,000.0,N*53
$IIVWR,012,L,08.0,N,,,,*74
$IIGLL,3739.851,N,12222.815,W,000738,A,A*41
$IIHDG,271,,,15,E*12
$IIMTW,+15.5,C*39
$IIMWV,343,R,07.1,N,A*11
$IIMWV,348,T,08.0,N,A*12
$IIRMB,A,0.23,R,,BAYBDG  ,,,,,008.10,001,,V,A*7B
$IIRMC,000738,A,3739.851,N,12222.815,W,,,290310,15,E,A*3E
$IIVHW,,,271,M,00.0,N,,*60
$IIVLW,00000,N,000.0,N*53
$IIVWR,023,L,06.6,N,,,,*7E
$IIGLL,3739.851,N,12222.815,W,000738,A,A*41
$IIHDG,271,,,15,E*12
$IIMTW,+15.5,C*39
$IIMWV,337,R,06.6,N,A*14
$IIMWV,343,T,07.1,N,A*17
$IIRMC,000738,A,3739.851,N,12222.815,W,,,290310,15,E,A*3E
$IIVHW,,,271,M,00.0,N,,*60
$IIVLW,00000,N,000.0,N*53
$IIVWR,014,L,07.3,N,,,,*7E
$IIGLL,3739.850,N,12222.815,W,000740,A,A*4F
$IIHDG,271,,,15,E*12
$IIMTW,+15.5,C*39
$IIMWV,346,R,07.3,N,A*16
$IIMWV,336,T,06.4,N,A*11
$IIRMB,A,0.23,R,,BAYBDG  ,,,,,008.10,001,,V,A*7B
$IIRMC,000742,A,3739.850,N,12222.815,W,,,290310,15,E,A*32
$IIVHW,,,271,M,00.0,N,,*60
$IIVLW,00000,N,000.0,N*53
$IIVWR,010,L,06.8,N,,,,*70
$IIGLL,3739.850,N,12222.815,W,000742,A,A*4D
$IIHDG,271,,,15,E*12
$IIMTW,+15.5,C*39
$IIMWV,350,R,06.8,N,A*1B
$IIMWV,346,T,07.3,N,A*10
$IIRMB,A,0.23,R,,BAYBDG  ,,,,,008.10,001,,V,A*7B
$IIRMC,000742,A,3739.850,N,12222.815,W,,,290310,15,E,A*32
$IIVHW,,,270,M,00.0,N,,*61
$IIVLW,00000,N,000.0,N*53
$IIVWR,008,L,07.1,N,,,,*71
$IIGLL,3739.850,N,12222.815,W,000742,A,A*4D
$IIHDG,270,,,15,E*13
$IIMTW,+15.5,C*39
$IIMWV,352,R,07.2,N,A*12
$IIMWV,352,T,07.1,N,A*17
$IIRMB,A,0.23,R,,BAYBDG  ,,,,,008.10,001,,V,A*7B
$IIRMC,000744,A,3739.851,N,12222.815,W,,,290310,15,E,A*35
$IIVHW,,,270,M,00.0,N,,*61
$IIVLW,00000,N,000.0,N*53
$IIVWR,008,L,07.2,N,,,,*72
$IIGLL,3739.851,N,12222.815,W,000744,A,A*4A
$IIHDG,270,,,15,E*13
$IIMTW,+15.5,C*39
$IIMWV,352,R,09.0,N,A*1E
$IIMWV,352,T,07.2,N,A*14
$IIRMC,000744,A,3739.851,N,12222.815,W,,,290310,15,E,A*35
$IIVHW,,,270,M,00.0,N,,*61
$IIVLW,00000,N,000.0,N*53
$IIVWR,008,L,09.0,N,,,,*7E
$IIGLL,3739.851,N,12222.815,W,000744,A,A*4A
$IIHDG,270,,,15,E*13
$IIMTW,+15.5,C*39
$IIMWV,355,R,10.3,N,A*12
$IIMWV,352,T,09.0,N,A*18
$IIRMB,A,0.23,R,,BAYBDG  ,,,,,008.10,001,,V,A*7B
$IIRMC,000746,A,3739.851,N,12222.815,W,,,290310,15,E,A*37
$IIVHW,,,270,M,00.0,N,,*61
$IIVLW,00000,N,000.0,N*53
$IIVWR,005,L,10.3,N,,,,*78
$IIGLL,3739.851,N,12222.815,W,000746,A,A*48
$IIHDG,271,,,15,E*12
$IIMTW,+15.5,C*39
$IIMWV,357,R,11.0,N,A*12
$IIMWV,355,T,10.3,N,A*14
$IIRMC,000746,A,3739.851,N,12222.815,W,,,290310,15,E,A*37
$IIVHW,,,271,M,00.0,N,,*60
$IIVLW,00000,N,000.0,N*53
$IIVWR,003,L,11.0,N,,,,*7C
$IIGLL,3739.852,N,12222.815,W,000748,A,A*45
$IIHDG,270,,,15,E*13
$IIMTW,+15.5,C*39
$IIMWV,002,R,10.3,N,A*13
$IIMWV,357,T,11.0,N,A*14
$IIRMB,A,0.23,R,,BAYBDG  ,,,,,008.10,001,,V,A*7B
$IIRMC,000748,A,3739.852,N,12222.815,W,,,290310,15,E,A*3A
$IIVHW,,,270,M,00.0,N,,*61
$IIVLW,00000,N,000.0,N*53
$IIVWR,006,R,09.4,N,,,,*6A
$IIGLL,3739.852,N,12222.815,W,000748,A,A*45
$IIHDG,271,,,15,E*12
$IIMTW,+15.5,C*39
$IIMWV,006,R,09.4,N,A*18
$IIMWV,002,T,10.3,N,A*15
$IIRMC,000748,A,3739.852,N,12222.815,W,,,290310,15,E,A*3A
$IIVHW,,,271,M,00.0,N,,*60
$IIVLW,00000,N,000.0,N*53
$IIVWR,008,R,09.5,N,,,,*65
$IIGLL,3739.851,N,12222.815,W,000750,A,A*4F
$IIHDG,271,,,15,E*12
$IIMTW,+15.5,C*39
$IIMWV,008,R,09.5,N,A*17
$IIMWV,006,T,09.4,N,A*1E
$IIRMB,A,0.23,R,,BAYBDG  ,,,,,008.10,001,,V,A*7B
$IIRMC,000750,A,3739.851,N,12222.815,W,,,290310,15,E,A*30
$IIVHW,,,271,M,00.0,N,,*60
$IIVLW,00000,N,000.0,N*53
$IIVWR,009,R,09.6,N,,,,*67
$IIGLL,3739.851,N,12222.815,W,000750,A,A*4F
$IIHDG,271,,,15,E*12
$IIMTW,+15.5,C*39
$IIMWV,009,R,09.6,N,A*15
$IIMWV,008,T,09.5,N,A*11
$IIRMB,A,0.23,R,,BAYBDG  ,,,,,008.10,001,,V,A*7B
$IIRMC,000752,A,3739.851,N,12222.815,W,,,290310,15,E,A*32
$IIVHW,,,271,M,00.0,N,,*60
$IIVLW,00000,N,000.0,N*53
$IIVWR,015,R,09.2,N,,,,*6E
$IIGLL,3739.851,N,12222.815,W,000752,A,A*4D
$IIHDG,271,,,15,E*12
$IIMTW,+15.5,C*39
$IIMWV,015,R,08.9,N,A*16
$IIMWV,015,T,09.2,N,A*1A
$IIRMC,000752,A,3739.851,N,12222.815,W,,,290310,15,E,A*32
$IIVHW,,,271,M,00.0,N,,*60
$IIVLW,00000,N,000.0,N*53
$IIVWR,015,R,08.9,N,,,,*64
$IIGLL,3739.851,N,12222.815,W,000752,A,A*4D
$IIHDG,271,,,15,E*12
$IIMTW,+15.5,C*39
$IIMWV,012,R,09.2,N,A*1B
$IIMWV,015,T,08.9,N,A*10
$IIRMB,A,0.23,R,,BAYBDG  ,,,,,008.10,001,,V,A*7B
$IIRMC,000754,A,3739.851,N,12222.816,W,,,290310,15,E,A*37
$IIVHW,,,271,M,00.0,N,,*60
$IIVLW,00000,N,000.0,N*53
$IIVWR,012,R,09.2,N,,,,*69
$IIGLL,3739.851,N,12222.816,W,000754,A,A*48
$IIHDG,271,,,15,E*12
$IIMTW,+15.5,C*39
$IIMWV,008,R,09.8,N,A*1A
$IIMWV,012,T,09.2,N,A*1D
$IIRMC,000754,A,3739.851,N,12222.816,W,,,290310,15,E,A*37
$IIVHW,,,271,M,00.0,N,,*60
$IIVLW,00000,N,000.0,N*53
$IIVWR,008,R,09.8,N,,,,*68
$IIGLL,3739.851,N,12222.816,W,000754,A,A*48
$IIHDG,271,,,15,E*12
$IIMTW,+15.5,C*39
$IIMWV,358,R,10.2,N,A*1E
$IIMWV,008,T,09.8,N,A*1C
$IIRMB,A,0.23,R,,BAYBDG  ,,,,,008.10,001,,V,A*7B
$IIRMC,000756,A,3739.851,N,12222.816,W,,,290310,15,E,A*35
$IIVHW,,,271,M,00.0,N,,*60
$IIVLW,00000,N,000.0,N*53
$IIVWR,002,L,10.2,N,,,,*7E
$IIGLL,3739.851,N,12222.816,W,000756,A,A*4A
$IIHDG,271,,,15,E*12
$IIMTW,+15.5,C*39
$IIMWV,354,R,10.7,N,A*17
$IIMWV,358,T,10.2,N,A*18
$IIRMC,000756,A,3739.851,N,12222.816,W,,,290310,15,E,A*35
$IIVHW,,,271,M,00.0,N,,*60
$IIVLW,00000,N,000.0,N*53
$IIVWR,006,L,10.7,N,,,,*7F
$IIGLL,3739.850,N,12222.816,W,000758,A,A*45
$IIHDG,271,,,15,E*12
$IIMTW,+15.5,C*39
$IIMWV,351,R,10.6,N,A*13
$IIMWV,354,T,10.7,N,A*11
$IIRMB,A,0.23,R,,BAYBDG  ,,,,,008.10,001,,V,A*7B
$IIRMC,000758,A,3739.850,N,12222.816,W,,,290310,15,E,A*3A
$IIVHW,,,271,M,00.0,N,,*60
$IIVLW,00000,N,000.0,N*53
$IIVWR,014,L,09.6,N,,,,*75
$IIGLL,3739.850,N,12222.816,W,000758,A,A*45
$IIHDG,271,,,15,E*12
$IIMTW,+15.5,C*39
$IIMWV,346,R,09.6,N,A*1D
$IIMWV,351,T,10.6,N,A*15
$IIRMC,000758,A,3739.850,N,12222.816,W,,,290310,15,E,A*3A
$IIVHW,,,271,M,00.0,N,,*60
$IIVLW,00000,N,000.0,N*53
$IIVWR,014,L,09.1,N,,,,*72
$IIGLL,3739.850,N,12222.816,W,000800,A,A*47
$IIHDG,271,,,15,E*12
$IIMTW,+15.5,C*39
$IIMWV,346,R,09.1,N,A*1A
$IIMWV,346,T,09.6,N,A*1B
$IIRMB,A,0.23,R,,BAYBDG  ,,,,,008.10,001,,V,A*7B
$IIRMC,000800,A,3739.850,N,12222.816,W,,,290310,15,E,A*38
$IIVHW,,,271,M,00.0,N,,*60
$IIVLW,00000,N,000.0,N*53
$IIVWR,018,L,08.8,N,,,,*76
$IIGLL,3739.850,N,12222.816,W,000800,A,A*47
$IIHDG,271,,,15,E*12
$IIMTW,+15.5,C*39
$IIMWV,342,R,08.8,N,A*16
$IIMWV,346,T,09.1,N,A*1C
$IIRMB,A,0.23,R,,BAYBDG  ,,,,,008.10,001,,V,A*7B
$IIRMC,000802,A,3739.850,N,12222.816,W,,,290310,15,E,A*3A
$IIVHW,,,271,M,00.0,N,,*60
$IIVLW,00000,N,000.0,N*53
$IIVWR,018,L,08.7,N,,,,*79
$IIGLL,3739.850,N,12222.816,W,000802,A,A*45
$IIHDG,271,,,15,E*12
$IIMTW,+15.5,C*39
$IIMWV,346,R,08.7,N,A*1D
$IIMWV,342,T,08.7,N,A*1F
$IIRMC,000802,A,3739.850,N,12222.816,W,,,290310,15,E,A*3A
$IIVHW,,,271,M,00.0,N,,*60
$IIVLW,00000,N,000.0,N*53
$IIVWR,014,L,08.7,N,,,,*75
$IIGLL,3739.850,N,12222.816,W,000802,A,A*45
$IIHDG,271,,,15,E*12
$IIMTW,+15.5,C*39
$IIMWV,349,R,09.2,N,A*16
$IIMWV,346,T,08.7,N,A*1B
$IIRMB,A,0.23,R,,BAYBDG  ,,,,,008.10,001,,V,A*7B
$IIRMC,000804,A,3739.851,N,12222.816,W,,,290310,15,E,A*3D
$IIVHW,,,271,M,00.0,N,,*60
$IIVLW,00000,N,000.0,N*53
$IIVWR,011,L,09.2,N,,,,*74
$IIGLL,3739.851,N,12222.816,W,000804,A,A*42
$IIHDG,271,,,15,E*12
$IIMTW,+15.5,C*39
$IIMWV,356,R,08.5,N,A*1E
$IIMWV,349,T,09.2,N,A*10
$IIRMC,000804,A,3739.851,N,12222.816,W,,,290310,15,E,A*3D
$IIVHW,,,271,M,00.0,N,,*60
$IIVLW,00000,N,000.0,N*53
$IIVWR,004,L,08.5,N,,,,*76
$IIGLL,3739.851,N,12222.816,W,000804,A,A*42
$IIHDG,271,,,15,E*12
$IIMTW,+15.5,C*39
$IIMWV,002,R,08.1,N,A*18
$IIMWV,356,T,08.5,N,A*18
$IIRMB,A,0.23,R,,BAYBDG  ,,,,,008.10,001,,V,A*7B
$IIRMC,000806,A,3739.850,N,12222.816,W,,,290310,15,E,A*3E
$IIVHW,,,271,M,00.0,N,,*60
$IIVLW,00000,N,000.0,N*53
$IIVWR,002,R,08.1,N,,,,*6A
$IIGLL,3739.850,N,12222.816,W,000806,A,A*41
$IIHDG,271,,,15,E*12
$IIMTW,+15.5,C*39
$IIMWV,359,R,08.0,N,A*14
$IIMWV,002,T,08.1,N,A*1E
$IIRMC,000806,A,3739.850,N,12222.816,W,,,290310,15,E,A*3E
$IIVHW,,,271,M,00.0,N,,*60
$IIVLW,00000,N,000.0,N*53
$IIVWR,001,L,08.0,N,,,,*76
$IIGLL,3739.851,N,12222.815,W,000808,A,A*4D
$IIHDG,271,,,15,E*12
$IIMTW,+15.5,C*39
$IIMWV,354,R,08.3,N,A*1A
$IIMWV,359,T,08.0,N,A*12
$IIRMB,A,0.23,R,,BAYBDG  ,,,,,008.10,001,,V,A*7B
$IIRMC,000808,A,3739.851,N,12222.815,W,,,290310,15,E,A*32
$IIVHW,,,271,M,00.0,N,,*60
$IIVLW,00000,N,000.0,N*53
$IIVWR,001,R,07.9,N,,,,*6E
$IIGLL,3739.851,N,12222.815,W,000808,A,A*4D
$IIHDG,271,,,15,E*12
$IIMTW,+15.5,C*39
$IIMWV,001,R,07.9,N,A*1C
$IIMWV,354,T,08.3,N,A*1C
$IIRMC,000808,A,3739.851,N,12222.815,W,,,290310,15,E,A*32
$IIVHW,,,271,M,00.0,N,,*60
$IIVLW,00000,N,000.0,N*53
$IIVWR,005,R,08.2,N,,,,*6E
$IIGLL,3739.852,N,12222.816,W,000810,A,A*44
$IIHDG,271,,,15,E*12
$IIMTW,+15.5,C*39
$IIMWV,005,R,08.2,N,A*1C
$IIMWV,001,T,07.9,N,A*1A
$IIRMB,A,0.23,R,,BAYBDG  ,,,,,008.10,001,,V,A*7B
$IIRMC,000810,A,3739.852,N,12222.816,W,,,290310,15,E,A*3B
$IIVHW,,,271,M,00.0,N,,*60
$IIVLW,00000,N,000.0,N*53
$IIVWR,008,R,09.5,N,,,,*65
$IIGLL,3739.852,N,12222.816,W,000810,A,A*44
$IIHDG,271,,,15,E*12
$IIMTW,+15.5,C*39
$IIMWV,008,R,09.5,N,A*17
$IIMWV,005,T,08.2,N,A*1A
$IIRMB,A,0.23,R,,BAYBDG  ,,,,,008.10,001,,V,A*7B
$IIRMC,000811,A,3739.852,N,12222.816,W,,,290310,15,E,A*3A
$IIVHW,,,271,M,00.0,N,,*60
$IIVLW,00000,N,000.0,N*53
$IIVWR,007,R,09.5,N,,,,*6A
$IIGLL,3739.852,N,12222.816,W,000811,A,A*45
$IIHDG,271,,,15,E*12
$IIMTW,+15.5,C*39
$IIMWV,006,R,09.9,N,A*15
$IIMWV,007,T,09.5,N,A*1E
$IIRMC,000811,A,3739.852,N,12222.816,W,,,290310,15,E,A*3A
$IIVHW,,,271,M,00.0,N,,*60
$IIVLW,00000,N,000.0,N*53
$IIVWR,006,R,09.9,N,,,,*67
$IIGLL,3739.852,N,12222.816,W,000811,A,A*45
$IIHDG,271,,,15,E*12
$IIMTW,+15.5,C*39
$IIMWV,357,R,10.4,N,A*17
$IIMWV,006,T,09.9,N,A*13
$IIRMB,A,0.23,R,,BAYBDG  ,,,,,008.10,001,,V,A*7B
$IIRMC,000814,A,3739.851,N,12222.815,W,,,290310,15,E,A*3F
$IIVHW,,,271,M,00.0,N,,*60
$IIVLW,00000,N,000.0,N*53
$IIVWR,003,L,10.4,N,,,,*79
$IIGLL,3739.851,N,12222.815,W,000814,A,A*40
$IIHDG,271,,,15,E*12
$IIMTW,+15.5,C*39
$IIMWV,357,R,09.7,N,A*1C
$IIMWV,357,T,10.4,N,A*11
$IIRMC,000814,A,3739.851,N,12222.815,W,,,290310,15,E,A*3F
$IIVHW,,,271,M,00.0,N,,*60
$IIVLW,00000,N,000.0,N*53
$IIVWR,003,L,09.7,N,,,,*72
$IIGLL,3739.851,N,12222.815,W,000814,A,A*40
$IIHDG,271,,,15,E*12
$IIMTW,+15.5,C*39
$IIMWV,357,R,09.5,N,A*1E
$IIMWV,357,T,09.7,N,A*1A
$IIRMB,A,0.23,R,,BAYBDG  ,,,,,008.10,001,,V,A*7B
$IIRMC,000816,A,3739.852,N,12222.815,W,,,290310,15,E,A*3E
$IIVHW,,,271,M,00.0,N,,*60
$IIVLW,00000,N,000.0,N*53
$IIVWR,003,L,09.5,N,,,,*70
$IIGLL,3739.852,N,12222.815,W,000816,A,A*41
$IIHDG,271,,,15,E*12
$IIMTW,+15.5,C*39
$IIMWV,352,R,08.7,N,A*18
$IIMWV,357,T,09.5,N,A*18
$IIRMC,000816,A,3739.852,N,12222.815,W,,,290310,15,E,A*3E
$IIVHW,,,271,M,00.0,N,,*60
$IIVLW,00000,N,000.0,N*53
$IIVWR,008,L,08.7,N,,,,*78
$IIGLL,3739.851,N,12222.816,W,000818,A,A*4F
$IIHDG,271,,,15,E*12
$IIMTW,+15.5,C*39
$IIMWV,350,R,08.3,N,A*1E
$IIMWV,352,T,08.7,N,A*1E
$IIRMB,A,0.23,R,,BAYBDG  ,,,,,008.10,001,,V,A*7B
$IIRMC,000818,A,3739.851,N,12222.816,W,,,290310,15,E,A*30
$IIVHW,,,271,M,,,,*30
$IIVLW,00000,N,000.0,N*53
$IIVWR,008,L,08.1,N,,,,*7E
$IIGLL,3739.851,N,12222.816,W,000818,A,A*4F
$IIHDG,271,,,15,E*12
$IIMTW,+15.5,C*39
$IIMWV,352,R,08.1,N,A*1E
$IIMWV,350,T,08.3,N,A*18
$IIRMC,000818,A,3739.851,N,12222.816,W,,,290310,15,E,A*30
$IIVHW,,,271,M,00.0,N,,*60
$IIVLW,00000,N,000.0,N*53
$IIVWR,012,L,08.3,N,,,,*77
$IIGLL,3739.852,N,12222.816,W,000819,A,A*4D
$IIHDG,271,,,15,E*12
$IIMTW,+15.5,C*39
$IIMWV,348,R,08.3,N,A*17
$IIMWV,352,T,08.1,N,A*18
$IIRMB,A,0.23,R,,BAYBDG  ,,,,,008.10,001,,V,A*7B
$IIRMC,000819,A,3739.852,N,12222.816,W,,,290310,15,E,A*32
$IIVHW,,,271,M,00.0,N,,*60
$IIVLW,00000,N,000.0,N*53
$IIVWR,012,L,08.6,N,,,,*72
$IIGLL,3739.852,N,12222.815,W,000822,A,A*46
$IIHDG,271,,,15,E*12
$IIMTW,+15.5,C*39
$IIMWV,348,R,08.6,N,A*12
$IIMWV,348,T,08.1,N,A*13
$IIRMB,A,0.23,R,,BAYBDG  ,,,,,008.10,001,,V,A*7B
$IIRMC,000822,A,3739.852,N,12222.815,W,,,290310,15,E,A*39
$IIVHW,,,271,M,00.0,N,,*60
$IIVLW,00000,N,000.0,N*53
$IIVWR,010,L,09.0,N,,,,*77
$IIGLL,3739.852,N,12222.815,W,000822,A,A*46
$IIHDG,271,,,15,E*12
$IIMTW,+15.5,C*39
$IIMWV,350,R,09.0,N,A*1C
$IIMWV,348,T,08.6,N,A*14
$IIRMB,A,0.23,R,,BAYBDG  ,,,,,008.10,001,,V,A*7B
$IIRMC,000824,A,3739.852,N,12222.815,W,,,290310,15,E,A*3F
$IIVHW,,,271,M,00.0,N,,*60
$IIVLW,00000,N,000.0,N*53
$IIVWR,020,L,09.5,N,,,,*71
$IIGLL,3739.852,N,12222.815,W,000824,A,A*40
$IIHDG,271,,,15,E*12
$IIMTW,+15.5,C*39
$IIMWV,337,R,10.2,N,A*17
$IIMWV,340,T,09.5,N,A*1E
$IIRMC,000824,A,3739.852,N,12222.815,W,,,290310,15,E,A*3F
$IIVHW,,,271,M,00.0,N,,*60
$IIVLW,00000,N,000.0,N*53
$IIVWR,023,L,10.2,N,,,,*7D
$IIGLL,3739.852,N,12222.815,W,000824,A,A*40
$IIHDG,271,,,15,E*12
$IIMTW,+15.5,C*39
$IIMWV,341,R,10.6,N,A*12
$IIMWV,337,T,10.2,N,A*11
$IIRMB,A,0.23,R,,BAYBDG  ,,,,,008.10,001,,V,A*7B
$IIRMC,000826,A,3739.852,N,12222.815,W,,,290310,15,E,A*3D
$IIVHW,,,271,M,00.0,N,,*60
$IIVLW,00000,N,000.0,N*53
$IIVWR,019,L,10.6,N,,,,*70
$IIGLL,3739.852,N,12222.815,W,000826,A,A*42
$IIHDG,271,,,15,E*12
$IIMTW,+15.5,C*39
$IIMWV,344,R,10.5,N,A*14
$IIMWV,341,T,10.6,N,A*14
$IIRMC,000826,A,3739.852,N,12222.815,W,,,290310,15,E,A*3D
$IIVHW,,,271,M,00.0,N,,*60
$IIVLW,00000,N,000.0,N*53
$IIVWR,016,L,10.5,N,,,,*7C
$IIGLL,3739.852,N,12222.815,W,000826,A,A*42
$IIHDG,271,,,15,E*12
$IIMTW,+15.5,C*39
$IIMWV,345,R,10.4,N,A*14
$IIMWV,344,T,10.5,N,A*12
$IIRMB,A,0.23,R,,BAYBDG  ,,,,,008.10,001,,V,A*7B
$IIRMC,000828,A,3739.853,N,12222.815,W,,,290310,15,E,A*32
$IIVHW,,,271,M,00.0,N,,*60
$IIVLW,00000,N,000.0,N*53
$IIVWR,015,L,10.4,N,,,,*7E
$IIGLL,3739.853,N,12222.815,W,000828,A,A*4D
$IIHDG,271,,,15,E*12
$IIMTW,+15.5,C*39
$IIMWV,346,R,10.1,N,A*12
$IIMWV,345,T,10.4,N,A*12
$IIRMC,000828,A,3739.853,N,12222.815,W,,,290310,15,E,A*32
$IIVHW,,,271,M,00.0,N,,*60
$IIVLW,00000,N,000.0,N*53
$IIVWR,014,L,10.1,N,,,,*7A
$IIGLL,3739.852,N,12222.816,W,000830,A,A*46
$IIHDG,271,,,15,E*12
$IIMTW,+15.5,C*39
$IIMWV,346,R,10.5,N,A*16
$IIMWV,346,T,10.1,N,A*14
$IIRMB,A,0.23,R,,BAYBDG  ,,,,,008.10,001,,V,A*7B
$IIRMC,000830,A,3739.852,N,12222.816,W,,,290310,15,E,A*39
$IIVHW,,,271,M,00.0,N,,*60
$IIVLW,00000,N,000.0,N*53
$IIVWR,016,L,10.8,N,,,,*71
$IIGLL,3739.852,N,12222.816,W,000830,A,A*46
$IIHDG,271,,,15,E*12
$IIMTW,+15.5,C*39
$IIMWV,344,R,10.8,N,A*19
$IIMWV,346,T,10.5,N,A*10
$IIRMC,000830,A,3739.852,N,12222.816,W,,,290310,15,E,A*39
$IIVHW,,,271,M,00.0,N,,*60
$IIVLW,00000,N,000.0,N*53
$IIVWR,018,L,11.7,N,,,,*71
$IIGLL,3739.852,N,12222.815,W,000831,A,A*44
$IIHDG,271,,,15,E*12
$IIMTW,+15.5,C*39
$IIMWV,342,R,11.7,N,A*11
$IIMWV,344,T,11.4,N,A*12
$IIRMB,A,0.23,R,,BAYBDG  ,,,,,008.10,001,,V,A*7B
$IIRMC,000834,A,3739.852,N,12222.815,W,,,290310,15,E,A*3E
$IIVHW,,,271,M,00.0,N,,*60
$IIVLW,00000,N,000.0,N*53
$IIVWR,019,L,12.2,N,,,,*76
$IIGLL,3739.852,N,12222.815,W,000834,A,A*41
$IIHDG,271,,,15,E*12
$IIMTW,+15.5,C*39
$IIMWV,341,R,12.2,N,A*14
$IIMWV,342,T,11.7,N,A*17
$IIRMB,A,0.23,R,,BAYBDG  ,,,,,008.10,001,,V,A*7B
$IIRMC,000834,A,3739.852,N,12222.815,W,,,290310,15,E,A*3E
$IIVHW,,,271,M,00.0,N,,*60
$IIVLW,00000,N,000.0,N*53
$IIVWR,018,L,11.9,N,,,,*7F
$IIGLL,3739.852,N,12222.815,W,000834,A,A*41
$IIHDG,271,,,15,E*12
$IIMTW,+15.5,C*39
$IIMWV,342,R,12.0,N,A*15
$IIMWV,342,T,11.9,N,A*19
$IIRMB,A,0.23,R,,BAYBDG  ,,,,,008.10,001,,V,A*7B
$IIRMC,000836,A,3739.852,N,12222.815,W,,,290310,15,E,A*3C
$IIVHW,,,271,M,00.0,N,,*60
$IIVLW,00000,N,000.0,N*53
$IIVWR,018,L,12.0,N,,,,*75
$IIGLL,3739.852,N,12222.815,W,000836,A,A*43
$IIHDG,271,,,15,E*12
$IIMTW,+15.5,C*39
$IIMWV,342,R,12.1,N,A*14
$IIMWV,342,T,12.0,N,A*13
$IIRMC,000836,A,3739.852,N,12222.815,W,,,290310,15,E,A*3C
$IIVHW,,,271,M,00.0,N,,*60
$IIVLW,00000,N,000.0,N*53
$IIVWR,018,L,12.1,N,,,,*74
$IIGLL,3739.852,N,12222.815,W,000836,A,A*43
$IIHDG,271,,,15,E*12
$IIMTW,+15.5,C*39
$IIMWV,341,R,12.1,N,A*17
$IIMWV,342,T,12.1,N,A*12
$IIRMB,A,0.23,R,,BAYBDG  ,,,,,008.10,001,,V,A*7B
$IIRMC,000838,A,3739.852,N,12222.815,W,,,290310,15,E,A*32
$IIVHW,,,271,M,00.0,N,,*60
$IIVLW,00000,N,000.0,N*53
$IIVWR,019,L,12.1,N,,,,*75
$IIGLL,3739.852,N,12222.815,W,000838,A,A*4D
$IIHDG,271,,,15,E*12
$IIMTW,+15.5,C*39
$IIMWV,342,R,12.5,N,A*10
$IIMWV,341,T,12.1,N,A*11
$IIRMC,000838,A,3739.852,N,12222.815,W,,,290310,15,E,A*32
$IIVHW,,,271,M,00.0,N,,*60
$IIVLW,00000,N,000.0,N*53
$IIVWR,018,L,12.5,N,,,,*70
$IIGLL,3739.853,N,12222.814,W,000839,A,A*4C
$IIHDG,271,,,15,E*12
$IIMTW,+15.5,C*39
$IIMWV,346,R,12.2,N,A*13
$IIMWV,342,T,12.5,N,A*16
$IIRMB,A,0.23,R,,BAYBDG  ,,,,,008.10,001,,V,A*7B
$IIRMC,000839,A,3739.853,N,12222.814,W,,,290310,15,E,A*33
$IIVHW,,,271,M,00.0,N,,*60
$IIVLW,00000,N,000.0,N*53
$IIVWR,008,L,11.8,N,,,,*7F
$IIGLL,3739.853,N,12222.814,W,000840,A,A*42
$IIHDG,271,,,15,E*12
$IIMTW,+15.5,C*39
$IIMWV,352,R,11.8,N,A*1F
$IIMWV,346,T,12.2,N,A*15
$IIRMC,000840,A,3739.853,N,12222.814,W,,,290310,15,E,A*3D
$IIVHW,,,271,M,00.0,N,,*60
$IIVLW,00000,N,000.0,N*53
$IIVWR,004,L,11.9,N,,,,*72
$IIGLL,3739.852,N,12222.815,W,000841,A,A*43
$IIHDG,271,,,15,E*12
$IIMTW,+15.5,C*39
$IIMWV,356,R,11.9,N,A*1A
$IIMWV,352,T,11.8,N,A*19
$IIRMB,A,0.23,R,,BAYBDG  ,,,,,008.10,001,,V,A*7B
$IIRMC,000842,A,3739.852,N,12222.815,W,,,290310,15,E,A*3F
$IIVHW,,,271,M,00.0,N,,*60
$IIVLW,00000,N,000.0,N*53
$IIVWR,001,L,12.3,N,,,,*7E
$IIGLL,3739.852,N,12222.815,W,000842,A,A*40
$IIHDG,271,,,15,E*12
$IIMTW,+15.5,C*39
$IIMWV,359,R,12.3,N,A*1C
$IIMWV,356,T,11.9,N,A*1C
$IIRMB,A,0.23,R,,BAYBDG  ,,,,,008.10,001,,V,A*7B
$IIRMC,000843,A,3739.851,N,12222.815,W,,,290310,15,E,A*3D
$IIVHW,,,271,M,00.0,N,,*60
$IIVLW,00000,N,000.0,N*53
$IIVWR,003,R,11.9,N,,,,*6B
$IIGLL,3739.851,N,12222.815,W,000843,A,A*42
$IIHDG,271,,,15,E*12
$IIMTW,+15.5,C*39
$IIMWV,005,R,11.6,N,A*10
$IIMWV,003,T,11.9,N,A*1F
$IIRMC,000844,A,3739.852,N,12222.815,W,,,290310,15,E,A*39
$IIVHW,,,271,M,00.0,N,,*60
$IIVLW,00000,N,000.0,N*53
$IIVWR,005,R,11.6,N,,,,*62
$IIGLL,3739.852,N,12222.815,W,000844,A,A*46
$IIHDG,271,,,15,E*12
$IIMTW,+15.5,C*39
$IIMWV,006,R,11.9,N,A*1C
$IIMWV,005,T,11.6,N,A*16
$IIRMB,A,0.23,R,,BAYBDG  ,,,,,008.10,001,,V,A*7B
$IIRMC,000845,A,3739.851,N,12222.815,W,,,290310,15,E,A*3B
$IIVHW,,,271,M,00.0,N,,*60
$IIVLW,00000,N,000.0,N*53
$IIVWR,006,R,11.9,N,,,,*6E
$IIGLL,3739.851,N,12222.815,W,000845,A,A*44
$IIHDG,271,,,15,E*12
$IIMTW,+15.5,C*39
$IIMWV,006,R,11.7,N,A*12
$IIMWV,006,T,11.9,N,A*1A
$IIRMC,000846,A,3739.851,N,12222.815,W,,,290310,15,E,A*38
$IIVHW,,,271,M,00.0,N,,*60
$IIVLW,00000,N,000.0,N*53
$IIVWR,006,R,11.7,N,,,,*60
$IIGLL,3739.851,N,12222.815,W,000846,A,A*47
$IIHDG,271,,,15,E*12
$IIMTW,+15.5,C*39
$IIMWV,007,R,11.5,N,A*11
$IIMWV,006,T,11.7,N,A*14
$IIRMB,A,0.23,R,,BAYBDG  ,,,,,008.10,001,,V,A*7B
$IIRMC,000847,A,3739.851,N,12222.815,W,,,290310,15,E,A*39
$IIVHW,,,271,M,00.0,N,,*60
$IIVLW,00000,N,000.0,N*53
$IIVWR,007,R,11.5,N,,,,*63
$IIGLL,3739.851,N,12222.815,W,000848,A,A*49
$IIHDG,271,,,15,E*12
$IIMTW,+15.5,C*39
$IIMWV,009,R,11.4,N,A*1E
$IIMWV,007,T,11.5,N,A*17
$IIRMC,000848,A,3739.851,N,12222.815,W,,,290310,15,E,A*36
$IIVHW,,,271,M,00.0,N,,*60
$IIVLW,00000,N,000.0,N*53
$IIVWR,009,R,11.4,N,,,,*6C
$IIGLL,3739.851,N,12222.815,W,000849,A,A*48
$IIHDG,271,,,15,E*12
$IIMTW,+15.5,C*39
$IIMWV,007,R,11.6,N,A*12
$IIMWV,009,T,11.4,N,A*18
$IIRMB,A,0.23,R,,BAYBDG  ,,,,,008.10,001,,V,A*7B
$IIRMC,000849,A,3739.851,N,12222.815,W,,,290310,15,E,A*37
$IIVHW,,,271,M,00.0,N,,*60
$IIVLW,00000,N,000.0,N*53
$IIVWR,006,R,12.2,N,,,,*66
$IIGLL,3739.851,N,12222.815,W,000850,A,A*40
$IIHDG,271,,,15,E*12
$IIMTW,+15.5,C*39
$IIMWV,006,R,12.2,N,A*14
$IIMWV,007,T,11.6,N,A*14
$IIRMC,000850,A,3739.851,N,12222.815,W,,,290310,15,E,A*3F
$IIVHW,,,271,M,00.0,N,,*60
$IIVLW,00000,N,000.0,N*53
$IIVWR,009,R,12.5,N,,,,*6E
$IIGLL,3739.851,N,12222.814,W,000851,A,A*40
$IIHDG,271,,,15,E*12
$IIMTW,+15.5,C*39
$IIMWV,009,R,12.5,N,A*1C
$IIMWV,006,T,12.2,N,A*12
$IIRMB,A,0.23,R,,BAYBDG  ,,,,,008.10,001,,V,A*7B
$IIRMC,000853,A,3739.851,N,12222.815,W,,,290310,15,E,A*3C
$IIVHW,,,271,M,00.0,N,,*60
$IIVLW,00000,N,000.0,N*53
$IIVWR,006,R,12.9,N,,,,*6D
$IIGLL,3739.851,N,12222.815,W,000853,A,A*43
$IIHDG,271,,,15,E*12
$IIMTW,+15.5,C*39
$IIMWV,006,R,12.9,N,A*1F
$IIMWV,009,T,12.8,N,A*17
$IIRMB,A,0.23,R,,BAYBDG  ,,,,,008.10,001,,V,A*7B
$IIRMC,000854,A,3739.851,N,12222.814,W,,,290310,15,E,A*3A
$IIVHW,,,271,M,00.0,N,,*60
$IIVLW,00000,N,000.0,N*53
$IIVWR,004,R,13.0,N,,,,*67
$IIGLL,3739.851,N,12222.814,W,000854,A,A*45
$IIHDG,271,,,15,E*12
$IIMTW,+15.5,C*39
$IIMWV,003,R,13.0,N,A*12
$IIMWV,004,T,13.0,N,A*13
$IIRMB,A,0.23,R,,BAYBDG  ,,,,,008.10,001,,V,A*7B
$IIRMC,000855,A,3739.852,N,12222.814,W,,,290310,15,E,A*38
$IIVHW,,,271,M,00.0,N,,*60
$IIVLW,00000,N,000.0,N*53
$IIVWR,003,R,13.0,N,,,,*60
$IIGLL,3739.852,N,12222.814,W,000855,A,A*47
$IIHDG,271,,,15,E*12
$IIMTW,+15.5,C*39
$IIMWV,004,R,13.0,N,A*15
$IIMWV,003,T,13.0,N,A*14
$IIRMC,000856,A,3739.852,N,12222.814,W,,,290310,15,E,A*3B
$IIVHW,,,271,M,00.0,N,,*60
$IIVLW,00000,N,000.0,N*53
$IIVWR,004,R,13.0,N,,,,*67
$IIGLL,3739.852,N,12222.814,W,000856,A,A*44
$IIHDG,271,,,15,E*12
$IIMTW,+15.5,C*39
$IIMWV,005,R,12.8,N,A*1D
$IIMWV,004,T,13.0,N,A*13
$IIRMB,A,0.23,R,,BAYBDG  ,,,,,008.10,001,,V,A*7B
$IIRMC,000857,A,3739.852,N,12222.814,W,,,290310,15,E,A*3A
$IIVHW,,,271,M,00.0,N,,*60
$IIVLW,00000,N,000.0,N*53
$IIVWR,005,R,12.8,N,,,,*6F
$IIGLL,3739.852,N,12222.814,W,000857,A,A*45
$IIHDG,271,,,15,E*12
$IIMTW,+15.5,C*39
$IIMWV,004,R,12.3,N,A*17
$IIMWV,005,T,12.8,N,A*1B
$IIRMC,000857,A,3739.852,N,12222.814,W,,,290310,15,E,A*3A
$IIVHW,,,271,M,00.0,N,,*60
$IIVLW,00000,N,000.0,N*53
$IIVWR,004,R,12.3,N,,,,*65
$IIGLL,3739.853,N,12222.814,W,000859,A,A*4A
$IIHDG,271,,,15,E*12
$IIMTW,+15.5,C*39
$IIMWV,007,R,11.6,N,A*12
$IIMWV,004,T,12.3,N,A*11
$IIRMB,A,0.23,R,,BAYBDG  ,,,,,008.10,001,,V,A*7B
$IIRMC,000859,A,3739.853,N,12222.814,W,,,290310,15,E,A*35
$IIVHW,,,271,M,00.0,N,,*60
$IIVLW,00000,N,000.0,N*53
$IIVWR,010,R,10.8,N,,,,*69
$IIGLL,3739.852,N,12222.814,W,000900,A,A*46
$IIHDG,271,,,15,E*12
$IIMTW,+15.5,C*39
$IIMWV,010,R,10.8,N,A*1B
$IIMWV,007,T,11.6,N,A*14
$IIRMC,000900,A,3739.852,N,12222.814,W,,,290310,15,E,A*39
$IIVHW,,,271,M,00.0,N,,*60
$IIVLW,00000,N,000.0,N*53
$IIVWR,009,R,09.6,N,,,,*67
$IIGLL,3739.852,N,12222.814,W,000901,A,A*47
$IIHDG,271,,,15,E*12
$IIMTW,+15.5,C*39
$IIMWV,009,R,09.6,N,A*15
$IIMWV,010,T,10.8,N,A*1D
$IIRMB,A,0.23,R,,BAYBDG  ,,,,,008.10,001,,V,A*7B
$IIRMC,000902,A,3739.852,N,12222.814,W,,,290310,15,E,A*3B
$IIVHW,,,271,M,00.0,N,,*60
$IIVLW,00000,N,000.0,N*53
$IIVWR,008,R,08.8,N,,,,*69
$IIGLL,3739.852,N,12222.814,W,000902,A,A*44
$IIHDG,271,,,15,E*12
$IIMTW,+15.5,C*39
$IIMWV,008,R,08.8,N,A*1B
$IIMWV,009,T,09.6,N,A*13
$IIRMB,A,0.23,R,,BAYBDG  ,,,,,008.10,001,,V,A*7B
$IIRMC,000903,A,3739.853,N,12222.814,W,,,290310,15,E,A*3B
$IIVHW,,,271,M,00.0,N,,*60
$IIVLW,00000,N,000.0,N*53
$IIVWR,006,R,08.4,N,,,,*6B
$IIGLL,3739.853,N,12222.814,W,000903,A,A*44
$IIHDG,271,,,15,E*12
$IIMTW,+15.5,C*39
$IIMWV,004,R,08.4,N,A*1B
$IIMWV,006,T,08.4,N,A*1F
$IIRMC,000904,A,3739.853,N,12222.814,W,,,290310,15,E,A*3C
$IIVHW,,,271,M,00.0,N,,*60
$IIVLW,00000,N,000.0,N*53
$IIVWR,004,R,08.4,N,,,,*69
$IIGLL,3739.853,N,12222.814,W,000904,A,A*43
$IIHDG,271,,,15,E*12
$IIMTW,+15.5,C*39
$IIMWV,359,R,09.2,N,A*17
$IIMWV,004,T,08.4,N,A*1D
$IIRMB,A,0.23,R,,BAYBDG  ,,,,,008.10,001,,V,A*7B
$IIRMC,000905,A,3739.853,N,12222.814,W,,,290310,15,E,A*3D
$IIVHW,,,271,M,00.0,N,,*60
$IIVLW,00000,N,000.0,N*53
$IIVWR,001,L,09.2,N,,,,*75
$IIGLL,3739.853,N,12222.814,W,000905,A,A*42
$IIHDG,271,,,15,E*12
$IIMTW,+15.5,C*39
$IIMWV,357,R,09.4,N,A*1F
$IIMWV,359,T,09.2,N,A*11
$IIRMC,000906,A,3739.853,N,12222.814,W,,,290310,15,E,A*3E
$IIVHW,,,271,M,00.0,N,,*60
$IIVLW,00000,N,000.0,N*53
$IIVWR,003,L,09.4,N,,,,*71
$IIGLL,3739.853,N,12222.814,W,000906,A,A*41
$IIHDG,271,,,15,E*12
$IIMTW,+15.5,C*39
$IIMWV,355,R,09.4,N,A*1D
$IIMWV,357,T,09.4,N,A*19
$IIRMB,A,0.23,R,,BAYBDG  ,,,,,008.10,001,,V,A*7B
$IIRMC,000907,A,3739.854,N,12222.814,W,,,290310,15,E,A*38
$IIVHW,,,271,M,00.0,N,,*60
$IIVLW,00000,N,000.0,N*53
$IIVWR,005,L,09.4,N,,,,*77
$IIGLL,3739.853,N,12222.814,W,000908,A,A*4F
$IIHDG,271,,,15,E*12
$IIMTW,+15.5,C*39
$IIMWV,352,R,09.2,N,A*1C
$IIMWV,355,T,09.4,N,A*1B
$IIRMC,000908,A,3739.853,N,12222.814,W,,,290310,15,E,A*30
$IIVHW,,,271,M,00.0,N,,*60
$IIVLW,00000,N,000.0,N*53
$IIVWR,008,L,09.2,N,,,,*7C
$IIGLL,3739.853,N,12222.814,W,000909,A,A*4E
$IIHDG,271,,,15,E*12
$IIMTW,+15.5,C*39
$IIMWV,352,R,09.5,N,A*1B
$IIMWV,352,T,09.2,N,A*1A
$IIRMB,A,0.23,R,,BAYBDG  ,,,,,008.10,001,,V,A*7B
$IIRMC,000909,A,3739.853,N,12222.814,W,,,290310,15,E,A*31
$IIVHW,,,271,M,00.0,N,,*60
$IIVLW,00000,N,000.0,N*53
$IIVWR,008,L,10.5,N,,,,*73
$IIGLL,3739.853,N,12222.814,W,000910,A,A*46
$IIHDG,271,,,15,E*12
$IIMTW,+15.5,C*39
$IIMWV,352,R,10.5,N,A*13
$IIMWV,352,T,09.5,N,A*1D
$IIRMC,000910,A,3739.853,N,12222.814,W,,,290310,15,E,A*39
$IIVHW,,,271,M,00.0,N,,*60
$IIVLW,00000,N,000.0,N*53
$IIVWR,010,L,11.3,N,,,,*7D
$IIGLL,3739.853,N,12222.814,W,000911,A,A*47
$IIHDG,271,,,15,E*12
$IIMTW,+15.5,C*39
$IIMWV,350,R,11.3,N,A*16
$IIMWV,352,T,10.5,N,A*15
$IIRMB,A,0.23,R,,BAYBDG  ,,,,,008.10,001,,V,A*7B
$IIRMC,000912,A,3739.853,N,12222.814,W,,,290310,15,E,A*3B
$IIVHW,,,271,M,00.0,N,,*60
$IIVLW,00000,N,000.0,N*53
$IIVWR,008,L,12.4,N,,,,*70
$IIGLL,3739.853,N,12222.814,W,000912,A,A*44
$IIHDG,271,,,15,E*12
$IIMTW,+15.5,C*39
$IIMWV,352,R,12.4,N,A*10
$IIMWV,350,T,11.3,N,A*10
$IIRMB,A,0.23,R,,BAYBDG  ,,,,,008.10,001,,V,A*7B
$IIRMC,000914,A,3739.853,N,12222.814,W,,,290310,15,E,A*3D
$IIVHW,,,271,M,00.0,N,,*60
$IIVLW,00000,N,000.0,N*53
$IIVWR,004,L,13.2,N,,,,*7B
$IIGLL,3739.853,N,12222.814,W,000914,A,A*42
$IIHDG,271,,,15,E*12
$IIMTW,+15.5,C*39
$IIMWV,359,R,13.2,N,A*1C
$IIMWV,356,T,13.2,N,A*15
$IIRMB,A,0.23,R,,BAYBDG  ,,,,,008.10,001,,V,A*7B
$IIRMC,000915,A,3739.854,N,12222.814,W,,,290310,15,E,A*3B
$IIVHW,,,271,M,00.0,N,,*60
$IIVLW,00000,N,000.0,N*53
$IIVWR,001,L,13.2,N,,,,*7E
$IIGLL,3739.854,N,12222.814,W,000915,A,A*44
$IIHDG,271,,,15,E*12
$IIMTW,+15.5,C*39
$IIMWV,002,R,13.2,N,A*11
$IIMWV,359,T,13.2,N,A*1A
$IIRMC,000916,A,3739.854,N,12222.814,W,,,290310,15,E,A*38
$IIVHW,,,271,M,00.0,N,,*60
$IIVLW,00000,N,000.0,N*53
$IIVWR,002,R,13.2,N,,,,*63
$IIGLL,3739.854,N,12222.814,W,000916,A,A*47
$IIHDG,271,,,15,E*12
$IIMTW,+15.5,C*39
$IIMWV,002,R,13.5,N,A*16
$IIMWV,002,T,13.2,N,A*17
$IIRMB,A,0.23,R,,BAYBDG  ,,,,,008.10,001,,V,A*7B
$IIRMC,000917,A,3739.854,N,12222.814,W,,,290310,15,E,A*39
$IIVHW,,,271,M,00.0,N,,*60
$IIVLW,00000,N,000.0,N*53
$IIVWR,002,R,13.5,N,,,,*64
$IIGLL,3739.854,N,12222.814,W,000918,A,A*49
$IIHDG,271,,,15,E*12
$IIMTW,+15.5,C*39
$IIMWV,002,R,13.3,N,A*10
$IIMWV,002,T,13.5,N,A*10
$IIRMC,000918,A,3739.854,N,12222.814,W,,,290310,15,E,A*36
$IIVHW,,,271,M,00.0,N,,*60
$IIVLW,00000,N,000.0,N*53
$IIVWR,002,R,13.3,N,,,,*62
$IIGLL,3739.854,N,12222.814,W,000919,A,A*48
$IIHDG,271,,,15,E*12
$IIMTW,+15.5,C*39
$IIMWV,002,R,13.0,N,A*13
$IIMWV,002,T,13.3,N,A*16
$IIRMB,A,0.23,R,,BAYBDG  ,,,,,008.10,001,,V,A*7B
$IIRMC,000919,A,3739.854,N,12222.814,W,,,290310,15,E,A*37
$IIVHW,,,271,M,00.0,N,,*60
$IIVLW,00000,N,000.0,N*53
$IIVWR,003,R,13.0,N,,,,*60
$IIGLL,3739.854,N,12222.814,W,000920,A,A*42
$IIHDG,271,,,15,E*12
$IIMTW,+15.5,C*39
$IIMWV,003,R,13.0,N,A*12
$IIMWV,002,T,13.0,N,A*15
$IIRMC,000920,A,3739.854,N,12222.814,W,,,290310,15,E,A*3D
$IIVHW,,,271,M,00.0,N,,*60
$IIVLW,00000,N,000.0,N*53
$IIVWR,000,R,13.0,N,,,,*63
$IIGLL,3739.854,N,12222.813,W,000921,A,A*44
$IIHDG,271,,,15,E*12
$IIMTW,+15.5,C*39
$IIMWV,000,R,13.0,N,A*11
$IIMWV,003,T,13.0,N,A*14
$IIRMB,A,0.23,R,,BAYBDG  ,,,,,008.10,001,,V,A*7B
$IIRMC,000922,A,3739.854,N,12222.813,W,,,290310,15,E,A*38
$IIVHW,,,271,M,00.0,N,,*60
$IIVLW,00000,N,000.0,N*53
$IIVWR,000,R,12.8,N,,,,*6A
$IIGLL,3739.854,N,12222.813,W,000922,A,A*47
$IIHDG,271,,,15,E*12
$IIMTW,+15.5,C*39
$IIMWV,000,R,12.8,N,A*18
$IIMWV,000,T,13.0,N,A*17
$IIRMB,A,0.23,R,,BAYBDG  ,,,,,008.10,001,,V,A*7B
$IIRMC,000923,A,3739.854,N,12222.813,W,,,290310,15,E,A*39
$IIVHW,,,271,M,00.0,N,,*60
$IIVLW,00000,N,000.0,N*53
$IIVWR,004,L,12.9,N,,,,*71
$IIGLL,3739.854,N,12222.813,W,000923,A,A*46
$IIHDG,271,,,15,E*12
$IIMTW,+15.5,C*39
$IIMWV,355,R,13.2,N,A*10
$IIMWV,356,T,12.9,N,A*1F
$IIRMC,000924,A,3739.854,N,12222.813,W,,,290310,15,E,A*3E
$IIVHW,,,271,M,00.0,N,,*60
$IIVLW,00000,N,000.0,N*53
$IIVWR,005,L,13.2,N,,,,*7A
$IIGLL,3739.854,N,12222.813,W,000924,A,A*41
$IIHDG,271,,,15,E*12
$IIMTW,+15.5,C*39
$IIMWV,356,R,13.9,N,A*18
$IIMWV,355,T,13.2,N,A*16
$IIRMB,A,0.23,R,,BAYBDG  ,,,,,008.10,001,,V,A*7B
$IIRMC,000925,A,3739.854,N,12222.813,W,,,290310,15,E,A*3F
$IIVHW,,,271,M,00.0,N,,*60
$IIVLW,00000,N,000.0,N*53
$IIVWR,004,L,13.9,N,,,,*70
$IIGLL,3739.854,N,12222.813,W,000925,A,A*40
$IIHDG,271,,,15,E*12
$IIMTW,+15.5,C*39
$IIMWV,355,R,14.2,N,A*17
$IIMWV,356,T,13.9,N,A*1E
$IIRMC,000926,A,3739.855,N,12222.813,W,,,290310,15,E,A*3D
$IIVHW,,,271,M,00.0,N,,*60
$IIVLW,00000,N,000.0,N*53
$IIVWR,005,L,14.2,N,,,,*7D
$IIGLL,3739.855,N,12222.813,W,000926,A,A*42
$IIHDG,271,,,15,E*12
$IIMTW,+15.5,C*39
$IIMWV,354,R,14.5,N,A*11
$IIMWV,355,T,14.2,N,A*11
$IIRMB,A,0.23,R,,BAYBDG  ,,,,,008.10,001,,V,A*7B
$IIRMC,000927,A,3739.855,N,12222.813,W,,,290310,15,E,A*3C
$IIVHW,,,271,M,00.0,N,,*60
$IIVLW,00000,N,000.0,N*53
$IIVWR,006,L,14.5,N,,,,*79
$IIGLL,3739.855,N,12222.813,W,000928,A,A*4C
$IIHDG,271,,,15,E*12
$IIMTW,+15.5,C*39
$IIMWV,352,R,14.4,N,A*16
$IIMWV,354,T,14.5,N,A*17
$IIRMC,000928,A,3739.855,N,12222.813,W,,,290310,15,E,A*33
$IIVHW,,,271,M,00.0,N,,*60
$IIVLW,00000,N,000.0,N*53
$IIVWR,008,L,14.4,N,,,,*76
$IIGLL,3739.856,N,12222.813,W,000929,A,A*4E
$IIHDG,271,,,15,E*12
$IIMTW,+15.5,C*39
$IIMWV,351,R,14.5,N,A*14
$IIMWV,352,T,14.4,N,A*10
$IIRMB,A,0.23,R,,BAYBDG  ,,,,,008.10,001,,V,A*7B
$IIRMC,000929,A,3739.856,N,12222.813,W,,,290310,15,E,A*31
$IIVHW,,,271,M,00.0,N,,*60
$IIVLW,00000,N,000.0,N*53
$IIVWR,005,L,14.4,N,,,,*7B
$IIGLL,3739.856,N,12222.813,W,000930,A,A*46
$IIHDG,271,,,15,E*12
$IIMTW,+15.5,C*39
$IIMWV,355,R,14.4,N,A*11
$IIMWV,351,T,14.5,N,A*12
$IIRMC,000930,A,3739.856,N,12222.813,W,,,290310,15,E,A*39
$IIVHW,,,271,M,00.0,N,,*60
$IIVLW,00000,N,000.0,N*53
$IIVWR,003,L,14.6,N,,,,*7F
$IIGLL,3739.855,N,12222.813,W,000931,A,A*44
$IIHDG,271,,,15,E*12
$IIMTW,+15.5,C*39
$IIMWV,357,R,14.6,N,A*11
$IIMWV,355,T,14.4,N,A*17
$IIRMB,A,0.23,R,,BAYBDG  ,,,,,008.10,001,,V,A*7B
$IIRMC,000932,A,3739.855,N,12222.813,W,,,290310,15,E,A*38
$IIVHW,,,271,M,00.0,N,,*60
$IIVLW,00000,N,000.0,N*53
$IIVWR,003,L,14.6,N,,,,*7F
$IIGLL,3739.855,N,12222.813,W,000932,A,A*47
$IIHDG,271,,,15,E*12
$IIMTW,+15.5,C*39
$IIMWV,357,R,14.6,N,A*11
$IIMWV,357,T,14.6,N,A*17
$IIRMB,A,0.23,R,,BAYBDG  ,,,,,008.10,001,,V,A*7B
$IIRMC,000933,A,3739.855,N,12222.813,W,,,290310,15,E,A*39
$IIVHW,,,271,M,00.0,N,,*60
$IIVLW,00000,N,000.0,N*53
$IIVWR,001,L,14.5,N,,,,*7E
$IIGLL,3739.855,N,12222.813,W,000933,A,A*46
$IIHDG,271,,,15,E*12
$IIMTW,+15.5,C*39
$IIMWV,000,R,14.3,N,A*15
$IIMWV,359,T,14.5,N,A*1A
$IIRMC,000934,A,3739.855,N,12222.813,W,,,290310,15,E,A*3E
$IIVHW,,,271,M,00.0,N,,*60
$IIVLW,00000,N,000.0,N*53
$IIVWR,000,R,14.3,N,,,,*67
$IIGLL,3739.855,N,12222.813,W,000934,A,A*41
$IIHDG,271,,,15,E*12
$IIMTW,+15.5,C*39
$IIMWV,002,R,13.6,N,A*15
$IIMWV,000,T,14.3,N,A*13
$IIRMB,A,0.23,R,,BAYBDG  ,,,,,008.10,001,,V,A*7B
$IIRMC,000935,A,3739.856,N,12222.813,W,,,290310,15,E,A*3C
$IIVHW,,,271,M,00.0,N,,*60
$IIVLW,00000,N,000.0,N*53
$IIVWR,002,R,13.6,N,,,,*67
$IIGLL,3739.856,N,12222.813,W,000935,A,A*43
$IIHDG,271,,,15,E*12
$IIMTW,+15.5,C*39
$IIMWV,002,R,13.1,N,A*12
$IIMWV,002,T,13.6,N,A*13
$IIRMC,000936,A,3739.856,N,12222.813,W,,,290310,15,E,A*3F
$IIVHW,,,271,M,00.0,N,,*60
$IIVLW,00000,N,000.0,N*53
$IIVWR,002,R,13.1,N,,,,*60
$IIGLL,3739.856,N,12222.813,W,000936,A,A*40
$IIHDG,271,,,15,E*12
$IIMTW,+15.5,C*39
$IIMWV,005,R,13.1,N,A*15
$IIMWV,002,T,13.1,N,A*14
$IIRMB,A,0.23,R,,BAYBDG  ,,,,,008.10,001,,V,A*7B
$IIRMC,000937,A,3739.856,N,12222.813,W,,,290310,15,E,A*3E
$IIVHW,,,271,M,00.0,N,,*60
$IIVLW,00000,N,000.0,N*53
$IIVWR,005,R,13.1,N,,,,*67
$IIGLL,3739.856,N,12222.813,W,000938,A,A*4E
$IIHDG,271,,,15,E*12
$IIMTW,+15.5,C*39
$IIMWV,006,R,12.8,N,A*1E
$IIMWV,005,T,13.1,N,A*13
$IIRMC,000938,A,3739.856,N,12222.813,W,,,290310,15,E,A*31
$IIVHW,,,271,M,00.0,N,,*60
$IIVLW,00000,N,000.0,N*53
$IIVWR,006,R,12.8,N,,,,*6C
$IIGLL,3739.855,N,12222.813,W,000939,A,A*4C
$IIHDG,271,,,15,E*12
$IIMTW,+15.5,C*39
$IIMWV,006,R,12.3,N,A*15
$IIMWV,006,T,12.8,N,A*18
$IIRMB,A,0.23,R,,BAYBDG  ,,,,,008.10,001,,V,A*7B
$IIRMC,000939,A,3739.855,N,12222.813,W,,,290310,15,E,A*33
$IIVHW,,,271,M,00.0,N,,*60
$IIVLW,00000,N,000.0,N*53
$IIVWR,006,R,12.3,N,,,,*67
$IIGLL,3739.855,N,12222.814,W,000940,A,A*45
$IIHDG,271,,,15,E*12
$IIMTW,+15.5,C*39
$IIMWV,006,R,12.3,N,A*15
$IIMWV,006,T,12.3,N,A*13
$IIRMC,000940,A,3739.855,N,12222.814,W,,,290310,15,E,A*3A
$IIVHW,,,271,M,00.0,N,,*60
$IIVLW,00000,N,000.0,N*53
$IIVWR,011,R,12.2,N,,,,*60
$IIGLL,3739.854,N,12222.814,W,000941,A,A*45
$IIHDG,271,,,15,E*12
$IIMTW,+15.5,C*39
$IIMWV,011,R,12.2,N,A*12
$IIMWV,006,T,12.3,N,A*13
$IIRMB,A,0.23,R,,BAYBDG  ,,,,,008.10,001,,V,A*7B
$IIRMC,000942,A,3739.854,N,12222.814,W,,,290310,15,E,A*39
$IIVHW,,,271,M,00.0,N,,*60
$IIVLW,00000,N,000.0,N*53
$IIVWR,010,R,11.8,N,,,,*68
$IIGLL,3739.854,N,12222.814,W,000942,A,A*46
$IIHDG,271,,,15,E*12
$IIMTW,+15.5,C*39
$IIMWV,010,R,11.8,N,A*1A
$IIMWV,011,T,12.2,N,A*14
$IIRMC,000943,A,3739.854,N,12222.814,W,,,290310,15,E,A*38
$IIVHW,,,271,M,00.0,N,,*60
$IIVLW,00000,N,000.0,N*53
$IIVWR,010,R,12.0,N,,,,*63
$IIGLL,3739.854,N,12222.814,W,000943,A,A*47
$IIHDG,271,,,15,E*12
$IIMTW,+15.5,C*39
$IIMWV,010,R,12.0,N,A*11
$IIMWV,010,T,11.8,N,A*1C
$IIRMC,000944,A,3739.854,N,12222.814,W,,,290310,15,E,A*3F
$IIVHW,,,271,M,00.0,N,,*60
$IIVLW,00000,N,000.0,N*53
$IIVWR,012,R,11.4,N,,,,*66
$IIGLL,3739.854,N,12222.814,W,000944,A,A*40
$IIHDG,271,,,15,E*12
$IIMTW,+15.5,C*39
$IIMWV,012,R,11.4,N,A*14
$IIMWV,010,T,12.0,N,A*17
$IIRMB,A,0.23,R,,BAYBDG  ,,,,,008.10,001,,V,A*7B
$IIRMC,000945,A,3739.854,N,12222.814,W,,,290310,15,E,A*3E
$IIVHW,,,271,M,00.0,N,,*60
$IIVLW,00000,N,000.0,N*53
$IIVWR,014,R,10.7,N,,,,*62
$IIGLL,3739.854,N,12222.814,W,000945,A,A*41
$IIHDG,271,,,15,E*12
$IIMTW,+15.5,C*39
$IIMWV,011,R,09.9,N,A*13
$IIMWV,014,T,10.7,N,A*16
$IIRMC,000946,A,3739.854,N,12222.814,W,,,290310,15,E,A*3D
$IIVHW,,,271,M,00.0,N,,*60
$IIVLW,00000,N,000.0,N*53
$IIVWR,011,R,09.9,N,,,,*61
$IIGLL,3739.854,N,12222.814,W,000946,A,A*42
$IIHDG,271,,,15,E*12
$IIMTW,+15.5,C*39
$IIMWV,002,R,09.0,N,A*18
$IIMWV,011,T,09.9,N,A*15
$IIRMB,A,0.23,R,,BAYBDG  ,,,,,008.10,001,,V,A*7B
$IIRMC,000947,A,3739.854,N,12222.814,W,,,290310,15,E,A*3C
$IIVHW,,,271,M,00.0,N,,*60
$IIVLW,00000,N,000.0,N*53
$IIVWR,002,R,09.0,N,,,,*6A
$IIGLL,3739.854,N,12222.814,W,000947,A,A*43
$IIHDG,271,,,15,E*12
$IIMTW,+15.5,C*39
$IIMWV,001,R,08.0,N,A*1A
$IIMWV,002,T,09.0,N,A*1E
$IIRMC,000948,A,3739.854,N,12222.814,W,,,290310,15,E,A*33
$IIVHW,,,271,M,00.0,N,,*60
$IIVLW,00000,N,000.0,N*53
$IIVWR,001,R,08.0,N,,,,*68
$IIGLL,3739.854,N,12222.814,W,000948,A,A*4C
$IIHDG,270,,,15,E*13
$IIMTW,+15.5,C*39
$IIMWV,357,R,07.8,N,A*1D
$IIMWV,001,T,08.0,N,A*1C
$IIRMB,A,0.23,R,,BAYBDG  ,,,,,008.10,001,,V,A*7B
$IIRMC,000949,A,3739.854,N,12222.814,W,,,290310,15,E,A*32
$IIVHW,,,270,M,00.0,N,,*61
$IIVLW,00000,N,000.0,N*53
$IIVWR,003,L,07.8,N,,,,*73
$IIGLL,3739.854,N,12222.814,W,000950,A,A*45
$IIHDG,271,,,15,E*12
$IIMTW,+15.5,C*39
$IIMWV,356,R,07.3,N,A*17
$IIMWV,357,T,07.8,N,A*1B
$IIRMC,000950,A,3739.854,N,12222.814,W,,,290310,15,E,A*3A
$IIVHW,,,271,M,00.0,N,,*60
$IIVLW,00000,N,000.0,N*53
$IIVWR,004,L,07.3,N,,,,*7F
$IIGLL,3739.855,N,12222.814,W,000951,A,A*45
$IIHDG,271,,,15,E*12
$IIMTW,+15.5,C*39
$IIMWV,355,R,07.9,N,A*1E
$IIMWV,356,T,07.3,N,A*11
$IIRMB,A,0.23,R,,BAYBDG  ,,,,,008.10,001,,V,A*7B
$IIRMC,000951,A,3739.855,N,12222.814,W,,,290310,15,E,A*3A
$IIVHW,,,271,M,00.0,N,,*60
$IIVLW,00000,N,000.0,N*53
$IIVWR,004,L,08.2,N,,,,*71
$IIGLL,3739.855,N,12222.814,W,000952,A,A*46
$IIHDG,271,,,15,E*12
$IIMTW,+15.5,C*39
$IIMWV,356,R,08.2,N,A*19
$IIMWV,355,T,07.9,N,A*18
$IIRMC,000952,A,3739.855,N,12222.814,W,,,290310,15,E,A*39
$IIVHW,,,271,M,00.0,N,,*60
$IIVLW,00000,N,000.0,N*53
$IIVWR,004,L,08.7,N,,,,*74
$IIGLL,3739.855,N,12222.813,W,000953,A,A*40
$IIHDG,271,,,15,E*12
$IIMTW,+15.5,C*39
$IIMWV,356,R,08.7,N,A*1C
$IIMWV,356,T,08.2,N,A*1F
$IIRMB,A,0.23,R,,BAYBDG  ,,,,,008.10,001,,V,A*7B
$IIRMC,000955,A,3739.855,N,12222.813,W,,,290310,15,E,A*39
$IIVHW,,,271,M,00.0,N,,*60
$IIVLW,00000,N,000.0,N*53
$IIVWR,014,L,08.7,N,,,,*75
$IIGLL,3739.855,N,12222.813,W,000955,A,A*46
$IIHDG,271,,,15,E*12
$IIMTW,+15.5,C*39
$IIMWV,346,R,08.7,N,A*1D
$IIMWV,348,T,08.7,N,A*15
$IIRMB,A,0.23,R,,BAYBDG  ,,,,,008.10,001,,V,A*7B
$IIRMC,000956,A,3739.855,N,12222.813,W,,,290310,15,E,A*3A
$IIVHW,,,271,M,00.0,N,,*60
$IIVLW,00000,N,000.0,N*53
$IIVWR,015,L,07.8,N,,,,*74
$IIGLL,3739.855,N,12222.813,W,000956,A,A*45
$IIHDG,271,,,15,E*12
$IIMTW,+15.5,C*39
$IIMWV,347,R,07.6,N,A*12
$IIMWV,345,T,07.8,N,A*18
$IIRMB,A,0.23,R,,BAYBDG  ,,,,,008.10,001,,V,A*7B
$IIRMC,000957,A,3739.855,N,12222.813,W,,,290310,15,E,A*3B
$IIVHW,,,271,M,00.0,N,,*60
$IIVLW,00000,N,000.0,N*53
$IIVWR,013,L,07.6,N,,,,*7C
$IIGLL,3739.855,N,12222.813,W,000957,A,A*44
$IIHDG,271,,,15,E*12
$IIMTW,+15.5,C*39
$IIMWV,349,R,07.2,N,A*18
$IIMWV,347,T,07.6,N,A*14
$IIRMC,000958,A,3739.856,N,12222.813,W,,,290310,15,E,A*37
$IIVHW,,,271,M,00.0,N,,*60
$IIVLW,00000,N,000.0,N*53
$IIVWR,011,L,07.2,N,,,,*7A
$IIGLL,3739.856,N,12222.813,W,000958,A,A*48
$IIHDG,271,,,15,E*12
$IIMTW,+15.5,C*39
$IIMWV,351,R,07.4,N,A*17
$IIMWV,349,T,07.2,N,A*1E
$IIRMB,A,0.23,R,,BAYBDG  ,,,,,008.10,001,,V,A*7B
$IIRMC,000959,A,3739.856,N,12222.813,W,,,290310,15,E,A*36
$IIVHW,,,271,M,00.0,N,,*60
$IIVLW,00000,N,000.0,N*53
$IIVWR,009,L,07.4,N,,,,*75
$IIGLL,3739.856,N,12222.813,W,001000,A,A*4D
$IIHDG,271,,,15,E*12
$IIMTW,+15.5,C*39
$IIMWV,352,R,07.9,N,A*19
$IIMWV,351,T,07.4,N,A*11
$IIRMC,001000,A,3739.856,N,12222.813,W,,,290310,15,E,A*32
$IIVHW,,,271,M,00.0,N,,*60
$IIVLW,00000,N,000.0,N*53
$IIVWR,008,L,07.9,N,,,,*79
$IIGLL,3739.857,N,12222.812,W,001001,A,A*4C
$IIHDG,271,,,15,E*12
$IIMTW,+15.5,C*39
$IIMWV,353,R,08.1,N,A*1F
$IIMWV,352,T,07.9,N,A*1F
$IIRMB,A,0.23,R,,BAYBDG  ,,,,,008.10,001,,V,A*7B
$IIRMC,001001,A,3739.857,N,12222.812,W,,,290310,15,E,A*33
$IIVHW,,,271,M,00.0,N,,*60
$IIVLW,00000,N,000.0,N*53
$IIVWR,007,L,08.0,N,,,,*70
