$IIVHW,,,181.0,M,0.0,N,,*42
$IIMWV,28.0,R,8.1,N,A*0E
$GPGLL,3205.1766,N,03446.0721,E,062712,A,A*44
$GPRMC,062712,A,3205.1766,N,03446.0721,E,0.0,128.1,160509,3.5,E,A*1F
$IIHDM,181.0,M*2A
$IIVHW,,,181.0,M,0.0,N,,*42
$IIMWV,32.0,R,7.5,N,A*0E
$GPGLL,3205.1766,N,03446.0721,E,062712,A,A*44
$GPRMC,062712,A,3205.1766,N,03446.0721,E,0.0,128.1,160509,3.5,E,A*1F
$IIHDM,181.0,M*2A
$IIVHW,,,181.0,M,0.0,N,,*42
$IIMWV,24.0,R,7.3,N,A*0F
$GPGLL,3205.1766,N,03446.0721,E,062714,A,A*42
$GPRMC,062714,A,3205.1766,N,03446.0721,E,0.0,128.1,160509,3.5,E,A*19
$IIHDM,181.0,M*2A
$IIVHW,,,180.0,M,0.0,N,,*43
$IIMWV,30.0,R,7.1,N,A*08
$GPGLL,3205.1766,N,03446.0721,E,062714,A,A*42
$GPRMC,062716,A,3205.1766,N,03446.0721,E,0.0,128.1,160509,3.5,E,A*1B
$IIHDM,180.0,M*2B
$IIVHW,,,180.0,M,0.0,N,,*43
$IIMWV,40.0,R,7.4,N,A*0A
$GPGLL,3205.1766,N,03446.0721,E,062716,A,A*40
$GPRMC,062716,A,3205.1766,N,03446.0721,E,0.0,128.1,160509,3.5,E,A*1B
$IIHDM,180.0,M*2B
$IIVHW,,,180.0,M,0.0,N,,*43
$IIMWV,32.0,R,7.3,N,A*08
$GPGLL,3205.1766,N,03446.0721,E,062716,A,A*40
$GPRMC,062716,A,3205.1766,N,03446.0721,E,0.0,128.1,160509,3.5,E,A*1B
$IIHDM,180.0,M*2B
$IIVHW,,,180.0,M,0.0,N,,*43
$IIMWV,26.0,R,8.2,N,A*03
$GPGLL,3205.1766,N,03446.0721,E,062718,A,A*4E
$GPRMC,062718,A,3205.1766,N,03446.0721,E,0.0,128.1,160509,3.5,E,A*15
$IIHDM,180.0,M*2B
$IIVHW,,,180.0,M,0.0,N,,*43
$IIMWV,28.0,R,7.9,N,A*09
$GPGLL,3205.1766,N,03446.0721,E,062718,A,A*4E
$GPRMC,062718,A,3205.1766,N,03446.0721,E,0.0,128.1,160509,3.5,E,A*15
$IIHDM,180.0,M*2B
$IIVHW,,,180.0,M,0.0,N,,*43
$IIMWV,24.0,R,7.9,N,A*05
$GPGLL,3205.1766,N,03446.0721,E,062720,A,A*45
$GPRMC,062720,A,3205.1766,N,03446.0721,E,0.0,128.1,160509,3.5,E,A*1E
$IIHDM,180.0,M*2B
$IIVHW,,,180.0,M,0.0,N,,*43
$IIMWV,28.0,R,7.8,N,A*08
$GPGLL,3205.1766,N,03446.0721,E,062720,A,A*45
$GPRMC,062720,A,3205.1766,N,03446.0721,E,0.0,128.1,160509,3.5,E,A*1E
$IIHDM,180.0,M*2B
$IIVHW,,,180.0,M,0.0,N,,*43
$IIMWV,31.0,R,7.6,N,A*0E
$GPGLL,3205.1766,N,03446.0721,E,062722,A,A*47
$GPRMC,062722,A,3205.1766,N,03446.0721,E,0.0,128.1,160509,3.5,E,A*1C
$IIHDM,180.0,M*2B
$IIVHW,,,180.0,M,0.0,N,,*43
$IIMWV,29.0,R,7.8,N,A*09
$GPGLL,3205.1766,N,03446.0721,E,062722,A,A*47
$GPRMC,062722,A,3205.1766,N,03446.0721,E,0.0,128.1,160509,3.5,E,A*1C
$IIHDM,180.0,M*2B
$IIVHW,,,180.0,M,0.0,N,,*43
$IIMWV,31.0,R,7.9,N,A*01
$GPGLL,3205.1766,N,03446.0721,E,062724,A,A*41
$GPRMC,062724,A,3205.1766,N,03446.0721,E,0.0,128.1,160509,3.5,E,A*1A
$IIHDM,180.0,M*2B
$IIVHW,,,180.0,M,0.0,N,,*43
$IIMWV,31.0,R,7.9,N,A*01
$GPGLL,3205.1766,N,03446.0721,E,062724,A,A*41
$GPRMC,062724,A,3205.1766,N,03446.0721,E,0.0,128.1,160509,3.5,E,A*1A
$IIHDM,180.0,M*2B
$IIVHW,,,180.0,M,0.0,N,,*43
$IIMWV,29.0,R,8.0,N,A*0E
$GPGLL,3205.1766,N,03446.0721,E,062726,A,A*43
$GPRMC,062726,A,3205.1766,N,03446.0721,E,0.0,128.1,160509,3.5,E,A*18
$IIHDM,180.0,M*2B
$IIVHW,,,180.0,M,0.0,N,,*43
$IIMWV,31.0,R,8.1,N,A*06
$GPGLL,3205.1766,N,03446.0721,E,062726,A,A*43
$GPRMC,062728,A,3205.1766,N,03446.0721,E,0.0,128.1,160509,3.5,E,A*16
$IIHDM,180.0,M*2B
$IIVHW,,,180.0,M,0.0,N,,*43
$IIMWV,31.0,R,8.4,N,A*03
$GPGLL,3205.1766,N,03446.0721,E,062728,A,A*4D
$GPRMC,062728,A,3205.1766,N,03446.0721,E,0.0,128.1,160509,3.5,E,A*16
$IIHDM,180.0,M*2B
$IIVHW,,,180.0,M,0.0,N,,*43
$IIMWV,28.0,R,8.4,N,A*0B
$GPGLL,3205.1766,N,03446.0721,E,062728,A,A*4D
$GPRMC,062730,A,3205.1766,N,03446.0721,E,0.0,128.1,160509,3.5,E,A*1F
$IIHDM,180.0,M*2B
$IIVHW,,,180.0,M,0.0,N,,*43
$IIMWV,31.0,R,7.7,N,A*0F
$GPGLL,3205.1766,N,03446.0721,E,062730,A,A*44
$GPRMC,062730,A,3205.1766,N,03446.0721,E,0.0,128.1,160509,3.5,E,A*1F
$IIHDM,180.0,M*2B
$IIVHW,,,180.0,M,0.0,N,,*43
$IIMWV,26.0,R,7.7,N,A*09
$GPGLL,3205.1766,N,03446.0721,E,062730,A,A*44
$GPRMC,062730,A,3205.1766,N,03446.0721,E,0.0,128.1,160509,3.5,E,A*1F
$IIHDM,180.0,M*2B
$IIVHW,,,180.0,M,0.0,N,,*43
$IIMWV,29.0,R,7.7,N,A*06
$GPGLL,3205.1766,N,03446.0721,E,062732,A,A*46
$GPRMC,062732,A,3205.1766,N,03446.0721,E,0.0,128.1,160509,3.5,E,A*1D
$IIHDM,180.0,M*2B
$IIVHW,,,180.0,M,0.0,N,,*43
$IIMWV,28.0,R,7.8,N,A*08
$GPGLL,3205.1766,N,03446.0721,E,062732,A,A*46
$GPRMC,062732,A,3205.1766,N,03446.0721,E,0.0,128.1,160509,3.5,E,A*1D
$IIHDM,180.0,M*2B
$IIVHW,,,180.0,M,0.0,N,,*43
$IIMWV,30.0,R,7.8,N,A*01
$GPGLL,3205.1766,N,03446.0721,E,062734,A,A*40
$GPRMC,062734,A,3205.1766,N,03446.0721,E,0.0,128.1,160509,3.5,E,A*1B
$IIHDM,180.0,M*2B
$IIVHW,,,180.0,M,0.0,N,,*43
$IIMWV,34.0,R,7.9,N,A*04
$GPGLL,3205.1766,N,03446.0721,E,062734,A,A*40
$GPRMC,062734,A,3205.1766,N,03446.0721,E,0.0,128.1,160509,3.5,E,A*1B
$IIHDM,180.0,M*2B
$IIVHW,,,180.0,M,0.0,N,,*43
$IIMWV,30.0,R,8.3,N,A*05
$GPGLL,3205.1766,N,03446.0721,E,062736,A,A*42
$GPRMC,062736,A,3205.1766,N,03446.0721,E,0.0,128.1,160509,3.5,E,A*19
$IIHDM,180.0,M*2B
$IIVHW,,,180.0,M,0.0,N,,*43
$IIMWV,29.0,R,8.5,N,A*0B
$GPGLL,3205.1766,N,03446.0721,E,062736,A,A*42
$GPRMC,062736,A,3205.1766,N,03446.0721,E,0.0,128.1,160509,3.5,E,A*19
$IIHDM,180.0,M*2B
$IIVHW,,,180.0,M,0.0,N,,*43
$IIMWV,28.0,R,8.6,N,A*09
$GPGLL,3205.1766,N,03446.0721,E,062738,A,A*4C
$GPRMC,062738,A,3205.1766,N,03446.0721,E,0.0,128.1,160509,3.5,E,A*17
$IIHDM,180.0,M*2B
$IIVHW,,,180.0,M,0.0,N,,*43
$IIMWV,25.0,R,8.5,N,A*07
$GPGLL,3205.1766,N,03446.0721,E,062738,A,A*4C
$GPRMC,062738,A,3205.1766,N,03446.0721,E,0.0,128.1,160509,3.5,E,A*17
$IIHDM,180.0,M*2B
$IIVHW,,,180.0,M,0.0,N,,*43
$IIMWV,24.0,R,8.1,N,A*02
$GPGLL,3205.1766,N,03446.0721,E,062740,A,A*43
$GPRMC,062740,A,3205.1766,N,03446.0721,E,0.0,128.1,160509,3.5,E,A*18
$IIHDM,180.0,M*2B
$IIVHW,,,180.0,M,0.0,N,,*43
$IIMWV,26.0,R,7.6,N,A*08
$GPGLL,3205.1766,N,03446.0721,E,062740,A,A*43
$GPRMC,062742,A,3205.1766,N,03446.0721,E,0.0,128.1,160509,3.5,E,A*1A
$IIHDM,180.0,M*2B
$IIVHW,,,180.0,M,0.0,N,,*43
$IIMWV,25.0,R,7.4,N,A*09
$GPGLL,3205.1766,N,03446.0721,E,062742,A,A*41
$GPRMC,062742,A,3205.1766,N,03446.0721,E,0.0,128.1,160509,3.5,E,A*1A
$IIHDM,180.0,M*2B
$IIVHW,,,180.0,M,0.0,N,,*43
$IIMWV,25.0,R,7.4,N,A*09
$GPGLL,3205.1766,N,03446.0721,E,062742,A,A*41
$GPRMC,062742,A,3205.1766,N,03446.0721,E,0.0,128.1,160509,3.5,E,A*1A
$IIHDM,180.0,M*2B
$IIVHW,,,180.0,M,0.0,N,,*43
$IIMWV,30.0,R,7.5,N,A*0C
$GPGLL,3205.1766,N,03446.0721,E,062744,A,A*47
$GPRMC,062744,A,3205.1766,N,03446.0721,E,0.0,128.1,160509,3.5,E,A*1C
$IIHDM,180.0,M*2B
$IIVHW,,,180.0,M,0.0,N,,*43
$IIMWV,31.0,R,7.4,N,A*0C
$GPGLL,3205.1766,N,03446.0721,E,062744,A,A*47
$GPRMC,062744,A,3205.1766,N,03446.0721,E,0.0,128.1,160509,3.5,E,A*1C
$IIHDM,180.0,M*2B
$IIVHW,,,180.0,M,0.0,N,,*43
$IIMWV,34.0,R,7.2,N,A*0F
$GPGLL,3205.1766,N,03446.0721,E,062746,A,A*45
$GPRMC,062746,A,3205.1766,N,03446.0721,E,0.0,128.1,160509,3.5,E,A*1E
$IIHDM,180.0,M*2B
$IIVHW,,,180.0,M,0.0,N,,*43
$IIMWV,35.0,R,7.0,N,A*0C
$GPGLL,3205.1766,N,03446.0721,E,062746,A,A*45
$GPRMC,062746,A,3205.1766,N,03446.0721,E,0.0,128.1,160509,3.5,E,A*1E
$IIHDM,180.0,M*2B
$IIVHW,,,180.0,M,0.0,N,,*43
$IIMWV,31.0,R,7.2,N,A*0A
$GPGLL,3205.1766,N,03446.0721,E,062748,A,A*4B
$GPRMC,062748,A,3205.1766,N,03446.0721,E,0.0,128.1,160509,3.5,E,A*10
$IIHDM,180.0,M*2B
$IIVHW,,,180.0,M,0.0,N,,*43
$IIMWV,25.0,R,7.3,N,A*0E
$GPGLL,3205.1766,N,03446.0721,E,062748,A,A*4B
$GPRMC,062748,A,3205.1766,N,03446.0721,E,0.0,128.1,160509,3.5,E,A*10
$IIHDM,180.0,M*2B
$IIVHW,,,180.0,M,0.0,N,,*43
$IIMWV,30.0,R,7.3,N,A*0A
$GPGLL,3205.1766,N,03446.0721,E,062750,A,A*42
$GPRMC,062750,A,3205.1766,N,03446.0721,E,0.0,128.1,160509,3.5,E,A*19
$IIHDM,180.0,M*2B
$IIVHW,,,180.0,M,0.0,N,,*43
$IIMWV,27.0,R,7.2,N,A*0D
$GPGLL,3205.1766,N,03446.0721,E,062750,A,A*42
$GPRMC,062750,A,3205.1766,N,03446.0721,E,0.0,128.1,160509,3.5,E,A*19
$IIHDM,180.0,M*2B
$IIVHW,,,180.0,M,0.0,N,,*43
$IIMWV,24.0,R,7.5,N,A*09
$GPGLL,3205.1766,N,03446.0721,E,062752,A,A*40
$GPRMC,062752,A,3205.1766,N,03446.0721,E,0.0,128.1,160509,3.5,E,A*1B
$IIHDM,180.0,M*2B
$IIVHW,,,180.0,M,0.0,N,,*43
$IIMWV,18.0,R,7.2,N,A*01
$GPGLL,3205.1766,N,03446.0721,E,062752,A,A*40
$GPRMC,062754,A,3205.1766,N,03446.0721,E,0.0,128.1,160509,3.5,E,A*1D
$IIHDM,180.0,M*2B
$IIVHW,,,180.0,M,0.0,N,,*43
$IIMWV,25.0,R,7.2,N,A*0F
$GPGLL,3205.1766,N,03446.0721,E,062754,A,A*46
$GPRMC,062754,A,3205.1766,N,03446.0721,E,0.0,128.1,160509,3.5,E,A*1D
$IIHDM,180.0,M*2B
$IIVHW,,,180.0,M,0.0,N,,*43
$IIMWV,23.0,R,7.2,N,A*09
$GPGLL,3205.1766,N,03446.0721,E,062754,A,A*46
$GPRMC,062756,A,3205.1766,N,03446.0721,E,0.0,128.1,160509,3.5,E,A*1F
$IIHDM,180.0,M*2B
$IIVHW,,,180.0,M,0.0,N,,*43
$IIMWV,24.0,R,7.4,N,A*08
$GPGLL,3205.1766,N,03446.0721,E,062756,A,A*44
$GPRMC,062756,A,3205.1766,N,03446.0721,E,0.0,128.1,160509,3.5,E,A*1F
$IIHDM,180.0,M*2B
$IIVHW,,,180.0,M,0.0,N,,*43
$IIMWV,26.0,R,7.5,N,A*0B
$GPGLL,3205.1766,N,03446.0721,E,062756,A,A*44
$GPRMC,062756,A,3205.1766,N,03446.0721,E,0.0,128.1,160509,3.5,E,A*1F
$IIHDM,180.0,M*2B
$IIVHW,,,181.0,M,0.0,N,,*42
$IIMWV,15.0,R,7.4,N,A*0A
$GPGLL,3205.1766,N,03446.0721,E,062758,A,A*4A
$GPRMC,062758,A,3205.1766,N,03446.0721,E,0.0,128.1,160509,3.5,E,A*11
$IIHDM,181.0,M*2A
$IIVHW,,,181.0,M,0.0,N,,*42
$IIMWV,8.0,R,6.7,N,A*34
$GPGLL,3205.1766,N,03446.0721,E,062758,A,A*4A
$GPRMC,062758,A,3205.1766,N,03446.0721,E,0.0,128.1,160509,3.5,E,A*11
$IIHDM,181.0,M*2A
$IIVHW,,,181.0,M,0.0,N,,*42
$IIMWV,17.0,R,6.5,N,A*08
$GPGLL,3205.1766,N,03446.0721,E,062800,A,A*48
$GPRMC,062800,A,3205.1766,N,03446.0721,E,0.0,128.1,160509,3.5,E,A*13
$IIHDM,181.0,M*2A
$IIVHW,,,180.0,M,0.0,N,,*43
$IIMWV,23.0,R,6.7,N,A*0D
$GPGLL,3205.1766,N,03446.0721,E,062800,A,A*48
$GPRMC,062800,A,3205.1766,N,03446.0721,E,0.0,128.1,160509,3.5,E,A*13
$IIHDM,180.0,M*2B
$IIVHW,,,180.0,M,0.0,N,,*43
$IIMWV,26.0,R,7.5,N,A*0B
$GPGLL,3205.1766,N,03446.0721,E,062802,A,A*4A
$GPRMC,062802,A,3205.1766,N,03446.0721,E,0.0,128.1,160509,3.5,E,A*11
$IIHDM,180.0,M*2B
$IIVHW,,,180.0,M,0.0,N,,*43
$IIMWV,25.0,R,8.1,N,A*03
$GPGLL,3205.1766,N,03446.0721,E,062802,A,A*4A
$GPRMC,062802,A,3205.1766,N,03446.0721,E,0.0,128.1,160509,3.5,E,A*11
$IIHDM,180.0,M*2B
$IIVHW,,,180.0,M,0.0,N,,*43
$IIMWV,22.0,R,8.3,N,A*06
$GPGLL,3205.1766,N,03446.0721,E,062804,A,A*4C
$GPRMC,062804,A,3205.1766,N,03446.0721,E,0.0,128.1,160509,3.5,E,A*17
$IIHDM,180.0,M*2B
$IIVHW,,,180.0,M,0.0,N,,*43
$IIMWV,31.0,R,7.9,N,A*01
$GPGLL,3205.1766,N,03446.0721,E,062804,A,A*4C
$GPRMC,062804,A,3205.1766,N,03446.0721,E,0.0,128.1,160509,3.5,E,A*17
$IIHDM,179.0,M*2D
$IIVHW,,,180.0,M,0.0,N,,*43
$IIMWV,30.0,R,8.0,N,A*06
$GPGLL,3205.1766,N,03446.0721,E,062806,A,A*4E
$GPRMC,062806,A,3205.1766,N,03446.0721,E,0.0,128.1,160509,3.5,E,A*15
$IIHDM,180.0,M*2B
$IIVHW,,,180.0,M,0.0,N,,*43
$IIMWV,28.0,R,7.8,N,A*08
$GPGLL,3205.1766,N,03446.0721,E,062806,A,A*4E
$GPRMC,062808,A,3205.1766,N,03446.0721,E,0.0,128.1,160509,3.5,E,A*1B
$IIHDM,180.0,M*2B
$IIVHW,,,179.0,M,0.0,N,,*45
$IIMWV,27.0,R,7.6,N,A*09
$GPGLL,3205.1766,N,03446.0721,E,062808,A,A*40
$GPRMC,062808,A,3205.1766,N,03446.0721,E,0.0,128.1,160509,3.5,E,A*1B
$IIHDM,179.0,M*2D
$IIVHW,,,180.0,M,0.0,N,,*43
$IIMWV,31.0,R,7.7,N,A*0F
$GPGLL,3205.1766,N,03446.0721,E,062808,A,A*40
$GPRMC,062808,A,3205.1766,N,03446.0721,E,0.0,128.1,160509,3.5,E,A*1B
$IIHDM,180.0,M*2B
$IIVHW,,,180.0,M,0.0,N,,*43
$IIMWV,32.0,R,7.7,N,A*0C
$GPGLL,3205.1766,N,03446.0721,E,062810,A,A*49
$GPRMC,062810,A,3205.1766,N,03446.0721,E,0.0,128.1,160509,3.5,E,A*12
$IIHDM,180.0,M*2B
$IIVHW,,,181.0,M,0.0,N,,*42
$IIMWV,28.0,R,7.9,N,A*09
$GPGLL,3205.1766,N,03446.0721,E,062810,A,A*49
$GPRMC,062810,A,3205.1766,N,03446.0721,E,0.0,128.1,160509,3.5,E,A*12
$IIHDM,181.0,M*2A
$IIVHW,,,181.0,M,0.0,N,,*42
$IIMWV,23.0,R,7.9,N,A*02
$GPGLL,3205.1766,N,03446.0721,E,062812,A,A*4B
$GPRMC,062812,A,3205.1766,N,03446.0721,E,0.0,128.1,160509,3.5,E,A*10
$IIHDM,181.0,M*2A
$IIVHW,,,181.0,M,0.0,N,,*42
$IIMWV,24.0,R,7.8,N,A*04
$GPGLL,3205.1766,N,03446.0721,E,062812,A,A*4B
$GPRMC,062812,A,3205.1766,N,03446.0721,E,0.0,128.1,160509,3.5,E,A*10
$IIHDM,181.0,M*2A
$IIVHW,,,181.0,M,0.0,N,,*42
$IIMWV,22.0,R,7.0,N,A*0A
$GPGLL,3205.1766,N,03446.0721,E,062814,A,A*4D
$GPRMC,062814,A,3205.1766,N,03446.0721,E,0.0,128.1,160509,3.5,E,A*16
$IIHDM,181.0,M*2A
$IIVHW,,,182.0,M,0.0,N,,*41
$IIMWV,21.0,R,6.8,N,A*00
$GPGLL,3205.1766,N,03446.0721,E,062814,A,A*4D
$GPRMC,062814,A,3205.1766,N,03446.0721,E,0.0,128.1,160509,3.5,E,A*16
$IIHDM,182.0,M*29
$IIVHW,,,181.0,M,0.0,N,,*42
$IIMWV,16.0,R,6.9,N,A*05
$GPGLL,3205.1766,N,03446.0721,E,062816,A,A*4F
$GPRMC,062816,A,3205.1766,N,03446.0721,E,0.0,128.1,160509,3.5,E,A*14
$IIHDM,181.0,M*2A
$IIVHW,,,181.0,M,0.0,N,,*42
$IIMWV,23.0,R,6.7,N,A*0D
$GPGLL,3205.1766,N,03446.0721,E,062816,A,A*4F
$GPRMC,062816,A,3205.1766,N,03446.0721,E,0.0,128.1,160509,3.5,E,A*14
$IIHDM,181.0,M*2A
$IIVHW,,,181.0,M,0.0,N,,*42
$IIMWV,26.0,R,6.9,N,A*06
$GPGLL,3205.1766,N,03446.0721,E,062818,A,A*41
$GPRMC,062818,A,3205.1766,N,03446.0721,E,0.0,128.1,160509,3.5,E,A*1A
$IIHDM,181.0,M*2A
$IIVHW,,,181.0,M,0.0,N,,*42
$IIMWV,22.0,R,7.1,N,A*0B
$GPGLL,3205.1766,N,03446.0721,E,062818,A,A*41
$GPRMC,062820,A,3205.1766,N,03446.0721,E,0.0,128.1,160509,3.5,E,A*11
$IIHDM,181.0,M*2A
$IIVHW,,,180.0,M,0.0,N,,*43
$IIMWV,22.0,R,7.1,N,A*0B
$GPGLL,3205.1766,N,03446.0721,E,062820,A,A*4A
$GPRMC,062820,A,3205.1766,N,03446.0721,E,0.0,128.1,160509,3.5,E,A*11
$IIHDM,180.0,M*2B
$IIVHW,,,179.0,M,0.0,N,,*45
$IIMWV,31.0,R,7.2,N,A*0A
$GPGLL,3205.1766,N,03446.0721,E,062820,A,A*4A
$GPRMC,062822,A,3205.1766,N,03446.0721,E,0.0,128.1,160509,3.5,E,A*13
$IIHDM,179.0,M*2D
$IIVHW,,,179.0,M,0.0,N,,*45
$IIMWV,30.0,R,7.2,N,A*0B
$GPGLL,3205.1766,N,03446.0721,E,062822,A,A*48
$GPRMC,062822,A,3205.1766,N,03446.0721,E,0.0,128.1,160509,3.5,E,A*13
$IIHDM,179.0,M*2D
$IIVHW,,,179.0,M,0.0,N,,*45
$IIMWV,30.0,R,7.4,N,A*0D
$GPGLL,3205.1766,N,03446.0721,E,062822,A,A*48
$GPRMC,062822,A,3205.1766,N,03446.0721,E,0.0,128.1,160509,3.5,E,A*13
$IIHDM,179.0,M*2D
$IIVHW,,,179.0,M,0.0,N,,*45
$IIMWV,26.0,R,7.2,N,A*0C
$GPGLL,3205.1766,N,03446.0721,E,062824,A,A*4E
$GPRMC,062824,A,3205.1766,N,03446.0721,E,0.0,128.1,160509,3.5,E,A*15
$IIHDM,179.0,M*2D
$IIVHW,,,179.0,M,0.0,N,,*45
$IIMWV,25.0,R,7.2,N,A*0F
$GPGLL,3205.1766,N,03446.0721,E,062824,A,A*4E
$GPRMC,062824,A,3205.1766,N,03446.0721,E,0.0,128.1,160509,3.5,E,A*15
$IIHDM,179.0,M*2D
$IIVHW,,,179.0,M,0.0,N,,*45
$IIMWV,25.0,R,7.5,N,A*08
$GPGLL,3205.1766,N,03446.0721,E,062826,A,A*4C
$GPRMC,062826,A,3205.1766,N,03446.0721,E,0.0,128.1,160509,3.5,E,A*17
$IIHDM,179.0,M*2D
$IIVHW,,,179.0,M,0.0,N,,*45
$IIMWV,28.0,R,7.5,N,A*05
$GPGLL,3205.1766,N,03446.0721,E,062826,A,A*4C
$GPRMC,062826,A,3205.1766,N,03446.0721,E,0.0,128.1,160509,3.5,E,A*17
$IIHDM,179.0,M*2D
$IIVHW,,,180.0,M,0.0,N,,*43
$IIMWV,29.0,R,7.1,N,A*00
$GPGLL,3205.1766,N,03446.0721,E,062828,A,A*42
$GPRMC,062828,A,3205.1766,N,03446.0721,E,0.0,128.1,160509,3.5,E,A*19
$IIHDM,180.0,M*2B
$IIVHW,,,180.0,M,0.0,N,,*43
$IIMWV,30.0,R,7.0,N,A*09
$GPGLL,3205.1766,N,03446.0721,E,062828,A,A*42
$GPRMC,062828,A,3205.1766,N,03446.0721,E,0.0,128.1,160509,3.5,E,A*19
$IIHDM,180.0,M*2B
$IIVHW,,,180.0,M,0.0,N,,*43
$IIMWV,34.0,R,6.8,N,A*04
$GPGLL,3205.1766,N,03446.0721,E,062830,A,A*4B
$GPRMC,062830,A,3205.1766,N,03446.0721,E,0.0,128.1,160509,3.5,E,A*10
$IIHDM,180.0,M*2B
$IIVHW,,,180.0,M,0.0,N,,*43
$IIMWV,35.0,R,6.7,N,A*0A
$GPGLL,3205.1766,N,03446.0721,E,062830,A,A*4B
$GPRMC,062830,A,3205.1766,N,03446.0721,E,0.0,128.1,160509,3.5,E,A*10
$IIHDM,180.0,M*2B
$IIVHW,,,181.0,M,0.0,N,,*42
$IIMWV,30.0,R,6.5,N,A*0D
$GPGLL,3205.1766,N,03446.0721,E,062832,A,A*49
$GPRMC,062832,A,3205.1766,N,03446.0721,E,0.0,128.1,160509,3.5,E,A*12
$IIHDM,181.0,M*2A
$IIVHW,,,180.0,M,0.0,N,,*43
$IIMWV,25.0,R,6.5,N,A*09
$GPGLL,3205.1766,N,03446.0721,E,062832,A,A*49
$GPRMC,062834,A,3205.1766,N,03446.0721,E,0.0,128.1,160509,3.5,E,A*14
$IIHDM,180.0,M*2B
$IIVHW,,,180.0,M,0.0,N,,*43
$IIMWV,31.0,R,6.8,N,A*01
$GPGLL,3205.1766,N,03446.0721,E,062834,A,A*4F
$GPRMC,062834,A,3205.1766,N,03446.0721,E,0.0,128.1,160509,3.5,E,A*14
$IIHDM,180.0,M*2B
$IIVHW,,,181.0,M,0.0,N,,*42
$IIMWV,32.0,R,6.8,N,A*02
$GPGLL,3205.1766,N,03446.0721,E,062834,A,A*4F
$GPRMC,062834,A,3205.1766,N,03446.0721,E,0.0,128.1,160509,3.5,E,A*14
$IIHDM,181.0,M*2A
$IIVHW,,,180.0,M,0.0,N,,*43
$IIMWV,23.0,R,7.0,N,A*0B
$GPGLL,3205.1766,N,03446.0721,E,062836,A,A*4D
$GPRMC,062836,A,3205.1766,N,03446.0721,E,0.0,128.1,160509,3.5,E,A*16
$IIHDM,180.0,M*2B
$IIVHW,,,180.0,M,0.0,N,,*43
$IIMWV,36.0,R,7.4,N,A*0B
$GPGLL,3205.1766,N,03446.0721,E,062836,A,A*4D
$GPRMC,062836,A,3205.1766,N,03446.0721,E,0.0,128.1,160509,3.5,E,A*16
$IIHDM,180.0,M*2B
$IIVHW,,,180.0,M,0.0,N,,*43
$IIMWV,33.0,R,7.9,N,A*03
$GPGLL,3205.1767,N,03446.0721,E,062838,A,A*42
$GPRMC,062838,A,3205.1767,N,03446.0721,E,0.0,128.1,160509,3.5,E,A*19
$IIHDM,180.0,M*2B
$IIVHW,,,180.0,M,0.0,N,,*43
$IIMWV,39.0,R,8.2,N,A*0D
$GPGLL,3205.1767,N,03446.0721,E,062838,A,A*42
$GPRMC,062838,A,3205.1767,N,03446.0721,E,0.0,128.1,160509,3.5,E,A*19
$IIHDM,180.0,M*2B
$IIVHW,,,180.0,M,0.0,N,,*43
$IIMWV,32.0,R,7.8,N,A*03
$GPGLL,3205.1767,N,03446.0721,E,062840,A,A*4D
$GPRMC,062840,A,3205.1767,N,03446.0721,E,0.0,128.1,160509,3.5,E,A*16
$IIHDM,180.0,M*2B
$IIVHW,,,179.0,M,0.0,N,,*45
$IIMWV,35.0,R,7.6,N,A*0A
$GPGLL,3205.1767,N,03446.0721,E,062840,A,A*4D
$GPRMC,062840,A,3205.1767,N,03446.0721,E,0.0,128.1,160509,3.5,E,A*16
$IIHDM,179.0,M*2D
$IIVHW,,,179.0,M,0.0,N,,*45
$IIMWV,32.0,R,7.4,N,A*0F
$GPGLL,3205.1767,N,03446.0721,E,062842,A,A*4F
$GPRMC,062842,A,3205.1767,N,03446.0721,E,0.0,128.1,160509,3.5,E,A*14
$IIHDM,179.0,M*2D
$IIVHW,,,179.0,M,0.0,N,,*45
$IIMWV,32.0,R,7.4,N,A*0F
$GPGLL,3205.1767,N,03446.0721,E,062842,A,A*4F
$GPRMC,062842,A,3205.1767,N,03446.0721,E,0.0,128.1,160509,3.5,E,A*14
$IIHDM,179.0,M*2D
$IIVHW,,,179.0,M,0.0,N,,*45
$IIMWV,34.0,R,6.9,N,A*05
$GPGLL,3205.1767,N,03446.0721,E,062844,A,A*49
$GPRMC,062844,A,3205.1767,N,03446.0721,E,0.0,128.1,160509,3.5,E,A*12
$IIHDM,179.0,M*2D
$IIVHW,,,179.0,M,0.0,N,,*45
$IIMWV,32.0,R,7.3,N,A*08
$GPGLL,3205.1767,N,03446.0721,E,062844,A,A*49
$GPRMC,062846,A,3205.1767,N,03446.0721,E,0.0,128.1,160509,3.5,E,A*10
$IIHDM,179.0,M*2D
$IIVHW,,,179.0,M,0.0,N,,*45
$IIMWV,32.0,R,7.4,N,A*0F
$GPGLL,3205.1767,N,03446.0721,E,062846,A,A*4B
$GPRMC,062846,A,3205.1767,N,03446.0721,E,0.0,128.1,160509,3.5,E,A*10
$IIHDM,179.0,M*2D
$IIVHW,,,180.0,M,0.0,N,,*43
$IIMWV,33.0,R,7.1,N,A*0B
$GPGLL,3205.1767,N,03446.0721,E,062846,A,A*4B
$GPRMC,062848,A,3205.1767,N,03446.0721,E,0.0,128.1,160509,3.5,E,A*1E
$IIHDM,180.0,M*2B
$IIVHW,,,180.0,M,0.0,N,,*43
$IIMWV,24.0,R,6.9,N,A*04
$GPGLL,3205.1767,N,03446.0721,E,062848,A,A*45
$GPRMC,062848,A,3205.1767,N,03446.0721,E,0.0,128.1,160509,3.5,E,A*1E
$IIHDM,180.0,M*2B
$IIVHW,,,180.0,M,0.0,N,,*43
$IIMWV,22.0,R,6.9,N,A*02
$GPGLL,3205.1767,N,03446.0721,E,062848,A,A*45
$GPRMC,062848,A,3205.1767,N,03446.0721,E,0.0,128.1,160509,3.5,E,A*1E
$IIHDM,180.0,M*2B
$IIVHW,,,180.0,M,0.0,N,,*43
$IIMWV,27.0,R,6.8,N,A*06
$GPGLL,3205.1767,N,03446.0721,E,062850,A,A*4C
$GPRMC,062850,A,3205.1767,N,03446.0721,E,0.0,128.1,160509,3.5,E,A*17
$IIHDM,180.0,M*2B
$IIVHW,,,180.0,M,0.0,N,,*43
$IIMWV,26.0,R,6.7,N,A*08
$GPGLL,3205.1767,N,03446.0721,E,062850,A,A*4C
$GPRMC,062850,A,3205.1767,N,03446.0721,E,0.0,128.1,160509,3.5,E,A*17
$IIHDM,180.0,M*2B
$IIVHW,,,180.0,M,0.0,N,,*43
$IIMWV,20.0,R,6.5,N,A*0C
$GPGLL,3205.1767,N,03446.0721,E,062852,A,A*4E
$GPRMC,062852,A,3205.1767,N,03446.0721,E,0.0,128.1,160509,3.5,E,A*15
$IIHDM,180.0,M*2B
$IIVHW,,,180.0,M,0.0,N,,*43
$IIMWV,30.0,R,7.1,N,A*08
$GPGLL,3205.1767,N,03446.0721,E,062852,A,A*4E
$GPRMC,062852,A,3205.1767,N,03446.0721,E,0.0,128.1,160509,3.5,E,A*15
$IIHDM,180.0,M*2B
$IIVHW,,,180.0,M,0.0,N,,*43
$IIMWV,29.0,R,7.4,N,A*05
$GPGLL,3205.1767,N,03446.0721,E,062854,A,A*48
$GPRMC,062854,A,3205.1767,N,03446.0721,E,0.0,128.1,160509,3.5,E,A*13
$IIHDM,180.0,M*2B
$IIVHW,,,180.0,M,0.0,N,,*43
$IIMWV,25.0,R,7.4,N,A*09
$GPGLL,3205.1767,N,03446.0721,E,062854,A,A*48
$GPRMC,062854,A,3205.1767,N,03446.0721,E,0.0,128.1,160509,3.5,E,A*13
$IIHDM,180.0,M*2B
$IIVHW,,,181.0,M,0.0,N,,*42
$IIMWV,25.0,R,7.4,N,A*09
$GPGLL,3205.1767,N,03446.0721,E,062856,A,A*4A
$GPRMC,062856,A,3205.1767,N,03446.0721,E,0.0,128.1,160509,3.5,E,A*11
$IIHDM,181.0,M*2A
$IIVHW,,,181.0,M,0.0,N,,*42
$IIMWV,31.0,R,7.7,N,A*0F
$GPGLL,3205.1767,N,03446.0721,E,062856,A,A*4A
$GPRMC,062856,A,3205.1767,N,03446.0721,E,0.0,128.1,160509,3.5,E,A*11
$IIHDM,181.0,M*2A
$IIVHW,,,180.0,M,0.0,N,,*43
$IIMWV,25.0,R,8.7,N,A*05
$GPGLL,3205.1767,N,03446.0721,E,062858,A,A*44
$GPRMC,062858,A,3205.1767,N,03446.0721,E,0.0,128.1,160509,3.5,E,A*1F
$IIHDM,180.0,M*2B
$IIVHW,,,180.0,M,0.0,N,,*43
$IIMWV,19.0,R,8.8,N,A*05
$GPGLL,3205.1767,N,03446.0721,E,062858,A,A*44
$GPRMC,062900,A,3205.1767,N,03446.0721,E,0.0,128.1,160509,3.5,E,A*13
$IIHDM,180.0,M*2B
$IIVHW,,,180.0,M,0.0,N,,*43
$IIMWV,21.0,R,8.5,N,A*03
$GPGLL,3205.1767,N,03446.0721,E,062900,A,A*48
$GPRMC,062900,A,3205.1767,N,03446.0721,E,0.0,128.1,160509,3.5,E,A*13
$IIHDM,180.0,M*2B
$IIVHW,,,180.0,M,0.0,N,,*43
$IIMWV,22.0,R,8.2,N,A*07
$GPGLL,3205.1767,N,03446.0721,E,062900,A,A*48
$GPRMC,062900,A,3205.1767,N,03446.0721,E,0.0,128.1,160509,3.5,E,A*13
$IIHDM,180.0,M*2B
$IIVHW,,,180.0,M,0.0,N,,*43
$IIMWV,28.0,R,8.4,N,A*0B
$GPGLL,3205.1767,N,03446.0721,E,062902,A,A*4A
$GPRMC,062902,A,3205.1767,N,03446.0721,E,0.0,128.1,160509,3.5,E,A*11
$IIHDM,180.0,M*2B
$IIVHW,,,180.0,M,0.0,N,,*43
$IIMWV,30.0,R,8.3,N,A*05
$GPGLL,3205.1767,N,03446.0721,E,062902,A,A*4A
$GPRMC,062902,A,3205.1767,N,03446.0721,E,0.0,128.1,160509,3.5,E,A*11
$IIHDM,180.0,M*2B
$IIVHW,,,180.0,M,0.0,N,,*43
$IIMWV,22.0,R,7.9,N,A*03
$GPGLL,3205.1767,N,03446.0721,E,062904,A,A*4C
$GPRMC,062904,A,3205.1767,N,03446.0721,E,0.0,128.1,160509,3.5,E,A*17
$IIHDM,180.0,M*2B
$IIVHW,,,180.0,M,0.0,N,,*43
$IIMWV,27.0,R,7.4,N,A*0B
$GPGLL,3205.1767,N,03446.0721,E,062904,A,A*4C
$GPRMC,062904,A,3205.1767,N,03446.0721,E,0.0,128.1,160509,3.5,E,A*17
$IIHDM,180.0,M*2B
$IIVHW,,,180.0,M,0.0,N,,*43
$IIMWV,27.0,R,7.8,N,A*07
$GPGLL,3205.1767,N,03446.0721,E,062906,A,A*4E
$GPRMC,062906,A,3205.1767,N,03446.0721,E,0.0,128.1,160509,3.5,E,A*15
$IIHDM,180.0,M*2B
$IIVHW,,,180.0,M,0.0,N,,*43
$IIMWV,28.0,R,7.7,N,A*07
$GPGLL,3205.1767,N,03446.0721,E,062906,A,A*4E
$GPRMC,062906,A,3205.1767,N,03446.0721,E,0.0,128.1,160509,3.5,E,A*15
$IIHDM,180.0,M*2B
$IIVHW,,,180.0,M,0.0,N,,*43
$IIMWV,28.0,R,7.9,N,A*09
$GPGLL,3205.1767,N,03446.0721,E,062908,A,A*40
$GPRMC,062908,A,3205.1767,N,03446.0721,E,0.0,128.1,160509,3.5,E,A*1B
$IIHDM,180.0,M*2B
$IIVHW,,,180.0,M,0.0,N,,*43
$IIMWV,28.0,R,7.7,N,A*07
$GPGLL,3205.1767,N,03446.0721,E,062908,A,A*40
$GPRMC,062908,A,3205.1767,N,03446.0721,E,0.0,128.1,160509,3.5,E,A*1B
$IIHDM,180.0,M*2B
$IIVHW,,,180.0,M,0.0,N,,*43
$IIMWV,36.0,R,8.2,N,A*02
$GPGLL,3205.1767,N,03446.0721,E,062910,A,A*49
$GPRMC,062910,A,3205.1767,N,03446.0721,E,0.0,128.1,160509,3.5,E,A*12
$IIHDM,180.0,M*2B
$IIVHW,,,179.0,M,0.0,N,,*45
$IIMWV,33.0,R,8.8,N,A*0D
$GPGLL,3205.1767,N,03446.0721,E,062910,A,A*49
$GPRMC,062912,A,3205.1767,N,03446.0721,E,0.0,128.1,160509,3.5,E,A*10
$IIHDM,179.0,M*2D
$IIVHW,,,180.0,M,0.0,N,,*43
$IIMWV,31.0,R,9.0,N,A*06
$GPGLL,3205.1767,N,03446.0721,E,062912,A,A*4B
$GPRMC,062912,A,3205.1767,N,03446.0721,E,0.0,128.1,160509,3.5,E,A*10
$IIHDM,180.0,M*2B
$IIVHW,,,180.0,M,0.0,N,,*43
$IIMWV,29.0,R,8.7,N,A*09
$GPGLL,3205.1767,N,03446.0721,E,062912,A,A*4B
$GPRMC,062914,A,3205.1767,N,03446.0721,E,0.0,128.1,160509,3.5,E,A*16
$IIHDM,180.0,M*2B
$IIVHW,,,180.0,M,0.0,N,,*43
$IIMWV,29.0,R,8.7,N,A*09
$GPGLL,3205.1767,N,03446.0721,E,062914,A,A*4D
$GPRMC,062914,A,3205.1767,N,03446.0721,E,0.0,128.1,160509,3.5,E,A*16
$IIHDM,180.0,M*2B
$IIVHW,,,180.0,M,0.0,N,,*43
$IIMWV,27.0,R,8.4,N,A*04
$GPGLL,3205.1767,N,03446.0721,E,062914,A,A*4D
$GPRMC,062914,A,3205.1767,N,03446.0721,E,0.0,128.1,160509,3.5,E,A*16
$IIHDM,180.0,M*2B
$IIVHW,,,180.0,M,0.0,N,,*43
$IIMWV,26.0,R,8.2,N,A*03
$GPGLL,3205.1767,N,03446.0721,E,062916,A,A*4F
$GPRMC,062916,A,3205.1767,N,03446.0721,E,0.0,128.1,160509,3.5,E,A*14
$IIHDM,180.0,M*2B
$IIVHW,,,180.0,M,0.0,N,,*43
$IIMWV,29.0,R,8.2,N,A*0C
$GPGLL,3205.1767,N,03446.0721,E,062916,A,A*4F
$GPRMC,062916,A,3205.1767,N,03446.0721,E,0.0,128.1,160509,3.5,E,A*14
$IIHDM,180.0,M*2B
$IIVHW,,,180.0,M,0.0,N,,*43
$IIMWV,26.0,R,8.4,N,A*05
$GPGLL,3205.1767,N,03446.0721,E,062918,A,A*41
$GPRMC,062918,A,3205.1767,N,03446.0721,E,0.0,128.1,160509,3.5,E,A*1A
$IIHDM,180.0,M*2B
$IIVHW,,,180.0,M,0.0,N,,*43
$IIMWV,26.0,R,8.6,N,A*07
$GPGLL,3205.1767,N,03446.0721,E,062918,A,A*41
$GPRMC,062918,A,3205.1767,N,03446.0721,E,0.0,128.1,160509,3.5,E,A*1A
$IIHDM,179.0,M*2D
$IIVHW,,,179.0,M,0.0,N,,*45
$IIMWV,26.0,R,9.1,N,A*01
$GPGLL,3205.1767,N,03446.0721,E,062920,A,A*4A
$GPRMC,062920,A,3205.1767,N,03446.0721,E,0.0,128.1,160509,3.5,E,A*11
$IIHDM,179.0,M*2D
$IIVHW,,,179.0,M,0.0,N,,*45
$IIMWV,26.0,R,9.0,N,A*00
$GPGLL,3205.1767,N,03446.0721,E,062920,A,A*4A
$GPRMC,062920,A,3205.1767,N,03446.0721,E,0.0,128.1,160509,3.5,E,A*11
$IIHDM,179.0,M*2D
$IIVHW,,,179.0,M,0.0,N,,*45
$IIMWV,20.0,R,8.7,N,A*00
$GPGLL,3205.1767,N,03446.0721,E,062922,A,A*48
$GPRMC,062922,A,3205.1767,N,03446.0721,E,0.0,128.1,160509,3.5,E,A*13
$IIHDM,179.0,M*2D
$IIVHW,,,179.0,M,0.0,N,,*45
$IIMWV,22.0,R,8.3,N,A*06
$GPGLL,3205.1767,N,03446.0721,E,062922,A,A*48
$GPRMC,062922,A,3205.1767,N,03446.0721,E,0.0,128.1,160509,3.5,E,A*13
$IIHDM,179.0,M*2D
$IIVHW,,,179.0,M,0.0,N,,*45
$IIMWV,28.0,R,8.1,N,A*0E
$GPGLL,3205.1767,N,03446.0721,E,062924,A,A*4E
$GPRMC,062924,A,3205.1767,N,03446.0721,E,0.0,128.1,160509,3.5,E,A*15
$IIHDM,179.0,M*2D
$IIVHW,,,179.0,M,0.0,N,,*45
$IIMWV,30.0,R,8.3,N,A*05
$GPGLL,3205.1767,N,03446.0721,E,062924,A,A*4E
$GPRMC,062926,A,3205.1767,N,03446.0721,E,0.0,128.1,160509,3.5,E,A*17
$IIHDM,179.0,M*2D
$IIVHW,,,179.0,M,0.0,N,,*45
$IIMWV,36.0,R,8.4,N,A*04
$GPGLL,3205.1767,N,03446.0721,E,062926,A,A*4C
$GPRMC,062926,A,3205.1767,N,03446.0721,E,0.0,128.1,160509,3.5,E,A*17
$IIHDM,180.0,M*2B
$IIVHW,,,180.0,M,0.0,N,,*43
$IIMWV,32.0,R,8.5,N,A*01
$GPGLL,3205.1767,N,03446.0721,E,062926,A,A*4C
$GPRMC,062926,A,3205.1767,N,03446.0721,E,0.0,128.1,160509,3.5,E,A*17
$IIHDM,180.0,M*2B
$IIVHW,,,180.0,M,0.0,N,,*43
$IIMWV,35.0,R,8.6,N,A*05
$GPGLL,3205.1767,N,03446.0721,E,062928,A,A*42
$GPRMC,062928,A,3205.1767,N,03446.0721,E,0.0,128.1,160509,3.5,E,A*19
$IIHDM,180.0,M*2B
$IIVHW,,,180.0,M,0.0,N,,*43
$IIMWV,35.0,R,7.7,N,A*0B
$GPGLL,3205.1767,N,03446.0721,E,062928,A,A*42
$GPRMC,062928,A,3205.1767,N,03446.0721,E,0.0,128.1,160509,3.5,E,A*19
$IIHDM,180.0,M*2B
$IIVHW,,,180.0,M,0.0,N,,*43
$IIMWV,10.0,R,7.9,N,A*02
$GPGLL,3205.1767,N,03446.0721,E,062930,A,A*4B
$GPRMC,062930,A,3205.1767,N,03446.0721,E,0.0,128.1,160509,3.5,E,A*10
$IIHDM,180.0,M*2B
$IIVHW,,,180.0,M,0.0,N,,*43
$IIMWV,20.0,R,7.3,N,A*0B
$GPGLL,3205.1767,N,03446.0721,E,062930,A,A*4B
$GPRMC,062930,A,3205.1767,N,03446.0721,E,0.0,128.1,160509,3.5,E,A*10
$IIHDM,180.0,M*2B
$IIVHW,,,180.0,M,0.0,N,,*43
$IIMWV,20.0,R,8.4,N,A*03
$GPGLL,3205.1767,N,03446.0721,E,062932,A,A*49
$GPRMC,062932,A,3205.1767,N,03446.0721,E,0.0,128.1,160509,3.5,E,A*12
$IIHDM,180.0,M*2B
$IIVHW,,,180.0,M,0.0,N,,*43
$IIMWV,25.0,R,8.7,N,A*05
$GPGLL,3205.1767,N,03446.0721,E,062932,A,A*49
$GPRMC,062932,A,3205.1767,N,03446.0721,E,0.0,128.1,160509,3.5,E,A*12
$IIHDM,180.0,M*2B
$IIVHW,,,180.0,M,0.0,N,,*43
$IIMWV,34.0,R,8.8,N,A*0A
$GPGLL,3205.1767,N,03446.0721,E,062934,A,A*4F
$GPRMC,062934,A,3205.1767,N,03446.0721,E,0.0,128.1,160509,3.5,E,A*14
$IIHDM,180.0,M*2B
$IIVHW,,,180.0,M,0.0,N,,*43
$IIMWV,34.0,R,8.7,N,A*05
$GPGLL,3205.1767,N,03446.0721,E,062934,A,A*4F
$GPRMC,062934,A,3205.1767,N,03446.0721,E,0.0,128.1,160509,3.5,E,A*14
$IIHDM,180.0,M*2B
$IIVHW,,,181.0,M,0.0,N,,*42
$IIMWV,33.0,R,8.2,N,A*07
$GPGLL,3205.1767,N,03446.0721,E,062936,A,A*4D
$GPRMC,062936,A,3205.1767,N,03446.0721,E,0.0,128.1,160509,3.5,E,A*16
$IIHDM,181.0,M*2A
$IIVHW,,,181.0,M,0.0,N,,*42
$IIMWV,35.0,R,7.9,N,A*05
$GPGLL,3205.1767,N,03446.0721,E,062936,A,A*4D
$GPRMC,062938,A,3205.1767,N,03446.0721,E,0.0,128.1,160509,3.5,E,A*18
$IIHDM,180.0,M*2B
$IIVHW,,,180.0,M,0.0,N,,*43
$IIMWV,35.0,R,7.6,N,A*0A
$GPGLL,3205.1767,N,03446.0721,E,062938,A,A*43
$GPRMC,062938,A,3205.1767,N,03446.0721,E,0.0,128.1,160509,3.5,E,A*18
$IIHDM,180.0,M*2B
$IIVHW,,,180.0,M,0.0,N,,*43
$IIMWV,36.0,R,7.7,N,A*08
$GPGLL,3205.1767,N,03446.0721,E,062938,A,A*43
$GPRMC,062940,A,3205.1767,N,03446.0721,E,0.0,128.1,160509,3.5,E,A*17
$IIHDM,180.0,M*2B
$IIVHW,,,180.0,M,0.0,N,,*43
$IIMWV,35.0,R,7.4,N,A*08
$GPGLL,3205.1767,N,03446.0721,E,062940,A,A*4C
$GPRMC,062940,A,3205.1767,N,03446.0721,E,0.0,128.1,160509,3.5,E,A*17
$IIHDM,180.0,M*2B
$IIVHW,,,180.0,M,0.0,N,,*43
$IIMWV,27.0,R,7.5,N,A*0A
$GPGLL,3205.1767,N,03446.0721,E,062940,A,A*4C
$GPRMC,062940,A,3205.1767,N,03446.0721,E,0.0,128.1,160509,3.5,E,A*17
$IIHDM,180.0,M*2B
$IIVHW,,,180.0,M,0.0,N,,*43
$IIMWV,39.0,R,7.9,N,A*09
$GPGLL,3205.1767,N,03446.0721,E,062942,A,A*4E
$GPRMC,062942,A,3205.1767,N,03446.0721,E,0.0,128.1,160509,3.5,E,A*15
$IIHDM,180.0,M*2B
$IIVHW,,,180.0,M,0.0,N,,*43
$IIMWV,35.0,R,7.8,N,A*04
$GPGLL,3205.1767,N,03446.0721,E,062942,A,A*4E
$GPRMC,062942,A,3205.1767,N,03446.0721,E,0.0,128.1,160509,3.5,E,A*15
$IIHDM,180.0,M*2B
$IIVHW,,,180.0,M,0.0,N,,*43
$IIMWV,31.0,R,7.7,N,A*0F
$GPGLL,3205.1767,N,03446.0721,E,062944,A,A*48
$GPRMC,062944,A,3205.1767,N,03446.0721,E,0.0,128.1,160509,3.5,E,A*13
$IIHDM,180.0,M*2B
$IIVHW,,,180.0,M,0.0,N,,*43
$IIMWV,31.0,R,7.7,N,A*0F
$GPGLL,3205.1767,N,03446.0721,E,062944,A,A*48
$GPRMC,062944,A,3205.1767,N,03446.0721,E,0.0,128.1,160509,3.5,E,A*13
$IIHDM,180.0,M*2B
$IIVHW,,,180.0,M,0.0,N,,*43
$IIMWV,27.0,R,7.8,N,A*07
$GPGLL,3205.1767,N,03446.0721,E,062946,A,A*4A
$GPRMC,062946,A,3205.1767,N,03446.0721,E,0.0,128.1,160509,3.5,E,A*11
$IIHDM,180.0,M*2B
$IIVHW,,,180.0,M,0.0,N,,*43
$IIMWV,30.0,R,7.8,N,A*01
$GPGLL,3205.1767,N,03446.0721,E,062946,A,A*4A
$GPRMC,062946,A,3205.1767,N,03446.0721,E,0.0,128.1,160509,3.5,E,A*11
$IIHDM,180.0,M*2B
$IIVHW,,,180.0,M,0.0,N,,*43
$IIMWV,24.0,R,7.7,N,A*0B
$GPGLL,3205.1767,N,03446.0721,E,062948,A,A*44
$GPRMC,062948,A,3205.1767,N,03446.0721,E,0.0,128.1,160509,3.5,E,A*1F
$IIHDM,180.0,M*2B
$IIVHW,,,180.0,M,0.0,N,,*43
$IIMWV,23.0,R,8.2,N,A*06
$GPGLL,3205.1767,N,03446.0721,E,062948,A,A*44
$GPRMC,062948,A,3205.1767,N,03446.0721,E,0.0,128.1,160509,3.5,E,A*1F
$IIHDM,181.0,M*2A
$IIVHW,,,181.0,M,0.0,N,,*42
$IIMWV,27.0,R,8.3,N,A*03
$GPGLL,3205.1767,N,03446.0721,E,062950,A,A*4D
$GPRMC,062950,A,3205.1767,N,03446.0721,E,0.0,128.1,160509,3.5,E,A*16
$IIHDM,180.0,M*2B
$IIVHW,,,180.0,M,0.0,N,,*43
$IIMWV,26.0,R,8.4,N,A*05
$GPGLL,3205.1767,N,03446.0721,E,062950,A,A*4D
$GPRMC,062952,A,3205.1767,N,03446.0721,E,0.0,128.1,160509,3.5,E,A*14
$IIHDM,180.0,M*2B
$IIVHW,,,180.0,M,0.0,N,,*43
$IIMWV,24.0,R,8.2,N,A*01
$GPGLL,3205.1767,N,03446.0721,E,062952,A,A*4F
$GPRMC,062952,A,3205.1767,N,03446.0721,E,0.0,128.1,160509,3.5,E,A*14
$IIHDM,180.0,M*2B
$IIVHW,,,180.0,M,0.0,N,,*43
$IIMWV,22.0,R,8.2,N,A*07
$GPGLL,3205.1767,N,03446.0721,E,062952,A,A*4F
$GPRMC,062952,A,3205.1767,N,03446.0721,E,0.0,128.1,160509,3.5,E,A*14
$IIHDM,180.0,M*2B
$IIVHW,,,180.0,M,0.0,N,,*43
$IIMWV,22.0,R,8.1,N,A*04
$GPGLL,3205.1767,N,03446.0721,E,062954,A,A*49
$GPRMC,062954,A,3205.1767,N,03446.0721,E,0.0,128.1,160509,3.5,E,A*12
$IIHDM,180.0,M*2B
$IIVHW,,,180.0,M,0.0,N,,*43
$IIMWV,23.0,R,7.9,N,A*02
$GPGLL,3205.1767,N,03446.0721,E,062954,A,A*49
$GPRMC,062954,A,3205.1767,N,03446.0721,E,0.0,128.1,160509,3.5,E,A*12
$IIHDM,180.0,M*2B
$IIVHW,,,180.0,M,0.0,N,,*43
$IIMWV,24.0,R,8.1,N,A*02
$GPGLL,3205.1767,N,03446.0721,E,062956,A,A*4B
$GPRMC,062956,A,3205.1767,N,03446.0721,E,0.0,128.1,160509,3.5,E,A*10
$IIHDM,180.0,M*2B
$IIVHW,,,180.0,M,0.0,N,,*43
$IIMWV,33.0,R,7.0,N,A*0A
$GPGLL,3205.1767,N,03446.0721,E,062956,A,A*4B
$GPRMC,062956,A,3205.1767,N,03446.0721,E,0.0,128.1,160509,3.5,E,A*10
$IIHDM,180.0,M*2B
$IIVHW,,,179.0,M,0.0,N,,*45
$IIMWV,27.0,R,7.1,N,A*0E
$GPGLL,3205.1767,N,03446.0721,E,062958,A,A*45
$GPRMC,062958,A,3205.1767,N,03446.0721,E,0.0,128.1,160509,3.5,E,A*1E
$IIHDM,179.0,M*2D
$IIVHW,,,179.0,M,0.0,N,,*45
$IIMWV,32.0,R,7.0,N,A*0B
$GPGLL,3205.1767,N,03446.0721,E,062958,A,A*45
$GPRMC,062958,A,3205.1767,N,03446.0721,E,0.0,128.1,160509,3.5,E,A*1E
$IIHDM,179.0,M*2D
$IIVHW,,,179.0,M,0.0,N,,*45
$IIMWV,27.0,R,7.2,N,A*0D
$GPGLL,3205.1767,N,03446.0721,E,063000,A,A*40
$GPRMC,063000,A,3205.1767,N,03446.0721,E,0.0,128.1,160509,3.5,E,A*1B
$IIHDM,179.0,M*2D
$IIVHW,,,179.0,M,0.0,N,,*45
$IIMWV,26.0,R,7.6,N,A*08
$GPGLL,3205.1767,N,03446.0721,E,063000,A,A*40
$GPRMC,063000,A,3205.1767,N,03446.0721,E,0.0,128.1,160509,3.5,E,A*1B
$IIHDM,179.0,M*2D
$IIVHW,,,179.0,M,0.0,N,,*45
$IIMWV,20.0,R,7.7,N,A*0F
$GPGLL,3205.1767,N,03446.0721,E,063002,A,A*42
$GPRMC,063002,A,3205.1767,N,03446.0721,E,0.0,128.1,160509,3.5,E,A*19
$IIHDM,179.0,M*2D
$IIVHW,,,180.0,M,0.0,N,,*43
$IIMWV,28.0,R,7.4,N,A*04
$GPGLL,3205.1767,N,03446.0721,E,063002,A,A*42
$GPRMC,063004,A,3205.1767,N,03446.0721,E,0.0,128.1,160509,3.5,E,A*1F
$IIHDM,180.0,M*2B
$IIVHW,,,180.0,M,0.0,N,,*43
$IIMWV,28.0,R,7.0,N,A*00
$GPGLL,3205.1767,N,03446.0721,E,063004,A,A*44
$GPRMC,063004,A,3205.1767,N,03446.0721,E,0.0,128.1,160509,3.5,E,A*1F
$IIHDM,180.0,M*2B
$IIVHW,,,181.0,M,0.0,N,,*42
$IIMWV,34.0,R,6.7,N,A*0B
$GPGLL,3205.1767,N,03446.0721,E,063004,A,A*44
$GPRMC,063006,A,3205.1767,N,03446.0721,E,0.0,128.1,160509,3.5,E,A*1D
$IIHDM,181.0,M*2A
$IIVHW,,,181.0,M,0.0,N,,*42
$IIMWV,35.0,R,6.8,N,A*05
$GPGLL,3205.1767,N,03446.0721,E,063006,A,A*46
$GPRMC,063006,A,3205.1767,N,03446.0721,E,0.0,128.1,160509,3.5,E,A*1D
$IIHDM,181.0,M*2A
$IIVHW,,,181.0,M,0.0,N,,*42
$IIMWV,29.0,R,6.7,N,A*07
$GPGLL,3205.1767,N,03446.0721,E,063006,A,A*46
$GPRMC,063006,A,3205.1767,N,03446.0721,E,0.0,128.1,160509,3.5,E,A*1D
$IIHDM,181.0,M*2A
$IIVHW,,,181.0,M,0.0,N,,*42
$IIMWV,45.0,R,6.2,N,A*08
$GPGLL,3205.1767,N,03446.0721,E,063008,A,A*48
$GPRMC,063008,A,3205.1767,N,03446.0721,E,0.0,128.1,160509,3.5,E,A*13
$IIHDM,181.0,M*2A
$IIVHW,,,181.0,M,0.0,N,,*42
$IIMWV,37.0,R,5.8,N,A*04
$GPGLL,3205.1767,N,03446.0721,E,063008,A,A*48
$GPRMC,063008,A,3205.1767,N,03446.0721,E,0.0,128.1,160509,3.5,E,A*13
$IIHDM,181.0,M*2A
$IIVHW,,,181.0,M,0.0,N,,*42
$IIMWV,36.0,R,6.0,N,A*0E
$GPGLL,3205.1767,N,03446.0721,E,063010,A,A*41
$GPRMC,063010,A,3205.1767,N,03446.0721,E,0.0,128.1,160509,3.5,E,A*1A
$IIHDM,181.0,M*2A
$IIVHW,,,181.0,M,0.0,N,,*42
$IIMWV,38.0,R,6.5,N,A*05
$GPGLL,3205.1767,N,03446.0721,E,063010,A,A*41
$GPRMC,063010,A,3205.1767,N,03446.0721,E,0.0,128.1,160509,3.5,E,A*1A
$IIHDM,181.0,M*2A
$IIVHW,,,181.0,M,0.0,N,,*42
$IIMWV,34.0,R,7.0,N,A*0D
$GPGLL,3205.1767,N,03446.0721,E,063012,A,A*43
$GPRMC,063012,A,3205.1767,N,03446.0721,E,0.0,128.1,160509,3.5,E,A*18
$IIHDM,180.0,M*2B
$IIVHW,,,180.0,M,0.0,N,,*43
$IIMWV,28.0,R,7.0,N,A*00
$GPGLL,3205.1767,N,03446.0721,E,063012,A,A*43
$GPRMC,063012,A,3205.1767,N,03446.0721,E,0.0,128.1,160509,3.5,E,A*18
$IIHDM,180.0,M*2B
$IIVHW,,,180.0,M,0.0,N,,*43
$IIMWV,35.0,R,6.7,N,A*0A
$GPGLL,3205.1767,N,03446.0721,E,063014,A,A*45
$GPRMC,063014,A,3205.1767,N,03446.0721,E,0.0,128.1,160509,3.5,E,A*1E
$IIHDM,180.0,M*2B
$IIVHW,,,180.0,M,0.0,N,,*43
$IIMWV,34.0,R,6.2,N,A*0E
$GPGLL,3205.1767,N,03446.0721,E,063014,A,A*45
$GPRMC,063014,A,3205.1767,N,03446.0721,E,0.0,128.1,160509,3.5,E,A*1E
$IIHDM,179.0,M*2D
$IIVHW,,,180.0,M,0.0,N,,*43
$IIMWV,35.0,R,5.6,N,A*08
$GPGLL,3205.1767,N,03446.0721,E,063016,A,A*47
$GPRMC,063016,A,3205.1767,N,03446.0721,E,0.0,128.1,160509,3.5,E,A*1C
$IIHDM,179.0,M*2D
$IIVHW,,,179.0,M,0.0,N,,*45
$IIMWV,30.0,R,5.3,N,A*08
$GPGLL,3205.1767,N,03446.0721,E,063016,A,A*47
$GPRMC,063018,A,3205.1768,N,03446.0721,E,0.0,128.1,160509,3.5,E,A*1D
$IIHDM,179.0,M*2D
$IIVHW,,,179.0,M,0.0,N,,*45
$IIMWV,32.0,R,5.9,N,A*00
$GPGLL,3205.1768,N,03446.0721,E,063018,A,A*46
$GPRMC,063018,A,3205.1768,N,03446.0721,E,0.0,128.1,160509,3.5,E,A*1D
$IIHDM,180.0,M*2B
$IIVHW,,,180.0,M,0.0,N,,*43
$IIMWV,18.0,R,6.2,N,A*00
$GPGLL,3205.1768,N,03446.0721,E,063018,A,A*46
$GPRMC,063018,A,3205.1768,N,03446.0721,E,0.0,128.1,160509,3.5,E,A*1D
$IIHDM,180.0,M*2B
$IIVHW,,,180.0,M,0.0,N,,*43
$IIMWV,25.0,R,6.3,N,A*0F
$GPGLL,3205.1768,N,03446.0721,E,063020,A,A*4D
$GPRMC,063020,A,3205.1768,N,03446.0721,E,0.0,128.1,160509,3.5,E,A*16
$IIHDM,180.0,M*2B
$IIVHW,,,180.0,M,0.0,N,,*43
$IIMWV,30.0,R,6.2,N,A*0A
$GPGLL,3205.1768,N,03446.0721,E,063020,A,A*4D
$GPRMC,063020,A,3205.1768,N,03446.0721,E,0.0,128.1,160509,3.5,E,A*16
$IIHDM,180.0,M*2B
$IIVHW,,,180.0,M,0.0,N,,*43
$IIMWV,26.0,R,6.0,N,A*0F
$GPGLL,3205.1768,N,03446.0721,E,063022,A,A*4F
$GPRMC,063022,A,3205.1768,N,03446.0721,E,0.0,128.1,160509,3.5,E,A*14
$IIHDM,180.0,M*2B
$IIVHW,,,180.0,M,0.0,N,,*43
$IIMWV,28.0,R,6.0,N,A*01
$GPGLL,3205.1768,N,03446.0721,E,063022,A,A*4F
$GPRMC,063022,A,3205.1768,N,03446.0721,E,0.0,128.1,160509,3.5,E,A*14
$IIHDM,181.0,M*2A
$IIVHW,,,181.0,M,0.0,N,,*42
$IIMWV,22.0,R,6.1,N,A*0A
$GPGLL,3205.1768,N,03446.0721,E,063024,A,A*49
$GPRMC,063024,A,3205.1768,N,03446.0721,E,0.0,128.1,160509,3.5,E,A*12
$IIHDM,181.0,M*2A
$IIVHW,,,181.0,M,0.0,N,,*42
$IIMWV,27.0,R,6.7,N,A*09
$GPGLL,3205.1768,N,03446.0721,E,063024,A,A*49
$GPRMC,063024,A,3205.1768,N,03446.0721,E,0.0,128.1,160509,3.5,E,A*12
$IIHDM,181.0,M*2A
$IIVHW,,,181.0,M,0.0,N,,*42
$IIMWV,27.0,R,7.0,N,A*0F
$GPGLL,3205.1768,N,03446.0721,E,063026,A,A*4B
$GPRMC,063026,A,3205.1768,N,03446.0721,E,0.0,128.1,160509,3.5,E,A*10
$IIHDM,181.0,M*2A
$IIVHW,,,181.0,M,0.0,N,,*42
$IIMWV,26.0,R,7.1,N,A*0F
$GPGLL,3205.1768,N,03446.0721,E,063026,A,A*4B
$GPRMC,063026,A,3205.1768,N,03446.0721,E,0.0,128.1,160509,3.5,E,A*10
$IIHDM,181.0,M*2A
$IIVHW,,,181.0,M,0.0,N,,*42
$IIMWV,25.0,R,7.2,N,A*0F
$GPGLL,3205.1768,N,03446.0721,E,063028,A,A*45
$GPRMC,063028,A,3205.1768,N,03446.0721,E,0.0,128.1,160509,3.5,E,A*1E
$IIHDM,181.0,M*2A
$IIVHW,,,181.0,M,0.0,N,,*42
$IIMWV,15.0,R,7.7,N,A*09
$GPGLL,3205.1768,N,03446.0721,E,063028,A,A*45
$GPRMC,063030,A,3205.1768,N,03446.0721,E,0.0,128.1,160509,3.5,E,A*17
$IIHDM,181.0,M*2A
$IIVHW,,,181.0,M,0.0,N,,*42
$IIMWV,5.0,R,7.8,N,A*37
$GPGLL,3205.1768,N,03446.0721,E,063030,A,A*4C
$GPRMC,063030,A,3205.1768,N,03446.0721,E,0.0,128.1,160509,3.5,E,A*17
$IIHDM,181.0,M*2A
$IIVHW,,,180.0,M,0.0,N,,*43
$IIMWV,13.0,R,7.6,N,A*0E
$GPGLL,3205.1768,N,03446.0721,E,063030,A,A*4C
$GPRMC,063032,A,3205.1768,N,03446.0721,E,0.0,128.1,160509,3.5,E,A*15
$IIHDM,180.0,M*2B
$IIVHW,,,180.0,M,0.0,N,,*43
$IIMWV,27.0,R,7.1,N,A*0E
$GPGLL,3205.1768,N,03446.0721,E,063032,A,A*4E
$GPRMC,063032,A,3205.1768,N,03446.0721,E,0.0,128.1,160509,3.5,E,A*15
$IIHDM,180.0,M*2B
$IIVHW,,,180.0,M,0.0,N,,*43
$IIMWV,29.0,R,6.5,N,A*05
$GPGLL,3205.1768,N,03446.0721,E,063032,A,A*4E
$GPRMC,063032,A,3205.1768,N,03446.0721,E,0.0,128.1,160509,3.5,E,A*15
$IIHDM,180.0,M*2B
$IIVHW,,,180.0,M,0.0,N,,*43
$IIMWV,46.0,R,6.0,N,A*09
$GPGLL,3205.1768,N,03446.0721,E,063034,A,A*48
$GPRMC,063034,A,3205.1768,N,03446.0721,E,0.0,128.1,160509,3.5,E,A*13
$IIHDM,180.0,M*2B
$IIVHW,,,180.0,M,0.0,N,,*43
$IIMWV,28.0,R,6.2,N,A*03
$GPGLL,3205.1768,N,03446.0721,E,063034,A,A*48
$GPRMC,063034,A,3205.1768,N,03446.0721,E,0.0,128.1,160509,3.5,E,A*13
$IIHDM,180.0,M*2B
$IIVHW,,,180.0,M,0.0,N,,*43
$IIMWV,42.0,R,6.1,N,A*0C
$GPGLL,3205.1768,N,03446.0721,E,063036,A,A*4A
$GPRMC,063036,A,3205.1768,N,03446.0721,E,0.0,128.1,160509,3.5,E,A*11
$IIHDM,180.0,M*2B
$IIVHW,,,180.0,M,0.0,N,,*43
$IIMWV,38.0,R,6.5,N,A*05
$GPGLL,3205.1768,N,03446.0721,E,063036,A,A*4A
$GPRMC,063036,A,3205.1768,N,03446.0721,E,0.0,128.1,160509,3.5,E,A*11
$IIHDM,180.0,M*2B
$IIVHW,,,180.0,M,0.0,N,,*43
$IIMWV,40.0,R,6.6,N,A*09
$GPGLL,3205.1768,N,03446.0721,E,063038,A,A*44
$GPRMC,063038,A,3205.1768,N,03446.0721,E,0.0,128.1,160509,3.5,E,A*1F
$IIHDM,180.0,M*2B
$IIVHW,,,180.0,M,0.0,N,,*43
$IIMWV,49.0,R,6.7,N,A*01
$GPGLL,3205.1768,N,03446.0721,E,063038,A,A*44
$GPRMC,063038,A,3205.1768,N,03446.0721,E,0.0,128.1,160509,3.5,E,A*1F
$IIHDM,180.0,M*2B
$IIVHW,,,180.0,M,0.0,N,,*43
$IIMWV,44.0,R,6.4,N,A*0F
$GPGLL,3205.1768,N,03446.0721,E,063040,A,A*4B
$GPRMC,063040,A,3205.1768,N,03446.0721,E,0.0,128.1,160509,3.5,E,A*10
$IIHDM,180.0,M*2B
$IIVHW,,,181.0,M,0.0,N,,*42
$IIMWV,48.0,R,5.9,N,A*0D
$GPGLL,3205.1768,N,03446.0721,E,063040,A,A*4B
$GPRMC,063040,A,3205.1768,N,03446.0721,E,0.0,128.1,160509,3.5,E,A*10
$IIHDM,181.0,M*2A
$IIVHW,,,181.0,M,0.0,N,,*42
$IIMWV,12.0,R,5.5,N,A*0E
$GPGLL,3205.1768,N,03446.0721,E,063042,A,A*49
$GPRMC,063042,A,3205.1768,N,03446.0721,E,0.0,128.1,160509,3.5,E,A*12
$IIHDM,181.0,M*2A
$IIVHW,,,181.0,M,0.0,N,,*42
$IIMWV,28.0,R,5.3,N,A*01
$GPGLL,3205.1768,N,03446.0721,E,063042,A,A*49
$GPRMC,063044,A,3205.1768,N,03446.0721,E,0.0,128.1,160509,3.5,E,A*14
$IIHDM,181.0,M*2A
$IIVHW,,,181.0,M,0.0,N,,*42
$IIMWV,35.0,R,5.1,N,A*0F
$GPGLL,3205.1768,N,03446.0721,E,063044,A,A*4F
$GPRMC,063044,A,3205.1768,N,03446.0721,E,0.0,128.1,160509,3.5,E,A*14
$IIHDM,181.0,M*2A
$IIVHW,,,181.0,M,0.0,N,,*42
$IIMWV,25.0,R,5.1,N,A*0E
$GPGLL,3205.1768,N,03446.0721,E,063044,A,A*4F
$GPRMC,063044,A,3205.1768,N,03446.0721,E,0.0,128.1,160509,3.5,E,A*14
$IIHDM,181.0,M*2A
$IIVHW,,,181.0,M,0.0,N,,*42
$IIMWV,36.0,R,4.9,N,A*05
$GPGLL,3205.1768,N,03446.0721,E,063046,A,A*4D
$GPRMC,063046,A,3205.1768,N,03446.0721,E,0.0,128.1,160509,3.5,E,A*16
$IIHDM,181.0,M*2A
$IIVHW,,,181.0,M,0.0,N,,*42
$IIMWV,24.0,R,4.7,N,A*08
$GPGLL,3205.1768,N,03446.0721,E,063046,A,A*4D
$GPRMC,063046,A,3205.1768,N,03446.0721,E,0.0,128.1,160509,3.5,E,A*16
$IIHDM,181.0,M*2A
$IIVHW,,,181.0,M,0.0,N,,*42
$IIMWV,16.0,R,5.5,N,A*0A
$GPGLL,3205.1768,N,03446.0721,E,063048,A,A*43
$GPRMC,063048,A,3205.1768,N,03446.0721,E,0.0,128.1,160509,3.5,E,A*18
$IIHDM,181.0,M*2A
$IIVHW,,,181.0,M,0.0,N,,*42
$IIMWV,40.0,R,5.7,N,A*0B
$GPGLL,3205.1768,N,03446.0721,E,063048,A,A*43
$GPRMC,063048,A,3205.1768,N,03446.0721,E,0.0,128.1,160509,3.5,E,A*18
$IIHDM,181.0,M*2A
$IIVHW,,,181.0,M,0.0,N,,*42
$IIMWV,22.0,R,6.0,N,A*0B
$GPGLL,3205.1768,N,03446.0721,E,063050,A,A*4A
$GPRMC,063050,A,3205.1768,N,03446.0721,E,0.0,128.1,160509,3.5,E,A*11
$IIHDM,181.0,M*2A
$IIVHW,,,181.0,M,0.0,N,,*42
$IIMWV,19.0,R,6.5,N,A*06
$GPGLL,3205.1768,N,03446.0721,E,063050,A,A*4A
$GPRMC,063050,A,3205.1768,N,03446.0721,E,0.0,128.1,160509,3.5,E,A*11
$IIHDM,180.0,M*2B
$IIVHW,,,180.0,M,0.0,N,,*43
$IIMWV,49.0,R,6.5,N,A*03
$GPGLL,3205.1768,N,03446.0721,E,063052,A,A*48
$GPRMC,063052,A,3205.1768,N,03446.0721,E,0.0,128.1,160509,3.5,E,A*13
$IIHDM,180.0,M*2B
$IIVHW,,,180.0,M,0.0,N,,*43
$IIMWV,24.0,R,5.6,N,A*08
$GPGLL,3205.1768,N,03446.0721,E,063052,A,A*48
$GPRMC,063052,A,3205.1768,N,03446.0721,E,0.0,128.1,160509,3.5,E,A*13
$IIHDM,180.0,M*2B
$IIVHW,,,180.0,M,0.0,N,,*43
$IIMWV,15.0,R,5.3,N,A*0F
$GPGLL,3205.1768,N,03446.0721,E,063054,A,A*4E
$GPRMC,063054,A,3205.1768,N,03446.0721,E,0.0,128.1,160509,3.5,E,A*15
$IIHDM,180.0,M*2B
$IIVHW,,,180.0,M,0.0,N,,*43
$IIMWV,30.0,R,5.6,N,A*0D
$GPGLL,3205.1768,N,03446.0721,E,063054,A,A*4E
$GPRMC,063056,A,3205.1768,N,03446.0721,E,0.0,128.1,160509,3.5,E,A*17
$IIHDM,180.0,M*2B
$IIVHW,,,180.0,M,0.0,N,,*43
$IIMWV,21.0,R,5.3,N,A*08
$GPGLL,3205.1768,N,03446.0721,E,063056,A,A*4C
$GPRMC,063056,A,3205.1768,N,03446.0721,E,0.0,128.1,160509,3.5,E,A*17
$IIHDM,180.0,M*2B
$IIVHW,,,181.0,M,0.0,N,,*42
$IIMWV,34.0,R,5.8,N,A*07
$GPGLL,3205.1768,N,03446.0721,E,063056,A,A*4C
$GPRMC,063058,A,3205.1768,N,03446.0721,E,0.0,128.1,160509,3.5,E,A*19
$IIHDM,181.0,M*2A
$IIVHW,,,181.0,M,0.0,N,,*42
$IIMWV,26.0,R,6.5,N,A*0A
$GPGLL,3205.1768,N,03446.0721,E,063058,A,A*42
$GPRMC,063058,A,3205.1768,N,03446.0721,E,0.0,128.1,160509,3.5,E,A*19
$IIHDM,181.0,M*2A
$IIVHW,,,181.0,M,0.0,N,,*42
$IIMWV,25.0,R,6.7,N,A*0B
$GPGLL,3205.1768,N,03446.0721,E,063058,A,A*42
$GPRMC,063058,A,3205.1768,N,03446.0721,E,0.0,128.1,160509,3.5,E,A*19
$IIHDM,181.0,M*2A
$IIVHW,,,181.0,M,0.0,N,,*42
$IIMWV,24.0,R,6.7,N,A*0A
$GPGLL,3205.1768,N,03446.0721,E,063100,A,A*4E
$GPRMC,063100,A,3205.1768,N,03446.0721,E,0.0,128.1,160509,3.5,E,A*15
$IIHDM,181.0,M*2A
$IIVHW,,,181.0,M,0.0,N,,*42
$IIMWV,19.0,R,6.5,N,A*06
$GPGLL,3205.1768,N,03446.0721,E,063100,A,A*4E
$GPRMC,063100,A,3205.1768,N,03446.0721,E,0.0,128.1,160509,3.5,E,A*15
$IIHDM,181.0,M*2A
$IIVHW,,,181.0,M,0.0,N,,*42
$IIMWV,24.0,R,6.8,N,A*05
$GPGLL,3205.1768,N,03446.0721,E,063102,A,A*4C
$GPRMC,063102,A,3205.1768,N,03446.0721,E,0.0,128.1,160509,3.5,E,A*17
$IIHDM,181.0,M*2A
$IIVHW,,,181.0,M,0.0,N,,*42
$IIMWV,29.0,R,7.2,N,A*03
$GPGLL,3205.1768,N,03446.0721,E,063102,A,A*4C
$GPRMC,063102,A,3205.1768,N,03446.0721,E,0.0,128.1,160509,3.5,E,A*17
$IIHDM,181.0,M*2A
$IIVHW,,,181.0,M,0.0,N,,*42
$IIMWV,30.0,R,6.7,N,A*0F
$GPGLL,3205.1768,N,03446.0721,E,063104,A,A*4A
$GPRMC,063104,A,3205.1768,N,03446.0721,E,0.0,128.1,160509,3.5,E,A*11
$IIHDM,181.0,M*2A
$IIVHW,,,180.0,M,0.0,N,,*43
$IIMWV,32.0,R,6.5,N,A*0F
$GPGLL,3205.1768,N,03446.0721,E,063104,A,A*4A
$GPRMC,063104,A,3205.1768,N,03446.0721,E,0.0,128.1,160509,3.5,E,A*11
$IIHDM,180.0,M*2B
$IIVHW,,,180.0,M,0.0,N,,*43
$IIMWV,7.0,R,7.1,N,A*3C
$GPGLL,3205.1768,N,03446.0721,E,063106,A,A*48
$GPRMC,063106,A,3205.1768,N,03446.0721,E,0.0,128.1,160509,3.5,E,A*13
$IIHDM,180.0,M*2B
$IIVHW,,,180.0,M,0.0,N,,*43
$IIMWV,18.0,R,7.4,N,A*07
$GPGLL,3205.1768,N,03446.0721,E,063106,A,A*48
$GPRMC,063106,A,3205.1768,N,03446.0721,E,0.0,128.1,160509,3.5,E,A*13
$IIHDM,180.0,M*2B
$IIVHW,,,180.0,M,0.0,N,,*43
$IIMWV,26.0,R,7.6,N,A*08
$GPGLL,3205.1768,N,03446.0721,E,063108,A,A*46
$GPRMC,063108,A,3205.1768,N,03446.0721,E,0.0,128.1,160509,3.5,E,A*1D
$IIHDM,180.0,M*2B
$IIVHW,,,180.0,M,0.0,N,,*43
$IIMWV,26.0,R,7.7,N,A*09
$GPGLL,3205.1768,N,03446.0721,E,063108,A,A*46
$GPRMC,063110,A,3205.1768,N,03446.0721,E,0.0,128.1,160509,3.5,E,A*14
$IIHDM,180.0,M*2B
$IIVHW,,,180.0,M,0.0,N,,*43
$IIMWV,28.0,R,7.9,N,A*09
$GPGLL,3205.1768,N,03446.0721,E,063110,A,A*4F
$GPRMC,063110,A,3205.1768,N,03446.0721,E,0.0,128.1,160509,3.5,E,A*14
$IIHDM,180.0,M*2B
$IIVHW,,,180.0,M,0.0,N,,*43
$IIMWV,30.0,R,8.3,N,A*05
$GPGLL,3205.1768,N,03446.0721,E,063110,A,A*4F
$GPRMC,063110,A,3205.1768,N,03446.0721,E,0.0,128.1,160509,3.5,E,A*14
$IIHDM,180.0,M*2B
$IIVHW,,,180.0,M,0.0,N,,*43
$IIMWV,24.0,R,8.2,N,A*01
$GPGLL,3205.1768,N,03446.0721,E,063112,A,A*4D
$GPRMC,063112,A,3205.1768,N,03446.0721,E,0.0,128.1,160509,3.5,E,A*16
$IIHDM,180.0,M*2B
$IIVHW,,,180.0,M,0.0,N,,*43
$IIMWV,26.0,R,8.4,N,A*05
$GPGLL,3205.1768,N,03446.0721,E,063112,A,A*4D
$GPRMC,063112,A,3205.1768,N,03446.0721,E,0.0,128.1,160509,3.5,E,A*16
$IIHDM,180.0,M*2B
$IIVHW,,,180.0,M,0.0,N,,*43
$IIMWV,26.0,R,8.6,N,A*07
$GPGLL,3205.1768,N,03446.0721,E,063114,A,A*4B
$GPRMC,063114,A,3205.1768,N,03446.0721,E,0.0,128.1,160509,3.5,E,A*10
$IIHDM,180.0,M*2B
$IIVHW,,,180.0,M,0.0,N,,*43
$IIMWV,28.0,R,8.7,N,A*08
$GPGLL,3205.1768,N,03446.0721,E,063114,A,A*4B
$GPRMC,063114,A,3205.1768,N,03446.0721,E,0.0,128.1,160509,3.5,E,A*10
$IIHDM,180.0,M*2B
$IIVHW,,,180.0,M,0.0,N,,*43
$IIMWV,31.0,R,8.4,N,A*03
$GPGLL,3205.1768,N,03446.0721,E,063116,A,A*49
$GPRMC,063116,A,3205.1768,N,03446.0721,E,0.0,128.1,160509,3.5,E,A*12
$IIHDM,180.0,M*2B
$IIVHW,,,180.0,M,0.0,N,,*43
$IIMWV,26.0,R,8.0,N,A*01
$GPGLL,3205.1768,N,03446.0721,E,063116,A,A*49
$GPRMC,063116,A,3205.1768,N,03446.0721,E,0.0,128.1,160509,3.5,E,A*12
$IIHDM,180.0,M*2B
$IIVHW,,,180.0,M,0.0,N,,*43
$IIMWV,24.0,R,8.2,N,A*01
$GPGLL,3205.1768,N,03446.0721,E,063118,A,A*47
$GPRMC,063118,A,3205.1768,N,03446.0721,E,0.0,128.1,160509,3.5,E,A*1C
$IIHDM,180.0,M*2B
$IIVHW,,,180.0,M,0.0,N,,*43
$IIMWV,26.0,R,8.4,N,A*05
$GPGLL,3205.1768,N,03446.0721,E,063118,A,A*47
$GPRMC,063118,A,3205.1768,N,03446.0721,E,0.0,128.1,160509,3.5,E,A*1C
$IIHDM,180.0,M*2B
$IIVHW,,,180.0,M,0.0,N,,*43
$IIMWV,26.0,R,8.5,N,A*04
$GPGLL,3205.1768,N,03446.0721,E,063120,A,A*4C
$GPRMC,063120,A,3205.1768,N,03446.0721,E,0.0,128.1,160509,3.5,E,A*17
$IIHDM,180.0,M*2B
$IIVHW,,,180.0,M,0.0,N,,*43
$IIMWV,25.0,R,8.3,N,A*01
$GPGLL,3205.1768,N,03446.0721,E,063120,A,A*4C
$GPRMC,063122,A,3205.1768,N,03446.0721,E,0.0,128.1,160509,3.5,E,A*15
$IIHDM,180.0,M*2B
$IIVHW,,,180.0,M,0.0,N,,*43
$IIMWV,25.0,R,8.4,N,A*06
$GPGLL,3205.1768,N,03446.0721,E,063122,A,A*4E
$GPRMC,063122,A,3205.1768,N,03446.0721,E,0.0,128.1,160509,3.5,E,A*15
$IIHDM,180.0,M*2B
$IIVHW,,,180.0,M,0.0,N,,*43
$IIMWV,27.0,R,8.5,N,A*05
$GPGLL,3205.1768,N,03446.0721,E,063122,A,A*4E
$GPRMC,063124,A,3205.1768,N,03446.0721,E,0.0,128.1,160509,3.5,E,A*13
$IIHDM,180.0,M*2B
$IIVHW,,,180.0,M,0.0,N,,*43
$IIMWV,26.0,R,8.8,N,A*09
$GPGLL,3205.1768,N,03446.0721,E,063124,A,A*48
$GPRMC,063124,A,3205.1768,N,03446.0721,E,0.0,128.1,160509,3.5,E,A*13
$IIHDM,180.0,M*2B
$IIVHW,,,180.0,M,0.0,N,,*43
$IIMWV,26.0,R,8.7,N,A*06
$GPGLL,3205.1768,N,03446.0721,E,063124,A,A*48
$GPRMC,063124,A,3205.1768,N,03446.0721,E,0.0,128.1,160509,3.5,E,A*13
$IIHDM,180.0,M*2B
$IIVHW,,,180.0,M,0.0,N,,*43
$IIMWV,28.0,R,8.5,N,A*0A
$GPGLL,3205.1768,N,03446.0721,E,063126,A,A*4A
$GPRMC,063126,A,3205.1768,N,03446.0721,E,0.0,128.1,160509,3.5,E,A*11
$IIHDM,180.0,M*2B
$IIVHW,,,180.0,M,0.0,N,,*43
$IIMWV,30.0,R,8.4,N,A*02
$GPGLL,3205.1768,N,03446.0721,E,063126,A,A*4A
$GPRMC,063126,A,3205.1768,N,03446.0721,E,0.0,128.1,160509,3.5,E,A*11
$IIHDM,180.0,M*2B
$IIVHW,,,180.0,M,0.0,N,,*43
$IIMWV,25.0,R,8.1,N,A*03
$GPGLL,3205.1768,N,03446.0721,E,063128,A,A*44
$GPRMC,063128,A,3205.1768,N,03446.0721,E,0.0,128.1,160509,3.5,E,A*1F
$IIHDM,180.0,M*2B
$IIVHW,,,180.0,M,0.0,N,,*43
$IIMWV,29.0,R,8.4,N,A*0A
$GPGLL,3205.1768,N,03446.0721,E,063128,A,A*44
$GPRMC,063128,A,3205.1768,N,03446.0721,E,0.0,128.1,160509,3.5,E,A*1F
$IIHDM,180.0,M*2B
$IIVHW,,,180.0,M,0.0,N,,*43
$IIMWV,26.0,R,8.3,N,A*02
$GPGLL,3205.1768,N,03446.0721,E,063130,A,A*4D
$GPRMC,063130,A,3205.1768,N,03446.0721,E,0.0,128.1,160509,3.5,E,A*16
$IIHDM,180.0,M*2B
$IIVHW,,,180.0,M,0.0,N,,*43
$IIMWV,26.0,R,8.1,N,A*00
$GPGLL,3205.1768,N,03446.0721,E,063130,A,A*4D
$GPRMC,063130,A,3205.1768,N,03446.0721,E,0.0,128.1,160509,3.5,E,A*16
$IIHDM,180.0,M*2B
$IIVHW,,,180.0,M,0.0,N,,*43
$IIMWV,26.0,R,8.3,N,A*02
$GPGLL,3205.1768,N,03446.0721,E,063132,A,A*4F
$GPRMC,063132,A,3205.1768,N,03446.0721,E,0.0,128.1,160509,3.5,E,A*14
$IIHDM,180.0,M*2B
$IIVHW,,,180.0,M,0.0,N,,*43
$IIMWV,25.0,R,8.5,N,A*07
$GPGLL,3205.1768,N,03446.0721,E,063132,A,A*4F
$GPRMC,063132,A,3205.1768,N,03446.0721,E,0.0,128.1,160509,3.5,E,A*14
$IIHDM,180.0,M*2B
$IIVHW,,,180.0,M,0.0,N,,*43
$IIMWV,24.0,R,8.1,N,A*02
$GPGLL,3205.1768,N,03446.0721,E,063134,A,A*49
$GPRMC,063134,A,3205.1768,N,03446.0721,E,0.0,128.1,160509,3.5,E,A*12
$IIHDM,180.0,M*2B
$IIVHW,,,180.0,M,0.0,N,,*43
$IIMWV,29.0,R,7.9,N,A*08
$GPGLL,3205.1768,N,03446.0721,E,063134,A,A*49
$GPRMC,063136,A,3205.1768,N,03446.0721,E,0.0,128.1,160509,3.5,E,A*10
$IIHDM,180.0,M*2B
$IIVHW,,,180.0,M,0.0,N,,*43
$IIMWV,31.0,R,8.2,N,A*05
$GPGLL,3205.1768,N,03446.0721,E,063136,A,A*4B
$GPRMC,063136,A,3205.1768,N,03446.0721,E,0.0,128.1,160509,3.5,E,A*10
$IIHDM,180.0,M*2B
$IIVHW,,,180.0,M,0.0,N,,*43
$IIMWV,35.0,R,8.8,N,A*0B
$GPGLL,3205.1768,N,03446.0721,E,063136,A,A*4B
$GPRMC,063136,A,3205.1768,N,03446.0721,E,0.0,128.1,160509,3.5,E,A*10
$IIHDM,180.0,M*2B
$IIVHW,,,180.0,M,0.0,N,,*43
$IIMWV,28.0,R,8.8,N,A*07
$GPGLL,3205.1768,N,03446.0721,E,063138,A,A*45
$GPRMC,063138,A,3205.1768,N,03446.0721,E,0.0,128.1,160509,3.5,E,A*1E
$IIHDM,180.0,M*2B
$IIVHW,,,180.0,M,0.0,N,,*43
$IIMWV,31.0,R,8.4,N,A*03
$GPGLL,3205.1768,N,03446.0721,E,063138,A,A*45
$GPRMC,063138,A,3205.1768,N,03446.0721,E,0.0,128.1,160509,3.5,E,A*1E
$IIHDM,180.0,M*2B
$IIVHW,,,180.0,M,0.0,N,,*43
$IIMWV,30.0,R,8.2,N,A*04
$GPGLL,3205.1768,N,03446.0721,E,063140,A,A*4A
$GPRMC,063140,A,3205.1768,N,03446.0721,E,0.0,128.1,160509,3.5,E,A*11
$IIHDM,180.0,M*2B
$IIVHW,,,180.0,M,0.0,N,,*43
$IIMWV,30.0,R,8.4,N,A*02
$GPGLL,3205.1768,N,03446.0721,E,063140,A,A*4A
$GPRMC,063140,A,3205.1768,N,03446.0721,E,0.0,128.1,160509,3.5,E,A*11
$IIHDM,180.0,M*2B
$IIVHW,,,180.0,M,0.0,N,,*43
$IIMWV,30.0,R,8.3,N,A*05
$GPGLL,3205.1768,N,03446.0721,E,063142,A,A*48
$GPRMC,063142,A,3205.1768,N,03446.0721,E,0.0,128.1,160509,3.5,E,A*13
$IIHDM,180.0,M*2B
$IIVHW,,,180.0,M,0.0,N,,*43
$IIMWV,32.0,R,8.2,N,A*06
$GPGLL,3205.1768,N,03446.0721,E,063142,A,A*48
$GPRMC,063142,A,3205.1768,N,03446.0721,E,0.0,128.1,160509,3.5,E,A*13
$IIHDM,180.0,M*2B
$IIVHW,,,180.0,M,0.0,N,,*43
$IIMWV,27.0,R,8.2,N,A*02
$GPGLL,3205.1768,N,03446.0721,E,063144,A,A*4E
$GPRMC,063144,A,3205.1768,N,03446.0721,E,0.0,128.1,160509,3.5,E,A*15
$IIHDM,180.0,M*2B
$IIVHW,,,180.0,M,0.0,N,,*43
$IIMWV,25.0,R,8.2,N,A*00
$GPGLL,3205.1768,N,03446.0721,E,063144,A,A*4E
$GPRMC,063144,A,3205.1768,N,03446.0721,E,0.0,128.1,160509,3.5,E,A*15
$IIHDM,180.0,M*2B
$IIVHW,,,180.0,M,0.0,N,,*43
$IIMWV,28.0,R,8.4,N,A*0B
$GPGLL,3205.1768,N,03446.0721,E,063146,A,A*4C
$GPRMC,063146,A,3205.1768,N,03446.0721,E,0.0,128.1,160509,3.5,E,A*17
$IIHDM,180.0,M*2B
$IIVHW,,,180.0,M,0.0,N,,*43
$IIMWV,27.0,R,8.1,N,A*01
$GPGLL,3205.1768,N,03446.0721,E,063146,A,A*4C
$GPRMC,063148,A,3205.1768,N,03446.0721,E,0.0,128.1,160509,3.5,E,A*19
$IIHDM,180.0,M*2B
$IIVHW,,,180.0,M,0.0,N,,*43
$IIMWV,26.0,R,8.1,N,A*00
$GPGLL,3205.1768,N,03446.0721,E,063148,A,A*42
$GPRMC,063148,A,3205.1768,N,03446.0721,E,0.0,128.1,160509,3.5,E,A*19
$IIHDM,180.0,M*2B
$IIVHW,,,180.0,M,0.0,N,,*43
$IIMWV,27.0,R,8.0,N,A*00
$GPGLL,3205.1768,N,03446.0721,E,063148,A,A*42
$GPRMC,063150,A,3205.1768,N,03446.0721,E,0.0,128.1,160509,3.5,E,A*10
$IIHDM,180.0,M*2B
$IIVHW,,,180.0,M,0.0,N,,*43
$IIMWV,27.0,R,7.9,N,A*06
$GPGLL,3205.1768,N,03446.0721,E,063150,A,A*4B
$GPRMC,063150,A,3205.1768,N,03446.0721,E,0.0,128.1,160509,3.5,E,A*10
$IIHDM,180.0,M*2B
$IIVHW,,,180.0,M,0.0,N,,*43
$IIMWV,27.0,R,7.9,N,A*06
$GPGLL,3205.1768,N,03446.0721,E,063150,A,A*4B
$GPRMC,063150,A,3205.1768,N,03446.0721,E,0.0,128.1,160509,3.5,E,A*10
$IIHDM,180.0,M*2B
$IIVHW,,,180.0,M,0.0,N,,*43
$IIMWV,27.0,R,8.0,N,A*00
$GPGLL,3205.1768,N,03446.0721,E,063152,A,A*49
$GPRMC,063152,A,3205.1768,N,03446.0721,E,0.0,128.1,160509,3.5,E,A*12
$IIHDM,180.0,M*2B
$IIVHW,,,180.0,M,0.0,N,,*43
$IIMWV,25.0,R,7.7,N,A*0A
$GPGLL,3205.1768,N,03446.0721,E,063152,A,A*49
$GPRMC,063152,A,3205.1768,N,03446.0721,E,0.0,128.1,160509,3.5,E,A*12
$IIHDM,180.0,M*2B
$IIVHW,,,180.0,M,0.0,N,,*43
$IIMWV,27.0,R,7.2,N,A*0D
$GPGLL,3205.1768,N,03446.0721,E,063154,A,A*4F
$GPRMC,063154,A,3205.1768,N,03446.0721,E,0.0,128.1,160509,3.5,E,A*14
$IIHDM,179.0,M*2D
$IIVHW,,,180.0,M,0.0,N,,*43
$IIMWV,33.0,R,6.7,N,A*0C
$GPGLL,3205.1768,N,03446.0721,E,063154,A,A*4F
$GPRMC,063154,A,3205.1768,N,03446.0721,E,0.0,128.1,160509,3.5,E,A*14
$IIHDM,180.0,M*2B
$IIVHW,,,180.0,M,0.0,N,,*43
$IIMWV,15.0,R,6.1,N,A*0E
$GPGLL,3205.1768,N,03446.0721,E,063156,A,A*4D
$GPRMC,063156,A,3205.1768,N,03446.0721,E,0.0,128.1,160509,3.5,E,A*16
$IIHDM,180.0,M*2B
$IIVHW,,,180.0,M,0.0,N,,*43
$IIMWV,33.0,R,7.2,N,A*08
$GPGLL,3205.1768,N,03446.0721,E,063156,A,A*4D
$GPRMC,063156,A,3205.1768,N,03446.0721,E,0.0,128.1,160509,3.5,E,A*16
$IIHDM,180.0,M*2B
$IIVHW,,,181.0,M,0.0,N,,*42
$IIMWV,23.0,R,7.5,N,A*0E
$GPGLL,3205.1768,N,03446.0721,E,063158,A,A*43
$GPRMC,063158,A,3205.1768,N,03446.0721,E,0.0,128.1,160509,3.5,E,A*18
$IIHDM,181.0,M*2A
$IIVHW,,,181.0,M,0.0,N,,*42
$IIMWV,45.0,R,6.4,N,A*0E
$GPGLL,3205.1768,N,03446.0721,E,063158,A,A*43
$GPRMC,063200,A,3205.1768,N,03446.0721,E,0.0,128.1,160509,3.5,E,A*16
$IIHDM,181.0,M*2A
$IIVHW,,,181.0,M,0.0,N,,*42
$IIMWV,36.0,R,6.3,N,A*0D
$GPGLL,3205.1768,N,03446.0721,E,063200,A,A*4D
$GPRMC,063200,A,3205.1768,N,03446.0721,E,0.0,128.1,160509,3.5,E,A*16
$IIHDM,181.0,M*2A
$IIVHW,,,181.0,M,0.0,N,,*42
$IIMWV,21.0,R,7.0,N,A*09
$GPGLL,3205.1768,N,03446.0721,E,063200,A,A*4D
$GPRMC,063202,A,3205.1768,N,03446.0721,E,0.0,128.1,160509,3.5,E,A*14
$IIHDM,181.0,M*2A
$IIVHW,,,180.0,M,0.0,N,,*43
$IIMWV,30.0,R,7.5,N,A*0C
$GPGLL,3205.1768,N,03446.0721,E,063202,A,A*4F
$GPRMC,063202,A,3205.1768,N,03446.0721,E,0.0,128.1,160509,3.5,E,A*14
$IIHDM,180.0,M*2B
$IIVHW,,,180.0,M,0.0,N,,*43
$IIMWV,36.0,R,7.9,N,A*06
$GPGLL,3205.1768,N,03446.0721,E,063202,A,A*4F
$GPRMC,063202,A,3205.1768,N,03446.0721,E,0.0,128.1,160509,3.5,E,A*14
$IIHDM,180.0,M*2B
$IIVHW,,,180.0,M,0.0,N,,*43
$IIMWV,43.0,R,7.9,N,A*04
$GPGLL,3205.1768,N,03446.0721,E,063204,A,A*49
$GPRMC,063204,A,3205.1768,N,03446.0721,E,0.0,128.1,160509,3.5,E,A*12
$IIHDM,180.0,M*2B
$IIVHW,,,180.0,M,0.0,N,,*43
$IIMWV,43.0,R,7.7,N,A*0A
$GPGLL,3205.1768,N,03446.0721,E,063204,A,A*49
$GPRMC,063204,A,3205.1768,N,03446.0721,E,0.0,128.1,160509,3.5,E,A*12
$IIHDM,180.0,M*2B
$IIVHW,,,179.0,M,0.0,N,,*45
$IIMWV,28.0,R,8.0,N,A*0F
$GPGLL,3205.1768,N,03446.0721,E,063206,A,A*4B
$GPRMC,063206,A,3205.1768,N,03446.0721,E,0.0,128.1,160509,3.5,E,A*10
$IIHDM,179.0,M*2D
$IIVHW,,,179.0,M,0.0,N,,*45
$IIMWV,34.0,R,8.3,N,A*01
$GPGLL,3205.1768,N,03446.0721,E,063206,A,A*4B
$GPRMC,063206,A,3205.1768,N,03446.0721,E,0.0,128.1,160509,3.5,E,A*10
$IIHDM,179.0,M*2D
$IIVHW,,,180.0,M,0.0,N,,*43
$IIMWV,30.0,R,8.1,N,A*07
$GPGLL,3205.1768,N,03446.0721,E,063208,A,A*45
$GPRMC,063208,A,3205.1768,N,03446.0721,E,0.0,128.1,160509,3.5,E,A*1E
$IIHDM,180.0,M*2B
$IIVHW,,,179.0,M,0.0,N,,*45
$IIMWV,28.0,R,8.3,N,A*0C
$GPGLL,3205.1768,N,03446.0721,E,063208,A,A*45
$GPRMC,063208,A,3205.1768,N,03446.0721,E,0.0,128.1,160509,3.5,E,A*1E
$IIHDM,179.0,M*2D
$IIVHW,,,179.0,M,0.0,N,,*45
$IIMWV,33.0,R,8.2,N,A*07
$GPGLL,3205.1768,N,03446.0721,E,063210,A,A*4C
$GPRMC,063210,A,3205.1768,N,03446.0721,E,0.0,128.1,160509,3.5,E,A*17
$IIHDM,179.0,M*2D
$IIVHW,,,179.0,M,0.0,N,,*45
$IIMWV,35.0,R,8.4,N,A*07
$GPGLL,3205.1768,N,03446.0721,E,063210,A,A*4C
$GPRMC,063210,A,3205.1768,N,03446.0721,E,0.0,128.1,160509,3.5,E,A*17
$IIHDM,180.0,M*2B
$IIVHW,,,180.0,M,0.0,N,,*43
$IIMWV,32.0,R,8.1,N,A*05
$GPGLL,3205.1768,N,03446.0721,E,063212,A,A*4E
$GPRMC,063212,A,3205.1768,N,03446.0721,E,0.0,128.1,160509,3.5,E,A*15
$IIHDM,180.0,M*2B
$IIVHW,,,180.0,M,0.0,N,,*43
$IIMWV,33.0,R,8.1,N,A*04
$GPGLL,3205.1768,N,03446.0721,E,063212,A,A*4E
$GPRMC,063214,A,3205.1768,N,03446.0721,E,0.0,128.1,160509,3.5,E,A*13
$IIHDM,180.0,M*2B
$IIVHW,,,180.0,M,0.0,N,,*43
$IIMWV,33.0,R,8.2,N,A*07
$GPGLL,3205.1768,N,03446.0721,E,063214,A,A*48
$GPRMC,063214,A,3205.1768,N,03446.0721,E,0.0,128.1,160509,3.5,E,A*13
$IIHDM,180.0,M*2B
$IIVHW,,,180.0,M,0.0,N,,*43
$IIMWV,33.0,R,8.2,N,A*07
$GPGLL,3205.1768,N,03446.0721,E,063214,A,A*48
$GPRMC,063214,A,3205.1768,N,03446.0721,E,0.0,128.1,160509,3.5,E,A*13
$IIHDM,180.0,M*2B
$IIVHW,,,180.0,M,0.0,N,,*43
$IIMWV,31.0,R,8.4,N,A*03
$GPGLL,3205.1768,N,03446.0721,E,063216,A,A*4A
$GPRMC,063216,A,3205.1768,N,03446.0721,E,0.0,128.1,160509,3.5,E,A*11
$IIHDM,180.0,M*2B
$IIVHW,,,180.0,M,0.0,N,,*43
$IIMWV,31.0,R,8.4,N,A*03
$GPGLL,3205.1768,N,03446.0721,E,063216,A,A*4A
$GPRMC,063216,A,3205.1768,N,03446.0721,E,0.0,128.1,160509,3.5,E,A*11
$IIHDM,180.0,M*2B
$IIVHW,,,180.0,M,0.0,N,,*43
$IIMWV,35.0,R,8.6,N,A*05
$GPGLL,3205.1768,N,03446.0721,E,063218,A,A*44
$GPRMC,063218,A,3205.1768,N,03446.0721,E,0.0,128.1,160509,3.5,E,A*1F
$IIHDM,180.0,M*2B
$IIVHW,,,180.0,M,0.0,N,,*43
$IIMWV,33.0,R,8.6,N,A*03
$GPGLL,3205.1768,N,03446.0721,E,063218,A,A*44
$GPRMC,063218,A,3205.1768,N,03446.0721,E,0.0,128.1,160509,3.5,E,A*1F
$IIHDM,180.0,M*2B
$IIVHW,,,180.0,M,0.0,N,,*43
$IIMWV,30.0,R,8.6,N,A*00
$GPGLL,3205.1768,N,03446.0721,E,063220,A,A*4F
$GPRMC,063220,A,3205.1768,N,03446.0721,E,0.0,128.1,160509,3.5,E,A*14
$IIHDM,180.0,M*2B
$IIVHW,,,180.0,M,0.0,N,,*43
$IIMWV,33.0,R,8.4,N,A*01
$GPGLL,3205.1768,N,03446.0721,E,063220,A,A*4F
$GPRMC,063220,A,3205.1768,N,03446.0721,E,0.0,128.1,160509,3.5,E,A*14
$IIHDM,180.0,M*2B
$IIVHW,,,179.0,M,0.0,N,,*45
$IIMWV,36.0,R,8.7,N,A*07
$GPGLL,3205.1768,N,03446.0721,E,063222,A,A*4D
$GPRMC,063222,A,3205.1768,N,03446.0721,E,0.0,128.1,160509,3.5,E,A*16
$IIHDM,179.0,M*2D
$IIVHW,,,179.0,M,0.0,N,,*45
$IIMWV,35.0,R,9.2,N,A*00
$GPGLL,3205.1768,N,03446.0721,E,063222,A,A*4D
$GPRMC,063222,A,3205.1768,N,03446.0721,E,0.0,128.1,160509,3.5,E,A*16
$IIHDM,179.0,M*2D
$IIVHW,,,179.0,M,0.0,N,,*45
$IIMWV,24.0,R,8.8,N,A*0B
$GPGLL,3205.1768,N,03446.0721,E,063224,A,A*4B
$GPRMC,063224,A,3205.1768,N,03446.0721,E,0.0,128.1,160509,3.5,E,A*10
$IIHDM,179.0,M*2D
$IIVHW,,,180.0,M,0.0,N,,*43
$IIMWV,29.0,R,8.7,N,A*09
$GPGLL,3205.1768,N,03446.0721,E,063224,A,A*4B
$GPRMC,063226,A,3205.1768,N,03446.0721,E,0.0,128.1,160509,3.5,E,A*12
$IIHDM,180.0,M*2B
$IIVHW,,,180.0,M,0.0,N,,*43
$IIMWV,30.0,R,8.3,N,A*05
$GPGLL,3205.1768,N,03446.0721,E,063226,A,A*49
$GPRMC,063226,A,3205.1768,N,03446.0721,E,0.0,128.1,160509,3.5,E,A*12
$IIHDM,180.0,M*2B
$IIVHW,,,180.0,M,0.0,N,,*43
$IIMWV,32.0,R,8.4,N,A*00
$GPGLL,3205.1768,N,03446.0721,E,063226,A,A*49
$GPRMC,063228,A,3205.1768,N,03446.0721,E,0.0,128.1,160509,3.5,E,A*1C
$IIHDM,180.0,M*2B
$IIVHW,,,180.0,M,0.0,N,,*43
$IIMWV,33.0,R,8.5,N,A*00
$GPGLL,3205.1768,N,03446.0721,E,063228,A,A*47
$GPRMC,063228,A,3205.1768,N,03446.0721,E,0.0,128.1,160509,3.5,E,A*1C
$IIHDM,180.0,M*2B
$IIVHW,,,180.0,M,0.0,N,,*43
$IIMWV,30.0,R,8.4,N,A*02
$GPGLL,3205.1768,N,03446.0721,E,063228,A,A*47
$GPRMC,063228,A,3205.1768,N,03446.0721,E,0.0,128.1,160509,3.5,E,A*1C
$IIHDM,180.0,M*2B
$IIVHW,,,180.0,M,0.0,N,,*43
$IIMWV,31.0,R,8.4,N,A*03
$GPGLL,3205.1768,N,03446.0721,E,063230,A,A*4E
$GPRMC,063230,A,3205.1768,N,03446.0721,E,0.0,128.1,160509,3.5,E,A*15
$IIHDM,180.0,M*2B
$IIVHW,,,180.0,M,0.0,N,,*43
$IIMWV,32.0,R,8.2,N,A*06
$GPGLL,3205.1768,N,03446.0721,E,063230,A,A*4E
$GPRMC,063230,A,3205.1768,N,03446.0721,E,0.0,128.1,160509,3.5,E,A*15
$IIHDM,180.0,M*2B
$IIVHW,,,180.0,M,0.0,N,,*43
$IIMWV,33.0,R,8.1,N,A*04
$GPGLL,3205.1768,N,03446.0721,E,063232,A,A*4C
$GPRMC,063232,A,3205.1768,N,03446.0721,E,0.0,128.1,160509,3.5,E,A*17
$IIHDM,180.0,M*2B
$IIVHW,,,180.0,M,0.0,N,,*43
$IIMWV,33.0,R,8.4,N,A*01
$GPGLL,3205.1768,N,03446.0721,E,063232,A,A*4C
$GPRMC,063232,A,3205.1768,N,03446.0721,E,0.0,128.1,160509,3.5,E,A*17
$IIHDM,180.0,M*2B
$IIVHW,,,180.0,M,0.0,N,,*43
$IIMWV,32.0,R,8.4,N,A*00
$GPGLL,3205.1768,N,03446.0721,E,063234,A,A*4A
